% program   : RTKLIB ver.2.4.2
% inp file  : /home/kcwian/Workspace/catkin_gnss/src/GraphGNSSLib/global_fusion/dataset/gps_solution_TST/COM3_190428_124409.obs
% inp file  : /home/kcwian/Workspace/catkin_gnss/src/GraphGNSSLib/global_fusion/dataset/gps_solution_TST/hksc1180.19o
% inp file  : /home/kcwian/Workspace/catkin_gnss/src/GraphGNSSLib/global_fusion/dataset/gps_solution_TST/hksc1180.19b
% inp file  : /home/kcwian/Workspace/catkin_gnss/src/GraphGNSSLib/global_fusion/dataset/gps_solution_TST/hksc1180.19n
% obs start : 2019/04/28 12:44:34.0 GPST (week2051  45874.0s)
% obs end   : 2019/04/28 13:13:53.0 GPST (week2051  47633.0s)
% pos mode  : kinematic
% freqs     : L1+L2
% solution  : combined
% elev mask : 15.0 deg
% dynamics  : off
% tidecorr  : off
% ionos opt : broadcast
% tropo opt : saastamoinen
% ephemeris : broadcast
% navi sys  : gps glonass galileo qzss sbas
% amb res   : fix and hold
% amb glo   : on
% val thres : 3.0
% antenna1  :                       ( 0.0000  0.0000  0.0000)
% antenna2  :                       ( 0.0000  0.0000  0.0000)
% ref pos   : 22.322172082, 114.141187963,   20.2386
%
% (lat/lon/height=WGS84/ellipsoidal,Q=1:fix,2:float,3:sbas,4:dgps,5:single,6:ppp,ns=# of satellites)
%  GPST        , latitude(deg),longitude(deg), height(m),  Q, ns,  sdn(m),  sde(m),  sdu(m), sdne(m), sdeu(m), sdun(m),age(s), ratio
2051, 45874.000,  22.301477586, 114.190302688,    6.1501,  2,  5,  0.4530,  0.6054,  4.5757, -0.0702, -1.3518,  0.8034,  4.00,   0.0
2051, 45875.000,  22.301460053, 114.190270301,   -6.2437,  5,  3,  0.4919,  0.7465, 21.2007, -0.5484, -3.6801,  2.7140,  5.00,   0.0
2051, 45876.000,  22.301452950, 114.190268949,    6.8346,  2,  4,  0.3779,  0.4460,  3.2704, -0.3355, -1.0193,  0.8789,  6.00,   0.0
2051, 45877.000,  22.301445651, 114.190280403,  -10.5749,  5,  3,  4.9720,  1.2116, 20.6034, -2.2943, -4.7406, 10.0769,  7.00,   0.0
2051, 45879.000,  22.301498104, 114.190265596,   28.8187,  2,  6,  0.3613,  0.4099,  1.8564, -0.3068, -0.8083,  0.6538,  9.00,   0.0
2051, 45880.000,  22.301454621, 114.190313178,   12.8774,  2,  6,  0.1931,  0.2551,  1.4479,  0.0619, -0.5296,  0.2698, 10.00,   0.0
2051, 45881.000,  22.301460883, 114.190305386,   15.5028,  2,  6,  0.1799,  0.2444,  1.4267,  0.0943, -0.5136,  0.2380, 11.00,   0.0
2051, 45882.000,  22.301457326, 114.190305220,   14.1227,  2,  6,  0.1797,  0.2443,  1.4260,  0.0946, -0.5133,  0.2375, 12.00,   0.0
2051, 45883.000,  22.301462236, 114.190305095,   14.6589,  2,  6,  0.2248,  0.4796,  2.4172,  0.2541, -1.0339, -0.4542, 13.00,   0.0
2051, 45884.000,  22.301463479, 114.190341745,   -5.4995,  2,  5,  0.2158,  0.2493,  1.4283,  0.1970, -0.5194, -0.2904, 14.00,   0.0
2051, 45885.000,  22.301461833, 114.190342673,   -8.0399,  2,  6,  0.2149,  0.2478,  1.4224,  0.1973, -0.5161, -0.2897, 15.00,   0.0
2051, 45886.000,  22.301425782, 114.190309382,   -3.9127,  2,  6,  0.4062,  0.3961,  2.4485,  0.3597, -0.7472, -0.2004, 16.00,   0.0
2051, 45887.000,  22.301465683, 114.190395653,  -67.1150,  2,  6,  0.0832,  0.1035,  0.5289,  0.0225, -0.1731,  0.1066, 17.00,   0.0
2051, 45888.000,  22.301465002, 114.190393323,  -67.2934,  2,  6,  0.0859,  0.1085,  0.5449, -0.0163, -0.1853,  0.1201, 18.00,   0.0
2051, 45889.000,  22.301457881, 114.190401123,  -71.4342,  2,  6,  0.0769,  0.0937,  0.4959,  0.0422, -0.1484,  0.0772, 19.00,   0.0
2051, 45890.000,  22.301436411, 114.190425115, -122.3777,  2,  4,  0.0798,  0.0972,  0.7802,  0.0345, -0.1947,  0.1389, 20.00,   0.0
2051, 45891.000,  22.301451137, 114.190406191,  -81.4075,  2,  6,  0.0763,  0.0930,  0.4931,  0.0425, -0.1467,  0.0761, 21.00,   0.0
2051, 45892.000,  22.301466682, 114.190408785,  -72.6563,  2,  4,  0.0793,  0.0932,  0.5122,  0.0425, -0.1480,  0.0906, 22.00,   0.0
2051, 45893.000,  22.301468610, 114.190416456,  -84.6924,  2,  6,  0.0759,  0.0925,  0.4911,  0.0426, -0.1454,  0.0754, 23.00,   0.0
2051, 45894.000,  22.301498050, 114.190447880,  -88.3553,  2,  5,  0.0794,  0.0953,  0.4910,  0.0486, -0.1470,  0.0714, 24.00,   0.0
2051, 45895.000,  22.301482033, 114.190419122,  -82.1715,  2,  6,  0.0755,  0.0923,  0.4912,  0.0429, -0.1450,  0.0766, 25.00,   2.4
2051, 45896.000,  22.301506461, 114.190405332,  -52.6283,  2,  6,  0.0740,  0.0927,  0.5271,  0.0432, -0.1470,  0.0720, 26.00, 172.7
2051, 45897.000,  22.301505593, 114.190406125,  -54.7142,  2,  5,  0.0731,  0.0914,  0.4133,  0.0452, -0.1284,  0.0399, 27.00,   3.1
2051, 45898.000,  22.301505828, 114.190406597,  -54.5214,  2,  6,  0.0730,  0.0911,  0.4039,  0.0454, -0.1265,  0.0369, 28.00, 999.9
2051, 45899.000,  22.301506170, 114.190407133,  -54.4090,  2,  6,  0.0731,  0.0912,  0.4035,  0.0455, -0.1265,  0.0364, 29.00,  43.7
2051, 45900.000,  22.301505732, 114.190405735,  -54.0455,  2,  6,  0.0731,  0.0910,  0.4021,  0.0457, -0.1264,  0.0358, -0.00,  96.9
2051, 45901.000,  22.301508991, 114.190408585,  -52.5547,  2,  5,  0.0836,  0.0911,  0.4720,  0.0221, -0.1532,  0.0725,  1.00,  12.0
2051, 45902.000,  22.301508387, 114.190408448,  -51.2991,  2,  5,  0.0829,  0.0903,  0.4775,  0.0221, -0.1496,  0.0650,  2.00,  17.6
2051, 45903.000,  22.301508681, 114.190408442,  -52.7457,  2,  6,  0.0805,  0.0857,  0.4253,  0.0328, -0.1448,  0.0532,  3.00,   3.7
2051, 45904.000,  22.301509235, 114.190408471,  -52.5778,  2,  6,  0.0802,  0.0860,  0.4282,  0.0343, -0.1461,  0.0485,  4.00,   1.1
2051, 45905.000,  22.301508551, 114.190408032,  -52.2380,  2,  5,  0.0885,  0.0890,  0.4356,  0.0457, -0.1490,  0.0421,  5.00,  16.7
2051, 45906.000,  22.301516123, 114.190410213,  -50.7498,  2,  6,  0.0798,  0.0875,  0.4568,  0.0363, -0.1550,  0.0445,  6.00,  37.7
2051, 45907.000,  22.301537455, 114.190319283,  -19.0381,  2,  6,  0.0643,  0.0146,  0.1408, -0.0151, -0.0170, -0.0830,  7.00,   3.4
2051, 45908.000,  22.301480810, 114.190303831,   -1.2254,  1,  6,  0.1237,  0.0176,  0.2470, -0.0277,  0.0211, -0.1669,  8.00,   8.1
2051, 45909.000,  22.301507072, 114.190391523,  -41.2160,  2,  6,  0.0828,  0.0998,  0.5001,  0.0532, -0.1863, -0.0770,  9.00,  16.7
2051, 45910.000,  22.301595115, 114.190289374,  -26.4550,  5,  3,  9.8993,  0.4942, 18.7607, -2.1977,  3.0176,-13.6190, 10.00,   0.0
2051, 45911.000,  22.301482200, 114.190282997,    0.7748,  2,  6,  0.0725,  0.0696,  0.3588,  0.0149, -0.1006,  0.0788, 11.00,   0.0
2051, 45912.000,  22.301480878, 114.190277129,    0.7457,  2,  6,  0.0718,  0.0684,  0.3366,  0.0168, -0.0936,  0.0734, 12.00,   0.0
2051, 45913.000,  22.301482204, 114.190269533,    2.0987,  2,  6,  0.0715,  0.0682,  0.3464,  0.0161, -0.0955,  0.0755, 13.00,   0.0
2051, 45914.000,  22.301485708, 114.190261646,    2.2237,  2,  6,  0.0707,  0.0666,  0.3068,  0.0191, -0.0832,  0.0661, 14.00,   0.0
2051, 45915.000,  22.301492222, 114.190253874,    2.4610,  2,  6,  0.0703,  0.0661,  0.3039,  0.0193, -0.0814,  0.0652, 15.00,   0.0
2051, 45916.000,  22.301500942, 114.190247558,    2.4419,  2,  6,  0.0700,  0.0657,  0.3015,  0.0196, -0.0798,  0.0644, 16.00,   0.0
2051, 45917.000,  22.301510642, 114.190243665,    1.3737,  2, 11,  0.0664,  0.0617,  0.2908,  0.0221, -0.0684,  0.0577, 17.00,   0.0
2051, 45918.000,  22.301522291, 114.190236986,    1.4907,  2, 11,  0.0665,  0.0621,  0.2951,  0.0223, -0.0661,  0.0555, 18.00,   0.0
2051, 45919.000,  22.301530353, 114.190194566,   14.2872,  1, 11,  0.0315,  0.0334,  0.2350, -0.0125, -0.0747,  0.0559, 19.00,   3.9
2051, 45920.000,  22.301551014, 114.190189975,   13.3443,  1, 12,  0.0277,  0.0304,  0.1956, -0.0088, -0.0625,  0.0434, 20.00, 164.0
2051, 45921.000,  22.301581361, 114.190217064,    2.9761,  2, 12,  0.0658,  0.0604,  0.2787,  0.0213, -0.0648,  0.0607, 21.00,   1.2
2051, 45922.000,  22.301601061, 114.190178747,   10.0799,  1, 13,  0.0264,  0.0285,  0.1702, -0.0117, -0.0531,  0.0393, 22.00,   5.4
2051, 45923.000,  22.301634206, 114.190195838,    3.0518,  2, 14,  0.0656,  0.0600,  0.2742,  0.0216, -0.0621,  0.0603, 23.00,   1.8
2051, 45924.000,  22.301661534, 114.190184585,    3.1481,  2, 14,  0.0657,  0.0600,  0.2742,  0.0217, -0.0619,  0.0604, 24.00,   1.4
2051, 45925.000,  22.301690055, 114.190172812,    3.2485,  2, 14,  0.0657,  0.0601,  0.2752,  0.0218, -0.0611,  0.0605, 25.00,   1.8
2051, 45926.000,  22.301720947, 114.190160185,    3.2682,  2, 14,  0.0658,  0.0601,  0.2746,  0.0219, -0.0614,  0.0605, 26.00,   1.1
2051, 45927.000,  22.301753782, 114.190147645,    2.9216,  2, 14,  0.0661,  0.0605,  0.2757,  0.0224, -0.0623,  0.0605, 27.00,   1.5
2051, 45928.000,  22.301788532, 114.190133771,    2.9525,  2, 14,  0.0669,  0.0605,  0.2762,  0.0227, -0.0615,  0.0621, 28.00,   1.2
2051, 45929.000,  22.301824280, 114.190118329,    2.9470,  2, 14,  0.0668,  0.0606,  0.2773,  0.0228, -0.0620,  0.0608, 29.00,   1.7
2051, 45930.000,  22.301858826, 114.190102000,    2.9941,  2, 14,  0.0655,  0.0597,  0.2733,  0.0219, -0.0622,  0.0599, -0.00,   1.5
2051, 45931.000,  22.301891822, 114.190085876,    3.4172,  2, 14,  0.0666,  0.0618,  0.2846,  0.0211, -0.0673,  0.0618,  1.00,   1.2
2051, 45932.000,  22.301924563, 114.190070486,    3.4363,  2, 14,  0.0664,  0.0616,  0.2827,  0.0216, -0.0664,  0.0608,  2.00,   1.2
2051, 45933.000,  22.301957347, 114.190054832,    3.5324,  2, 13,  0.0664,  0.0620,  0.2843,  0.0216, -0.0684,  0.0608,  3.00,   1.4
2051, 45934.000,  22.301990080, 114.190039172,    3.4721,  2, 13,  0.0663,  0.0613,  0.2820,  0.0218, -0.0663,  0.0604,  4.00,   1.2
2051, 45935.000,  22.302024208, 114.190020856,    4.5107,  2, 12,  0.0663,  0.0609,  0.2791,  0.0225, -0.0643,  0.0596,  5.00,   1.4
2051, 45936.000,  22.302057340, 114.190004472,    4.5293,  2, 13,  0.0662,  0.0606,  0.2793,  0.0223, -0.0641,  0.0596,  6.00,   1.4
2051, 45937.000,  22.302088740, 114.189988572,    4.3968,  2, 13,  0.0664,  0.0608,  0.2798,  0.0227, -0.0649,  0.0592,  7.00,   1.1
2051, 45938.000,  22.302120762, 114.189973965,    2.7702,  2, 10,  0.0668,  0.0611,  0.2807,  0.0226, -0.0659,  0.0607,  8.00,   1.0
2051, 45939.000,  22.302154280, 114.189954804,    2.8980,  2, 10,  0.0669,  0.0615,  0.2830,  0.0232, -0.0677,  0.0599,  9.00,   1.0
2051, 45940.000,  22.302187362, 114.189932096,    3.5484,  2, 11,  0.0669,  0.0604,  0.2761,  0.0229, -0.0625,  0.0605, 10.00,   1.0
2051, 45941.000,  22.302217621, 114.189910042,    2.6362,  2, 10,  0.0672,  0.0610,  0.2782,  0.0229, -0.0645,  0.0609, 11.00,   1.0
2051, 45942.000,  22.302244674, 114.189883426,    2.5821,  2,  9,  0.0680,  0.0611,  0.2785,  0.0225, -0.0646,  0.0620, 12.00,   1.1
2051, 45943.000,  22.302267379, 114.189853178,    2.5374,  2,  9,  0.0682,  0.0609,  0.2783,  0.0228, -0.0640,  0.0620, 13.00,   1.0
2051, 45944.000,  22.302283882, 114.189823387,    1.1367,  2, 10,  0.0685,  0.0606,  0.2768,  0.0229, -0.0622,  0.0623, 14.00,   1.1
2051, 45945.000,  22.302292429, 114.189786026,    2.5565,  2, 10,  0.0683,  0.0612,  0.2815,  0.0233, -0.0651,  0.0624, 15.00,   1.2
2051, 45946.000,  22.302293585, 114.189757101,    0.5176,  2, 11,  0.0681,  0.0612,  0.2778,  0.0239, -0.0629,  0.0616, 16.00,   1.3
2051, 45947.000,  22.302289620, 114.189725527,    0.4477,  2, 11,  0.0682,  0.0613,  0.2779,  0.0243, -0.0626,  0.0616, 17.00,   1.0
2051, 45948.000,  22.302279018, 114.189686855,    2.3380,  2, 11,  0.0683,  0.0617,  0.2801,  0.0243, -0.0641,  0.0618, 18.00,   1.1
2051, 45949.000,  22.302261520, 114.189650508,    2.4289,  2, 11,  0.0686,  0.0622,  0.2809,  0.0250, -0.0646,  0.0618, 19.00,   1.1
2051, 45950.000,  22.302240205, 114.189613846,    2.6021,  2, 11,  0.0688,  0.0619,  0.2805,  0.0249, -0.0632,  0.0621, 20.00,   1.0
2051, 45951.000,  22.302215802, 114.189575778,    2.6935,  2, 12,  0.0690,  0.0624,  0.2828,  0.0249, -0.0645,  0.0625, 21.00,   1.1
2051, 45952.000,  22.302188571, 114.189535314,    2.7714,  2, 13,  0.0688,  0.0622,  0.2823,  0.0246, -0.0635,  0.0622, 22.00,   1.1
2051, 45953.000,  22.302159629, 114.189493093,    2.8939,  2, 12,  0.0688,  0.0635,  0.2857,  0.0252, -0.0665,  0.0619, 23.00,   1.1
2051, 45954.000,  22.302128894, 114.189448535,    2.9555,  2, 11,  0.0704,  0.0650,  0.2853,  0.0292, -0.0661,  0.0605, 24.00,   1.1
2051, 45955.000,  22.302097841, 114.189402210,    3.1246,  2, 11,  0.0708,  0.0662,  0.2898,  0.0295, -0.0697,  0.0605, 25.00,   1.0
2051, 45956.000,  22.302069971, 114.189356033,    3.2822,  2,  9,  0.0761,  0.0671,  0.3003,  0.0317, -0.0692,  0.0742, 26.00,   1.2
2051, 45957.000,  22.302047497, 114.189309843,    3.5565,  2, 10,  0.0908,  0.0863,  0.3353,  0.0550, -0.1121,  0.0316, 27.00,   1.3
2051, 45958.000,  22.302030191, 114.189264096,    3.4773,  2,  9,  0.0915,  0.0853,  0.3399,  0.0556, -0.1112,  0.0302, 28.00,   1.5
2051, 45959.000,  22.302020103, 114.189219330,    3.3399,  2, 10,  0.0865,  0.0792,  0.3165,  0.0501, -0.0925,  0.0442, 29.00,   1.6
2051, 45960.000,  22.302016369, 114.189174845,    3.8577,  2,  9,  0.0696,  0.0631,  0.2757,  0.0305, -0.0661,  0.0555, -0.00,   1.2
2051, 45961.000,  22.302018577, 114.189133461,    3.8808,  2,  9,  0.0695,  0.0627,  0.2751,  0.0300, -0.0648,  0.0566,  1.00,   1.9
2051, 45962.000,  22.302026136, 114.189093896,    3.9498,  2,  9,  0.0698,  0.0633,  0.2763,  0.0310, -0.0668,  0.0541,  2.00,   1.6
2051, 45963.000,  22.302036932, 114.189056361,    0.7691,  1,  8,  0.1880,  0.1372,  0.2685,  0.1571, -0.1714, -0.1861,-27.00,   6.5
2051, 45964.000,  22.302045289, 114.189008084,    2.8666,  1,  8,  0.1301,  0.0973,  0.2264,  0.1078, -0.1266, -0.1276,-26.00,   3.2
2051, 45965.000,  22.302073054, 114.188975697,    4.7624,  2,  8,  0.0709,  0.0639,  0.2794,  0.0323, -0.0686,  0.0529,  5.00,   1.5
2051, 45966.000,  22.302095874, 114.188938613,    4.7164,  1,  6,  0.0587,  0.0529,  0.0898,  0.0542, -0.0543, -0.0489,  6.00,   3.6
2051, 45967.000,  22.302080913, 114.188910850,    4.5664,  5,  2, 21.1222,  2.7084, 21.1310, -6.4257, -6.2645, -1.9133,  7.00,   0.0
2051, 45968.000,  22.302140263, 114.188855336,   -0.3545,  5,  3,  1.0520,  2.0738, 21.1312,  1.1278, -6.2427, -2.2887,  8.00,   0.0
2051, 45969.000,  22.302223224, 114.188912999,    0.5051,  2,  4,  1.1393,  1.4549,  7.2129, -1.2859, -3.1614,  2.7973,  9.00,   0.0
2051, 45970.000,  22.302288847, 114.188875756,    4.7629,  2,  4,  0.4124,  1.0301,  3.1843,  0.6412, -1.2833, -0.6613, 10.00,   0.0
2051, 45971.000,  22.302309481, 114.188882825,  -16.2896,  2,  4,  0.0828,  0.0835,  0.3365,  0.0549, -0.0657,  0.0750, 11.00,   0.0
2051, 45972.000,  22.302241916, 114.188798626,   13.4336,  5,  2, 13.0056, 16.7588, 21.2132,-14.7633,  0.6330,  0.7186, 12.00,   0.0
2051, 45973.000,  22.302240491, 114.188779768,   18.1633,  5,  2, 13.0080, 16.7570, 21.2132,-14.7638,  0.6475,  0.7350, 13.00,   0.0
2051, 45974.000,  22.302274420, 114.188707296,    2.2119,  2,  4,  0.0912,  0.1184,  0.5959, -0.0846, -0.2314,  0.2030, 14.00,   0.0
2051, 45975.000,  22.302261139, 114.188697589,   -0.5025,  2,  5,  0.0592,  0.0576,  0.3112, -0.0082, -0.0356,  0.0796, 15.00,   0.0
2051, 45976.000,  22.302248983, 114.188686859,   -0.5984,  2,  5,  0.0587,  0.0569,  0.3059, -0.0068, -0.0311,  0.0782, 16.00,   0.0
2051, 45977.000,  22.302232842, 114.188692215,   -5.9384,  2,  7,  0.0574,  0.0539,  0.2894,  0.0127,  0.0252,  0.0707, 17.00,   0.0
2051, 45978.000,  22.302226664, 114.188691547,   -7.5867,  2,  8,  0.0573,  0.0538,  0.2852,  0.0143,  0.0248,  0.0673, 18.00,   0.0
2051, 45979.000,  22.302185675, 114.188681755,    9.8766,  2,  8,  0.0557,  0.0525,  0.2782,  0.0036,  0.0394,  0.0689, 19.00,   0.0
2051, 45980.000,  22.302180292, 114.188682389,   13.0587,  2, 10,  0.0545,  0.0518,  0.2675,  0.0038,  0.0410,  0.0733, 20.00,   0.0
2051, 45981.000,  22.302183646, 114.188682708,   14.2254,  2,  9,  0.0545,  0.0516,  0.2670,  0.0037,  0.0413,  0.0736, 21.00,   0.0
2051, 45982.000,  22.302183494, 114.188682932,   13.9611,  2,  9,  0.0543,  0.0515,  0.2662,  0.0034,  0.0416,  0.0732, 22.00,   0.0
2051, 45983.000,  22.302181234, 114.188684119,   13.0915,  2,  9,  0.0540,  0.0519,  0.2652, -0.0044,  0.0422,  0.0723, 23.00,   0.0
2051, 45984.000,  22.302179906, 114.188686781,   12.4640,  2, 10,  0.0538,  0.0516,  0.2660,  0.0027,  0.0431,  0.0726, 24.00,   0.0
2051, 45985.000,  22.302187721, 114.188679392,   20.0007,  1, 11,  0.0228,  0.0484,  0.0449,  0.0313,  0.0265,  0.0213, -5.00,   4.6
2051, 45986.000,  22.302182977, 114.188683906,   19.8346,  2, 12,  0.0531,  0.0505,  0.2580,  0.0038,  0.0425,  0.0702, 26.00,   1.6
2051, 45987.000,  22.302183251, 114.188683722,   20.0188,  2, 12,  0.0531,  0.0505,  0.2580,  0.0030,  0.0426,  0.0700, 27.00,   1.7
2051, 45988.000,  22.302187813, 114.188683301,   21.1641,  2, 11,  0.0211,  0.0458,  0.0389,  0.0294,  0.0248,  0.0189, 28.00,   4.6
2051, 45989.000,  22.302182964, 114.188684402,   20.6923,  2, 10,  0.0535,  0.0515,  0.2577,  0.0081,  0.0426,  0.0704, 29.00,   1.9
2051, 45990.000,  22.302184396, 114.188688894,   20.5538,  2,  9,  0.0537,  0.0518,  0.2574,  0.0099,  0.0415,  0.0702, -0.00,   1.2
2051, 45991.000,  22.302182202, 114.188691384,   19.5395,  2, 12,  0.0605,  0.0533,  0.2806, -0.0120,  0.0335,  0.0814,  1.00,   2.3
2051, 45992.000,  22.302181257, 114.188690598,   19.5092,  2, 12,  0.0613,  0.0530,  0.2791,  0.0062,  0.0384,  0.0807,  2.00,   1.2
2051, 45993.000,  22.302194042, 114.188674280,   20.5939,  1, 13,  0.0356,  0.0255,  0.1507, -0.0030, -0.0104,  0.0445,-27.00,   6.6
2051, 45994.000,  22.302181712, 114.188691079,   19.8836,  2, 11,  0.0601,  0.0530,  0.2780,  0.0068,  0.0425,  0.0806,  4.00,   2.2
2051, 45995.000,  22.302139200, 114.188757568,    6.6797,  1, 10,  0.0097,  0.0078,  0.0414,  0.0028,  0.0020,  0.0136,  5.00,   5.6
2051, 45996.000,  22.302182156, 114.188689915,   19.4345,  2, 12,  0.0577,  0.0520,  0.2757, -0.0083,  0.0398,  0.0759,  6.00,   1.1
2051, 45997.000,  22.302182443, 114.188690001,   19.4566,  2, 12,  0.0574,  0.0519,  0.2735, -0.0087,  0.0390,  0.0763,  7.00,   1.9
2051, 45998.000,  22.302146312, 114.188741830,    8.4081,  2, 12,  0.0107,  0.0086,  0.0502, -0.0016,  0.0047,  0.0128,  8.00,   6.3
2051, 45999.000,  22.302181641, 114.188689223,   19.3338,  2, 11,  0.0577,  0.0523,  0.2735, -0.0041,  0.0379,  0.0773,  9.00,   1.2
2051, 46000.000,  22.302144247, 114.188745518,   10.2843,  1, 12,  0.0146,  0.0111,  0.0622,  0.0048,  0.0103,  0.0164, 10.00,   3.2
2051, 46001.000,  22.302182332, 114.188688521,   19.6012,  2, 12,  0.0554,  0.0508,  0.2692, -0.0101,  0.0394,  0.0749, 11.00,   1.1
2051, 46002.000,  22.302182388, 114.188688197,   19.5815,  2, 11,  0.0554,  0.0509,  0.2728, -0.0114,  0.0364,  0.0753, 12.00,   1.2
2051, 46003.000,  22.302183301, 114.188687085,   20.3291,  2, 12,  0.0544,  0.0499,  0.2627, -0.0068,  0.0436,  0.0724, 13.00,   1.2
2051, 46004.000,  22.302183483, 114.188686909,   20.3141,  2, 12,  0.0542,  0.0497,  0.2619, -0.0066,  0.0438,  0.0719, 14.00,   1.0
2051, 46005.000,  22.302183669, 114.188686983,   20.1498,  2, 12,  0.0540,  0.0496,  0.2621, -0.0066,  0.0440,  0.0713, 15.00,   2.1
2051, 46006.000,  22.302182935, 114.188686317,   20.1063,  2, 11,  0.0543,  0.0498,  0.2612,  0.0004,  0.0449,  0.0719, 16.00,   2.2
2051, 46007.000,  22.302183538, 114.188686410,   19.9897,  2, 12,  0.0537,  0.0495,  0.2613, -0.0065,  0.0444,  0.0708, 17.00,   1.1
2051, 46008.000,  22.302183571, 114.188686266,   19.8592,  2, 12,  0.0536,  0.0494,  0.2611, -0.0065,  0.0446,  0.0707, 18.00,   1.8
2051, 46009.000,  22.302183635, 114.188686112,   19.8063,  2, 12,  0.0535,  0.0494,  0.2611, -0.0065,  0.0448,  0.0706, 19.00,   2.1
2051, 46010.000,  22.302183864, 114.188685938,   19.7497,  2, 12,  0.0535,  0.0495,  0.2607, -0.0066,  0.0449,  0.0709, 20.00,   1.1
2051, 46011.000,  22.302183738, 114.188685533,   19.5720,  2, 11,  0.0543,  0.0498,  0.2618, -0.0042,  0.0458,  0.0706, 21.00,   1.0
2051, 46012.000,  22.302183990, 114.188685062,   19.5783,  2, 11,  0.0534,  0.0497,  0.2619, -0.0076,  0.0457,  0.0703, 22.00,   1.1
2051, 46013.000,  22.302184040, 114.188684804,   19.4699,  2, 12,  0.0533,  0.0496,  0.2614, -0.0067,  0.0460,  0.0704, 23.00,   1.1
2051, 46014.000,  22.302183936, 114.188684974,   19.4874,  2, 12,  0.0533,  0.0496,  0.2617, -0.0062,  0.0463,  0.0704, 24.00,   1.0
2051, 46015.000,  22.302184178, 114.188684749,   19.3431,  2, 12,  0.0533,  0.0497,  0.2635, -0.0063,  0.0470,  0.0699, 25.00,   1.3
2051, 46016.000,  22.302184345, 114.188684816,   19.4334,  2, 12,  0.0534,  0.0498,  0.2633, -0.0059,  0.0472,  0.0703, 26.00,   1.2
2051, 46017.000,  22.302184257, 114.188684442,   19.3705,  2, 12,  0.0540,  0.0502,  0.2653,  0.0010,  0.0479,  0.0700, 27.00,   1.0
2051, 46018.000,  22.302184494, 114.188684194,   19.2966,  2, 10,  0.0544,  0.0505,  0.2671,  0.0034,  0.0486,  0.0706, 28.00,   1.1
2051, 46019.000,  22.302184278, 114.188683838,   19.3749,  2, 11,  0.0542,  0.0504,  0.2670, -0.0038,  0.0489,  0.0712, 29.00,   1.2
2051, 46020.000,  22.302183139, 114.188686776,   19.5864,  2, 12,  0.0524,  0.0487,  0.2558, -0.0059,  0.0439,  0.0696, -0.00,   1.3
2051, 46021.000,  22.302178068, 114.188691269,   18.2528,  2, 12,  0.0573,  0.0511,  0.2660, -0.0100,  0.0408,  0.0770,  1.00,   1.4
2051, 46022.000,  22.302177791, 114.188692541,   17.8603,  2, 11,  0.0579,  0.0514,  0.2659, -0.0110,  0.0406,  0.0790,  2.00,   1.3
2051, 46023.000,  22.302168575, 114.188699962,   13.6948,  2, 11,  0.0705,  0.0554,  0.2997, -0.0188,  0.0177,  0.1071,  3.00,   1.0
2051, 46024.000,  22.302176446, 114.188694900,   16.8757,  2, 12,  0.0586,  0.0520,  0.2685, -0.0121,  0.0345,  0.0783,  4.00,   1.2
2051, 46025.000,  22.302164870, 114.188701480,   12.5944,  2, 12,  0.0633,  0.0536,  0.2812, -0.0225, -0.0090,  0.0902,  5.00,   1.1
2051, 46026.000,  22.302165063, 114.188701665,   12.7469,  2, 12,  0.0636,  0.0536,  0.2815, -0.0222, -0.0074,  0.0902,  6.00,   1.4
2051, 46027.000,  22.302164857, 114.188701354,   12.6431,  2, 12,  0.0630,  0.0535,  0.2812, -0.0229, -0.0094,  0.0896,  7.00,   1.3
2051, 46028.000,  22.302165458, 114.188700969,   12.6061,  2, 12,  0.0630,  0.0535,  0.2811, -0.0225, -0.0080,  0.0900,  8.00,   1.3
2051, 46029.000,  22.302166369, 114.188701145,   12.8133,  2, 12,  0.0628,  0.0535,  0.2816, -0.0229, -0.0091,  0.0894,  9.00,   1.4
2051, 46030.000,  22.302162726, 114.188702154,   12.4550,  2, 12,  0.0643,  0.0538,  0.2828, -0.0245, -0.0150,  0.0911, 10.00,   1.5
2051, 46031.000,  22.302163065, 114.188701641,   12.5148,  2, 11,  0.0641,  0.0540,  0.2829, -0.0251, -0.0145,  0.0913, 11.00,   2.1
2051, 46032.000,  22.302162939, 114.188701555,   12.4663,  2, 10,  0.0644,  0.0545,  0.2833, -0.0258, -0.0125,  0.0912, 12.00,   1.0
2051, 46033.000,  22.302162187, 114.188700880,    8.3057,  2, 11,  0.0647,  0.0544,  0.2880, -0.0256, -0.0144,  0.0905, 13.00,   1.1
2051, 46034.000,  22.302155510, 114.188699228,    8.1964,  2, 10,  0.0647,  0.0547,  0.2882, -0.0261, -0.0144,  0.0911, 14.00,   1.2
2051, 46035.000,  22.302141974, 114.188694847,    8.1997,  2,  9,  0.0654,  0.0551,  0.2914, -0.0266, -0.0202,  0.0921, 15.00,   1.8
2051, 46036.000,  22.302120034, 114.188690675,    7.4456,  2, 10,  0.0651,  0.0546,  0.2909, -0.0258, -0.0151,  0.0921, 16.00,   1.5
2051, 46037.000,  22.302095747, 114.188681125,    7.6757,  2,  9,  0.0658,  0.0551,  0.2919, -0.0270, -0.0159,  0.0929, 17.00,   1.9
2051, 46038.000,  22.302071559, 114.188665389,    8.0573,  2,  7,  0.0679,  0.0569,  0.2939, -0.0308, -0.0224,  0.0950, 18.00,   2.0
2051, 46039.000,  22.302154270, 114.188503189,   19.6731,  1, 10,  0.0297,  0.0218,  0.0700, -0.0190,  0.0137,  0.0175,-11.00,   3.1
2051, 46040.000,  22.302011480, 114.188623302,    9.7837,  2,  7,  0.0774,  0.0736,  0.3578, -0.0496, -0.0608,  0.1145, 20.00, 103.7
2051, 46041.000,  22.301973644, 114.188614601,    7.8908,  2,  8,  0.0723,  0.0633,  0.3536, -0.0376, -0.0365,  0.1072, 21.00, 265.8
2051, 46042.000,  22.301940739, 114.188594761,    8.1135,  2,  8,  0.0721,  0.0637,  0.3529, -0.0390, -0.0409,  0.1065, 22.00, 313.0
2051, 46043.000,  22.301907350, 114.188572261,    8.3169,  2,  8,  0.0730,  0.0650,  0.3580, -0.0391, -0.0386,  0.1092, 23.00,  80.9
2051, 46044.000,  22.301872259, 114.188546737,    8.7126,  2,  8,  0.0734,  0.0654,  0.3595, -0.0405, -0.0439,  0.1095, 24.00, 933.1
2051, 46045.000,  22.301839713, 114.188512847,    8.5583,  2,  8,  0.0770,  0.0703,  0.3665, -0.0451, -0.0365,  0.1117, 25.00,  48.7
2051, 46046.000,  22.301804038, 114.188477616,    8.5608,  2,  7,  0.0772,  0.0708,  0.3696, -0.0475, -0.0429,  0.1115, 26.00,  24.4
2051, 46047.000,  22.301829205, 114.188363634,   67.4262,  2,  6,  0.1591,  0.1816,  1.9396, -0.1598, -0.5423,  0.5024, 27.00,  15.3
2051, 46048.000,  22.301792572, 114.188324153,   69.1177,  2,  9,  0.1044,  0.1199,  0.7197, -0.0956, -0.2485,  0.2210, 28.00,  19.3
2051, 46049.000,  22.301750228, 114.188289977,   65.6801,  2,  9,  0.1008,  0.1132,  0.7109, -0.0897, -0.2397,  0.2143, 29.00,  16.5
2051, 46050.000,  22.301695611, 114.188270818,   55.8697,  2,  9,  0.0851,  0.0938,  0.6870, -0.0721, -0.2156,  0.1950, -0.00,   8.2
2051, 46051.000,  22.301858564, 114.187987615,  127.6202,  1,  8,  0.1867,  0.2185,  0.8249, -0.1978, -0.4055,  0.3693,-29.00,   3.9
2051, 46052.000,  22.301880716, 114.187889487,  148.4526,  1,  9,  0.1904,  0.2219,  0.8401, -0.2008, -0.4134,  0.3787,-28.00,   9.1
2051, 46053.000,  22.301663698, 114.188062789,   93.2483,  2,  9,  0.0993,  0.1328,  0.8516, -0.0869, -0.2382,  0.2500,  3.00,   1.0
2051, 46054.000,  22.301864202, 114.187884319,  162.8208,  1,  9,  0.1956,  0.2555,  0.9144, -0.2188, -0.4638,  0.4123,-26.00,   4.1
2051, 46055.000,  22.301738220, 114.187930172,   97.9241,  2,  8,  0.1834,  0.2662,  1.1768, -0.1569,  0.1770,  0.3936,  5.00,   1.0
2051, 46056.000,  22.301666954, 114.188003189,   48.6675,  1,  9,  0.1714,  0.2302,  0.8284, -0.1982, -0.4349,  0.3757,  6.00,   4.4
2051, 46057.000,  22.301685209, 114.187971940,   38.5016,  2,  9,  0.1926,  0.2720,  0.7332, -0.2200, -0.3877,  0.3380,  7.00,   1.0
2051, 46058.000,  22.301962345, 114.187702975,  196.7268,  1,  6,  6.6519, 11.4014, 28.7047, -3.1903,-13.4006, 12.9843,  8.00,  84.8
2051, 46059.000,  22.301837623, 114.187832869,  123.8451,  2,  4,  5.7608,  4.9985, 20.2824, -4.9769, -9.8256,  8.8116,  9.00,  46.3
2051, 46061.000,  22.301909138, 114.187854666,  115.1700,  2,  5,  4.0136,  4.7996, 20.1525, -4.3886, -9.8324,  8.9913, 11.00, 974.1
2051, 46062.000,  22.301732442, 114.188109660,   10.8841,  2,  5,  0.8482,  1.0122,  4.2392, -0.9245, -2.0596,  1.8854, 12.00,  55.0
2051, 46064.000,  22.302166525, 114.188082806,  182.5896,  2,  4,  5.1583,  2.2434, 20.5125, -2.8317, -5.9049, 10.2608, 14.00,   0.0
2051, 46071.000,  22.301773232, 114.188279510,   27.0450,  2,  4,  0.4508,  0.5066,  2.4445, -0.3988, -1.0364,  0.9335, 21.00,   0.0
2051, 46072.000,  22.301811289, 114.188253954,   55.7889,  2,  8,  0.4424,  0.4926,  2.3478, -0.3865, -1.0012,  0.9016, 22.00,   0.0
2051, 46073.000,  22.301762716, 114.188306539,   17.7849,  2,  7,  0.4060,  0.4215,  2.0501, -0.3228, -0.8382,  0.7814, 23.00,   0.0
2051, 46074.000,  22.301759502, 114.188309665,   14.6258,  2,  7,  0.4014,  0.4049,  1.9973, -0.3107, -0.8045,  0.7627, 24.00,   0.0
2051, 46075.000,  22.301770396, 114.188306977,   20.3651,  2,  7,  0.4292,  0.4433,  2.2280, -0.3521, -0.9090,  0.8550, 25.00,   0.0
2051, 46076.000,  22.301783936, 114.188311412,   23.5209,  2,  7,  0.4210,  0.3991,  2.0513, -0.3100, -0.8044,  0.7962, 26.00,   0.0
2051, 46077.000,  22.301793865, 114.188322788,   23.9210,  2,  6,  0.4173,  0.3966,  1.9637, -0.3183, -0.7747,  0.7659, 27.00,   0.0
2051, 46078.000,  22.301815290, 114.188351915,   17.7700,  2,  7,  0.4164,  0.3912,  1.9042, -0.3070, -0.7441,  0.7668, 28.00,   0.0
2051, 46079.000,  22.302311688, 114.188209688,  232.8902,  2,  4,  5.2092,  1.7217, 20.5168, -2.9466, -5.9000, 10.2403, 29.00,   0.0
2051, 46081.000,  22.301882991, 114.188417755,  -11.9164,  2,  6,  0.5533,  0.2523,  1.3732, -0.2132, -0.1911, -0.2364,  1.00,   3.9
2051, 46082.000,  22.301933392, 114.188452640,  -17.4163,  2,  7,  0.3366,  0.2442,  1.2411, -0.1868, -0.1292,  0.2865,  2.00, 134.2
2051, 46083.000,  22.301982446, 114.188487038,  -13.7227,  2,  5,  0.3383,  0.2490,  1.2545, -0.1918, -0.1616,  0.2990,  3.00, 999.9
2051, 46084.000,  22.302027827, 114.188538370,  -13.0516,  5,  3,  4.0961,  4.8135, 20.2729, -4.4338, -9.8157,  9.0524,  4.00,   0.0
2051, 46089.000,  22.302388169, 114.188643900,   12.0065,  2,  5,  0.7060,  0.6119,  2.8665, -0.4587, -0.9992,  1.2447,  9.00,   0.0
2051, 46090.000,  22.302286752, 114.188577861,  -42.5188,  2,  5,  1.5901,  0.6419,  4.7423,  0.7255,  1.0743,  2.6525, 10.00,   0.0
2051, 46093.000,  22.302623211, 114.188453929,   -7.8409,  5,  3,  0.6741,  0.5878, 21.2099, -0.4418, -1.6063,  2.7487, 13.00,   0.0
2051, 46094.000,  22.302670755, 114.188462091,    1.0928,  5,  2, 21.1802,  1.2763, 21.2130, -5.0031, -1.4509, -0.3428, 14.00,   0.0
2051, 46095.000,  22.302616214, 114.188512736,   -0.3551,  5,  8, 21.2132, 21.2132, 21.2132,  0.0000,  0.0000,  0.0000, 15.00,   0.0
2051, 46096.000,  22.302612708, 114.188480286,    1.8890,  5,  8, 21.2132, 21.2132, 21.2132,  0.0000,  0.0000,  0.0000, 16.00,   0.0
2051, 46097.000,  22.302635100, 114.188466730,    8.9187,  5,  8, 21.2132, 21.2132, 21.2132, -0.0000,  0.0000,  0.0000, 17.00,   0.0
2051, 46098.000,  22.302654071, 114.188532370,   15.3198,  5,  9, 21.2132, 21.2132, 21.2132,  0.0000, -0.0000,  0.0000, 18.00,   0.0
2051, 46099.000,  22.302648902, 114.188545276,   15.6813,  5,  9, 21.2132, 21.2132, 21.2132, -0.0000,  0.0000,  0.0000, 19.00,   0.0
2051, 46100.000,  22.302609735, 114.188524201,    6.3466,  5,  9, 21.2132, 21.2132, 21.2132,  0.0000,  0.0000, -0.0000, 20.00,   0.0
2051, 46101.000,  22.302586296, 114.188529759,    8.1265,  5,  9, 21.2132, 21.2132, 21.2132,  0.0000,  0.0000,  0.0000, 21.00,   0.0
2051, 46102.000,  22.302542726, 114.188535663,   -2.1592,  5, 10, 21.2132, 21.2132, 21.2132,  0.0000, -0.0000, -0.0000, 22.00,   0.0
2051, 46103.000,  22.302575608, 114.188533321,   -9.5317,  5, 10, 21.2132, 21.2132, 21.2132, -0.0000,  0.0000, -0.0000, 23.00,   0.0
2051, 46104.000,  22.302582594, 114.188550624,   -5.7127,  5, 10, 21.2132, 21.2132, 21.2132,  0.0000, -0.0000, -0.0000, 24.00,   0.0
2051, 46105.000,  22.302635331, 114.188534826,  -13.2384,  5, 10, 21.2132, 21.2132, 21.2132,  0.0000,  0.0000,  0.0000, 25.00,   0.0
2051, 46106.000,  22.302683671, 114.188500690,  -12.4612,  5, 10, 21.2132, 21.2132, 21.2132,  0.0000,  0.0000,  0.0000, 26.00,   0.0
2051, 46107.000,  22.302664858, 114.188577950,   -1.8305,  5,  2,  7.8951, 19.6933, 21.2101, 12.4600, -1.6921,  2.6738, 27.00,   0.0
2051, 46108.000,  22.302669696, 114.188477482,  -58.1117,  2,  5,  0.1767,  0.1686,  0.6160,  0.0790, -0.2437, -0.0657, 28.00,   0.0
2051, 46109.000,  22.302723792, 114.188447659,  -52.4520,  2,  6,  0.1757,  0.1684,  0.6166,  0.0800, -0.2437, -0.0661, 29.00,   0.0
2051, 46110.000,  22.302779813, 114.188412625,  -51.0109,  2,  8,  0.1753,  0.1663,  0.6097,  0.0824, -0.2392, -0.0732,  0.00,   0.0
2051, 46111.000,  22.302850170, 114.188378224,  -49.6218,  2,  9,  0.1792,  0.1685,  0.6311,  0.0850, -0.2431, -0.0612,  1.00,   0.0
2051, 46112.000,  22.302909702, 114.188335557,  -49.4676,  2,  9,  0.1798,  0.1683,  0.6292,  0.0856, -0.2422, -0.0579,  2.00,   0.0
2051, 46113.000,  22.302977027, 114.188279956,  -38.4710,  2,  9,  0.1766,  0.1611,  0.6086,  0.0783, -0.2141,  0.0626,  3.00,   0.0
2051, 46114.000,  22.303044168, 114.188221805,  -41.6959,  2,  7,  0.1888,  0.1642,  0.6122,  0.0783, -0.2287,  0.0734,  4.00,   0.0
2051, 46115.000,  22.302960017, 114.188018763,   -2.7396,  5,  3,  4.8985,  5.5024, 19.8949,  5.1893,-10.4603, -9.8658,  5.00,   0.0
2051, 46116.000,  22.303171060, 114.187996520,   11.0792,  2,  5,  0.2140,  0.1937,  0.9414, -0.0334, -0.3391,  0.2871,  6.00,   0.0
2051, 46117.000,  22.303153138, 114.188001377,  -43.5852,  2,  6,  0.1826,  0.1721,  0.6458,  0.0888, -0.2399,  0.0871,  7.00,   0.0
2051, 46118.000,  22.303200952, 114.187914851,  -42.9330,  2,  7,  0.1822,  0.1663,  0.6280,  0.0876, -0.2270,  0.0879,  8.00,   0.0
2051, 46119.000,  22.303244446, 114.187826494,  -47.8190,  2,  8,  0.1756,  0.1653,  0.6023,  0.0824, -0.2322,  0.0260,  9.00,   0.0
2051, 46120.000,  22.303318263, 114.187746412,  -39.5095,  2,  7,  0.1840,  0.1664,  0.6353,  0.0887, -0.2258,  0.1004, 10.00,   0.0
2051, 46121.000,  22.303354570, 114.187650912,  -48.5353,  2,  7,  0.1772,  0.1658,  0.6038,  0.0844, -0.2324,  0.0108, 11.00,   0.0
2051, 46122.000,  22.303438256, 114.187595839,  -59.5179,  2,  4,  0.1944,  0.1870,  0.6554,  0.1145, -0.2759, -0.1351, 12.00,   0.0
2051, 46128.000,  22.303454123, 114.186828561,  -56.5799,  2,  5,  0.2754,  0.2277,  0.4984,  0.2075, -0.1548, -0.1471, 18.00,   0.0
2051, 46129.000,  22.303493895, 114.187211095,   -6.2449,  2,  4,  6.1325,  8.0248, 18.6584, -7.0105, 12.2318,-10.6921, 19.00,   0.0
2051, 46130.000,  22.303772968, 114.186858404,  -66.1713,  2,  8,  0.2084,  0.1846,  0.5058,  0.1351, -0.1422, -0.0959, 20.00,   0.0
2051, 46131.000,  22.303879464, 114.186803912,   41.4033,  2,  4,  7.5650,  3.4187, 19.5242,  5.0820, -8.1645,-12.1481, 21.00,   0.0
2051, 46132.000,  22.304071744, 114.186784681,    1.9368,  2,  7,  0.2055,  0.1780,  0.6001,  0.1097, -0.2167, -0.0428, 22.00,   0.0
2051, 46133.000,  22.304154490, 114.186698882,   17.8297,  2,  7,  0.2963,  0.2138,  0.6327,  0.1920, -0.1412,  0.2047, 23.00,   0.0
2051, 46134.000,  22.304186455, 114.186612225,   19.1409,  2,  9,  0.2417,  0.1950,  0.6735,  0.1407, -0.2105,  0.1590, 24.00,   0.0
2051, 46135.000,  22.304243794, 114.186555648,   19.1003,  2,  7,  0.2471,  0.1980,  0.6788,  0.1501, -0.2199,  0.1206, 25.00,   0.0
2051, 46136.000,  22.304319999, 114.186505880,   22.1740,  2, 10,  0.2116,  0.1824,  0.6668,  0.1109, -0.2262,  0.1076, 26.00,   0.0
2051, 46137.000,  22.304371872, 114.186437442,   25.6739,  2,  8,  0.2244,  0.1926,  0.6967,  0.1207, -0.2511,  0.0855, 27.00,   0.0
2051, 46138.000,  22.304442675, 114.186394523,   23.0608,  2,  8,  0.2298,  0.1940,  0.6938,  0.1260, -0.2496,  0.0815, 28.00,   0.0
2051, 46139.000,  22.304467513, 114.186310194,   29.1229,  2,  8,  0.3136,  0.2811,  0.7997,  0.2417, -0.3777, -0.2786, 29.00,   0.0
2051, 46140.000,  22.304519201, 114.186256468,   29.3765,  2,  7,  0.2438,  0.2176,  0.6914,  0.1591, -0.2790, -0.1300,  0.00,   0.0
2051, 46141.000,  22.304572781, 114.186270326,   -0.4660,  1,  6,  0.0381,  0.0335,  0.0692,  0.0347, -0.0451, -0.0441,  1.00,  25.4
2051, 46142.000,  22.304582024, 114.186175715,    6.3509,  2,  7,  0.2096,  0.1985,  0.5321,  0.1923, -0.2921, -0.2660,  2.00,   1.2
2051, 46143.000,  22.304595589, 114.186123922,    9.6784,  2,  9,  0.0707,  0.0762,  0.3447,  0.0323, -0.1077,  0.0862,  3.00,   1.1
2051, 46144.000,  22.304629117, 114.186138896,    5.4570,  1,  9,  0.0319,  0.0286,  0.0645,  0.0288, -0.0391, -0.0370,  4.00,  17.5
2051, 46145.000,  22.304633806, 114.186073326,    8.1691,  2,  8,  0.0682,  0.0740,  0.3439,  0.0312, -0.1029,  0.0889,  5.00,   1.1
2051, 46146.000,  22.304631873, 114.186059799,    1.7262,  2,  8,  0.0491,  0.0698,  0.2781,  0.0300, -0.0763,  0.0632,  6.00,   1.9
2051, 46147.000,  22.304657639, 114.186069108,    8.0220,  2,  5,  0.0952,  0.2435,  0.5713, -0.1207, -0.3326,  0.1981,  7.00,   1.5
2051, 46148.000,  22.304658092, 114.186082589,    4.0783,  2,  5,  0.5496,  1.7508,  3.2849, -0.9781, -2.3919,  1.3396,  8.00,   1.5
2051, 46149.000,  22.304673035, 114.186036007,   12.3343,  2,  7,  0.0518,  0.0684,  0.3563,  0.0156, -0.0987,  0.0905,  9.00,   1.3
2051, 46150.000,  22.304681529, 114.186029982,   19.6511,  2,  8,  0.0454,  0.0653,  0.2679,  0.0252, -0.0725,  0.0625, 10.00,   1.4
2051, 46151.000,  22.304683703, 114.186061858,    9.3328,  1,  7,  0.1523,  0.1708,  0.6418,  0.1597, -0.3279, -0.3036, 11.00,   4.3
2051, 46152.000,  22.304675873, 114.186033649,   15.0513,  2,  8,  0.0458,  0.0661,  0.2658,  0.0280, -0.0753,  0.0581, 12.00,   1.1
2051, 46153.000,  22.304675647, 114.186033260,   15.0780,  2,  8,  0.0406,  0.0607,  0.2543,  0.0161, -0.0618,  0.0691, 13.00,   1.1
2051, 46154.000,  22.304673459, 114.186023676,   17.3430,  2, 10,  0.0398,  0.0581,  0.2370,  0.0144, -0.0572,  0.0665, 14.00,   1.1
2051, 46155.000,  22.304675050, 114.186033641,   13.2798,  2,  9,  0.0396,  0.0604,  0.2486,  0.0160, -0.0679,  0.0639, 15.00,   1.4
2051, 46156.000,  22.304674484, 114.186031573,   14.0329,  2, 10,  0.0382,  0.0570,  0.2348,  0.0109, -0.0554,  0.0673, 16.00,   1.1
2051, 46157.000,  22.304674656, 114.186031697,   13.9862,  2, 10,  0.0378,  0.0567,  0.2315,  0.0104, -0.0546,  0.0678, 17.00,   1.1
2051, 46158.000,  22.304674755, 114.186031611,   13.8919,  2, 10,  0.0378,  0.0566,  0.2310,  0.0103, -0.0547,  0.0677, 18.00,   1.1
2051, 46159.000,  22.304674940, 114.186031582,   13.8104,  2, 10,  0.0381,  0.0566,  0.2307,  0.0107, -0.0548,  0.0675, 19.00,   1.0
2051, 46160.000,  22.304675104, 114.186031581,   13.6912,  2, 10,  0.0398,  0.0567,  0.2311,  0.0127, -0.0555,  0.0672, 20.00,   1.3
2051, 46161.000,  22.304669257, 114.186034093,   11.6585,  2, 10,  0.0621,  0.0586,  0.2390,  0.0266, -0.0623,  0.0596, 21.00,   1.1
2051, 46162.000,  22.304669281, 114.186034145,   11.5965,  2,  9,  0.0615,  0.0583,  0.2375,  0.0264, -0.0613,  0.0593, 22.00,   2.8
2051, 46163.000,  22.304668495, 114.186034748,   11.2751,  2, 10,  0.0597,  0.0570,  0.2283,  0.0263, -0.0555,  0.0559, 23.00,   1.2
2051, 46164.000,  22.304668752, 114.186033857,   11.7281,  2,  9,  0.0596,  0.0576,  0.2305,  0.0263, -0.0580,  0.0560, 24.00,   1.7
2051, 46165.000,  22.304668789, 114.186033710,   11.8199,  2,  9,  0.0596,  0.0575,  0.2303,  0.0262, -0.0578,  0.0561, 25.00,   1.7
2051, 46166.000,  22.304671453, 114.186048588,    6.4591,  1,  9,  0.0333,  0.0381,  0.1503,  0.0221, -0.0526,  0.0062, 26.00,   3.8
2051, 46167.000,  22.304669048, 114.186033895,   11.7405,  2,  9,  0.0596,  0.0577,  0.2323,  0.0263, -0.0586,  0.0559, 27.00,   1.2
2051, 46168.000,  22.304673056, 114.186050144,    5.4194,  1, 10,  0.0359,  0.0325,  0.1435,  0.0221, -0.0354,  0.0120, 28.00,   3.4
2051, 46169.000,  22.304667046, 114.186035251,   11.1285,  2, 10,  0.0565,  0.0553,  0.2190,  0.0317, -0.0459,  0.0421, 29.00,   1.1
2051, 46170.000,  22.304667561, 114.186036134,   10.9324,  2, 10,  0.0573,  0.0542,  0.2164,  0.0303, -0.0430,  0.0462,  0.00,   1.4
2051, 46171.000,  22.304663266, 114.186027784,   14.9298,  2, 10,  0.0616,  0.0554,  0.2233,  0.0324, -0.0261,  0.0525,  1.00,   1.4
2051, 46172.000,  22.304678659, 114.186054903,    4.0420,  2, 10,  0.0695,  0.0642,  0.2623,  0.0418, -0.0685,  0.0400,  2.00,   1.1
2051, 46173.000,  22.304678470, 114.186054666,    4.1879,  2, 10,  0.0689,  0.0639,  0.2617,  0.0415, -0.0683,  0.0399,  3.00,   1.2
2051, 46174.000,  22.304676954, 114.186053695,    4.2839,  2, 10,  0.0654,  0.0624,  0.2618,  0.0378, -0.0677,  0.0422,  4.00,   1.2
2051, 46175.000,  22.304676483, 114.186053438,    4.2193,  2, 10,  0.0635,  0.0617,  0.2580,  0.0366, -0.0659,  0.0432,  5.00,   2.3
2051, 46176.000,  22.304663586, 114.186040941,    6.2581,  1, 10,  0.0092,  0.0111,  0.0478,  0.0058, -0.0161,  0.0003,  6.00,   5.3
2051, 46177.000,  22.304676094, 114.186053202,    4.2517,  2, 10,  0.0645,  0.0616,  0.2684,  0.0377, -0.0650,  0.0453,  7.00,   1.6
2051, 46178.000,  22.304676112, 114.186052867,    4.1374,  2, 10,  0.0616,  0.0611,  0.2472,  0.0372, -0.0629,  0.0293,  8.00,   1.5
2051, 46179.000,  22.304677546, 114.186054250,    4.0281,  2, 10,  0.0632,  0.0613,  0.2462,  0.0379, -0.0630,  0.0294,  9.00,   1.2
2051, 46180.000,  22.304677490, 114.186054356,    4.0435,  2, 10,  0.0642,  0.0610,  0.2459,  0.0382, -0.0634,  0.0271, 10.00,   1.0
2051, 46181.000,  22.304677824, 114.186054614,    3.9860,  2, 10,  0.0624,  0.0607,  0.2451,  0.0372, -0.0631,  0.0307, 11.00,   1.5
2051, 46182.000,  22.304677734, 114.186054685,    3.9845,  2, 10,  0.0632,  0.0607,  0.2450,  0.0375, -0.0635,  0.0292, 12.00,   1.4
2051, 46183.000,  22.304678176, 114.186054963,    3.9335,  2,  9,  0.0610,  0.0607,  0.2402,  0.0368, -0.0650,  0.0301, 13.00,   1.3
2051, 46184.000,  22.304678479, 114.186055465,    3.7328,  2,  9,  0.0609,  0.0605,  0.2418,  0.0365, -0.0655,  0.0300, 14.00,   1.1
2051, 46185.000,  22.304678529, 114.186055541,    3.6712,  2,  9,  0.0608,  0.0605,  0.2401,  0.0364, -0.0651,  0.0306, 15.00,   1.0
2051, 46186.000,  22.304678669, 114.186055871,    3.5575,  2,  9,  0.0609,  0.0612,  0.2437,  0.0368, -0.0678,  0.0283, 16.00,   1.0
2051, 46187.000,  22.304678866, 114.186055983,    3.5231,  2,  9,  0.0607,  0.0607,  0.2404,  0.0362, -0.0656,  0.0312, 17.00,   1.1
2051, 46188.000,  22.304678920, 114.186056067,    3.5368,  2,  9,  0.0608,  0.0609,  0.2405,  0.0363, -0.0659,  0.0312, 18.00,   1.1
2051, 46189.000,  22.304679073, 114.186056361,    3.3975,  2,  9,  0.0609,  0.0615,  0.2452,  0.0366, -0.0689,  0.0292, 19.00,   1.1
2051, 46190.000,  22.304679178, 114.186056306,    3.5091,  2,  9,  0.0615,  0.0614,  0.2439,  0.0364, -0.0676,  0.0333, 20.00,   1.1
2051, 46191.000,  22.304679355, 114.186056377,    3.5448,  2,  9,  0.0632,  0.0620,  0.2525,  0.0345, -0.0714,  0.0462, 21.00,   1.2
2051, 46192.000,  22.304679517, 114.186056760,    3.2987,  2,  9,  0.0631,  0.0622,  0.2540,  0.0344, -0.0723,  0.0448, 22.00,   2.6
2051, 46193.000,  22.304669889, 114.186048614,    5.8137,  1,  9,  0.0437,  0.0386,  0.1887,  0.0113, -0.0662,  0.0584, 23.00,   3.0
2051, 46194.000,  22.304669895, 114.186048592,    5.8258,  1,  9,  0.0422,  0.0398,  0.2292,  0.0065, -0.0666,  0.0621, 24.00,   3.2
2051, 46195.000,  22.304680168, 114.186057321,    2.9319,  2, 10,  0.0651,  0.0631,  0.2710,  0.0350, -0.0744,  0.0456, 25.00,   2.9
2051, 46196.000,  22.304680224, 114.186058423,    2.6613,  2,  9,  0.0618,  0.0629,  0.2507,  0.0368, -0.0718,  0.0304, 26.00,   2.1
2051, 46197.000,  22.304685821, 114.186067302,   -0.2758,  1,  9,  0.0076,  0.0089,  0.0357,  0.0051, -0.0131, -0.0045, -3.00,   3.3
2051, 46198.000,  22.304679925, 114.186058023,    2.7128,  2,  9,  0.0624,  0.0639,  0.2557,  0.0372, -0.0739,  0.0300, 28.00,   1.1
2051, 46199.000,  22.304679702, 114.186057593,    2.8301,  2,  9,  0.0625,  0.0634,  0.2519,  0.0368, -0.0711,  0.0333, 29.00,   1.1
2051, 46200.000,  22.304678949, 114.186055828,    3.6883,  2,  9,  0.0593,  0.0581,  0.2288,  0.0353, -0.0582,  0.0311,  0.00,   1.6
2051, 46201.000,  22.304686490, 114.186067013,   -1.4566,  1,  9,  0.0379,  0.0449,  0.1727,  0.0270, -0.0641, -0.0179,-29.00,   5.7
2051, 46202.000,  22.304686372, 114.186066883,   -1.5299,  1,  9,  0.0364,  0.0427,  0.1751,  0.0254, -0.0644, -0.0210,-28.00,   7.3
2051, 46203.000,  22.304686319, 114.186066569,   -1.2026,  1,  9,  0.0365,  0.0457,  0.1940,  0.0283, -0.0745, -0.0354,-27.00,   8.7
2051, 46204.000,  22.304686222, 114.186066562,   -1.3476,  1,  9,  0.0333,  0.0377,  0.1454,  0.0219, -0.0516,  0.0087,-26.00,   9.5
2051, 46205.000,  22.304686453, 114.186066829,   -1.3603,  1,  9,  0.0327,  0.0381,  0.1426,  0.0228, -0.0522, -0.0079,-25.00,   9.7
2051, 46206.000,  22.304686475, 114.186066907,   -1.4022,  1,  9,  0.0315,  0.0369,  0.1396,  0.0221, -0.0513, -0.0107,-24.00,   8.9
2051, 46207.000,  22.304686419, 114.186066736,   -1.4647,  1,  9,  0.0297,  0.0339,  0.1370,  0.0198, -0.0491, -0.0094,-23.00,   7.5
2051, 46208.000,  22.304686456, 114.186066814,   -1.5655,  1,  9,  0.0288,  0.0338,  0.1389,  0.0201, -0.0509, -0.0165,-22.00,   6.0
2051, 46209.000,  22.304686398, 114.186066544,   -1.2357,  1,  9,  0.0288,  0.0359,  0.1527,  0.0223, -0.0585, -0.0278,-21.00,   4.4
2051, 46210.000,  22.304678748, 114.186055431,    3.8721,  2,  9,  0.0605,  0.0600,  0.2365,  0.0368, -0.0626,  0.0273, 10.00,   1.3
2051, 46211.000,  22.304678944, 114.186055637,    3.8146,  2,  9,  0.0604,  0.0596,  0.2341,  0.0363, -0.0609,  0.0299, 11.00,   1.2
2051, 46212.000,  22.304678797, 114.186055322,    3.8262,  2, 10,  0.0605,  0.0595,  0.2335,  0.0363, -0.0601,  0.0307, 12.00,   1.1
2051, 46213.000,  22.304678969, 114.186055571,    3.7790,  2,  9,  0.0607,  0.0602,  0.2379,  0.0365, -0.0601,  0.0303, 13.00,   1.1
2051, 46214.000,  22.304679033, 114.186055647,    3.7500,  2,  9,  0.0608,  0.0602,  0.2388,  0.0364, -0.0601,  0.0309, 14.00,   1.0
2051, 46215.000,  22.304687836, 114.186066532,   -1.4603,  1,  9,  0.0199,  0.0227,  0.1154,  0.0126, -0.0283, -0.0117,-15.00,   4.5
2051, 46216.000,  22.304687807, 114.186066587,   -1.4930,  1,  9,  0.0189,  0.0217,  0.1252,  0.0123, -0.0298, -0.0168,-14.00,   6.7
2051, 46217.000,  22.304687852, 114.186066583,   -1.5191,  1,  9,  0.0177,  0.0206,  0.0955,  0.0116, -0.0253, -0.0095,-13.00,   6.5
2051, 46218.000,  22.304679253, 114.186056001,    3.6077,  2, 10,  0.0617,  0.0616,  0.2415,  0.0371, -0.0643,  0.0311, 18.00,   1.3
2051, 46219.000,  22.304679492, 114.186056336,    3.4609,  2,  9,  0.0622,  0.0631,  0.2516,  0.0380, -0.0704,  0.0260, 19.00,   1.3
2051, 46220.000,  22.304679370, 114.186056199,    3.5574,  2,  9,  0.0623,  0.0626,  0.2479,  0.0375, -0.0676,  0.0301, 20.00,   1.5
2051, 46221.000,  22.304679599, 114.186056634,    3.3388,  2,  9,  0.0629,  0.0643,  0.2570,  0.0385, -0.0730,  0.0252, 21.00,   1.5
2051, 46222.000,  22.304687628, 114.186073316,   -1.9461,  1,  9,  0.0119,  0.0135,  0.0540,  0.0079, -0.0191, -0.0021, -8.00,   9.3
2051, 46223.000,  22.304679546, 114.186056543,    3.4783,  2,  9,  0.0636,  0.0645,  0.2527,  0.0384, -0.0698,  0.0311, 23.00,   1.6
2051, 46224.000,  22.304679665, 114.186056884,    3.2404,  2,  9,  0.0639,  0.0649,  0.2621,  0.0384, -0.0729,  0.0295, 24.00,   1.7
2051, 46225.000,  22.304679646, 114.186057425,    3.0704,  2, 10,  0.0647,  0.0670,  0.2700,  0.0400, -0.0787,  0.0227, 25.00,   1.7
2051, 46226.000,  22.304680733, 114.186056199,    3.0750,  2, 10,  0.0648,  0.0659,  0.2628,  0.0394, -0.0733,  0.0286, 26.00,   1.7
2051, 46227.000,  22.304685084, 114.186051059,    3.1431,  2, 10,  0.0652,  0.0660,  0.2619,  0.0395, -0.0719,  0.0307, 27.00,   1.5
2051, 46228.000,  22.304692694, 114.186032586,    3.7979,  2, 10,  0.0662,  0.0701,  0.2845,  0.0418, -0.0857,  0.0195, 28.00,   1.4
2051, 46229.000,  22.304712942, 114.186014967,    3.8153,  2, 10,  0.0665,  0.0687,  0.2750,  0.0409, -0.0789,  0.0282, 29.00,   1.3
2051, 46230.000,  22.304730984, 114.185988065,    4.2254,  2, 10,  0.0593,  0.0582,  0.2286,  0.0356, -0.0578,  0.0297,  0.00,   1.3
2051, 46231.000,  22.304751966, 114.185963821,    4.3273,  2, 12,  0.0592,  0.0579,  0.2279,  0.0352, -0.0569,  0.0316,  1.00,   1.1
2051, 46232.000,  22.304777591, 114.185947086,    4.3920,  2, 12,  0.0589,  0.0580,  0.2280,  0.0351, -0.0573,  0.0300,  2.00,   1.2
2051, 46233.000,  22.304807351, 114.185938315,    5.2016,  2, 10,  0.0597,  0.0589,  0.2345,  0.0358, -0.0620,  0.0255,  3.00,   1.1
2051, 46234.000,  22.304842810, 114.185939989,    4.9696,  2,  8,  0.0601,  0.0591,  0.2433,  0.0358, -0.0636,  0.0279,  4.00,   1.2
2051, 46235.000,  22.304881034, 114.185948934,    5.7985,  2,  8,  0.0650,  0.1357,  0.7799,  0.0669, -0.3074, -0.1373,  5.00,  18.3
2051, 46236.000,  22.304917648, 114.185955443,   12.4598,  2,  7,  0.0614,  0.0600,  0.2374,  0.0367, -0.0633,  0.0241,  6.00,   7.3
2051, 46237.000,  22.304956999, 114.185977713,   12.4062,  2,  6,  0.0667,  0.0611,  0.2370,  0.0302, -0.0621,  0.0276,  7.00,   0.0
2051, 46238.000,  22.304971306, 114.186010920,    9.7036,  2,  6,  0.0646,  0.0617,  0.2397,  0.0317, -0.0603,  0.0258,  8.00,   0.0
2051, 46239.000,  22.305031646, 114.185920479,   -5.5116,  2,  4,  0.0688,  0.1419,  0.2986, -0.0436,  0.1377, -0.0569,  9.00,   0.0
2051, 46249.000,  22.305471303, 114.186356893,    6.9090,  2,  5,  0.7839,  1.0965,  1.5691, -0.8515,  0.8011, -0.5942, 19.00,   0.0
2051, 46250.000,  22.305505406, 114.186344568,    4.3223,  2,  5,  0.7315,  1.0311,  1.3325, -0.7873,  0.5766, -0.3459, 20.00,   0.0
2051, 46256.000,  22.305298412, 114.186331103, -148.4907,  5,  5, 21.2132, 21.2132, 21.2132,  0.0000,  0.0000,  0.0000, 26.00,   0.0
2051, 46257.000,  22.305230012, 114.186270987, -226.7024,  5,  5, 21.2132, 21.2132, 21.2132,  0.0000,  0.0000,  0.0000, 27.00,   0.0
2051, 46258.000,  22.305031355, 114.186185092, -247.0667,  5,  2, 21.2089,  0.7792, 21.2114, -3.0046,  2.4296,  0.3443, 28.00,   0.0
2051, 46259.000,  22.305052758, 114.186147600, -221.3509,  5,  5, 21.2132, 21.2132, 21.2132,  0.0000,  0.0000, -0.0000, 29.00,   0.0
2051, 46269.000,  22.305014495, 114.185350491,   -4.4670,  5,  4, 21.2132, 21.2132, 21.2132,  0.0000,  0.0000, -0.0000,  9.00,   0.0
2051, 46279.000,  22.306119238, 114.185241649,   35.3846,  5,  4, 21.2132, 21.2132, 21.2132, -0.0000,  0.0000,  0.0000, 19.00,   0.0
2051, 46280.000,  22.306238388, 114.185273341,   22.0706,  5,  4, 21.2132, 21.2132, 21.2132, -0.0000,  0.0000,  0.0000, 20.00,   0.0
2051, 46281.000,  22.306271715, 114.185218963,   28.7396,  5,  4, 21.2132, 21.2132, 21.2132,  0.0000,  0.0000, -0.0000, 21.00,   0.0
2051, 46285.000,  22.304005353, 114.183440482,  306.9305,  5,  4, 21.2132, 21.2132, 21.2132, -0.0000,  0.0000,  0.0000, 25.00,   0.0
2051, 46286.000,  22.304436386, 114.183691972,  233.2341,  5,  5, 21.2132, 21.2132, 21.2132, -0.0000,  0.0000,  0.0000, 26.00,   0.0
2051, 46287.000,  22.304589275, 114.183677857,  228.8766,  5,  4, 21.2132, 21.2132, 21.2132,  0.0000,  0.0000,  0.0000, 27.00,   0.0
2051, 46292.000,  22.306449423, 114.184725920,  -23.3755,  5,  2, 19.0292,  9.7424, 21.0483, 13.2913, -7.0529,  4.9747,  2.00,   0.0
2051, 46293.000,  22.306608174, 114.184676073,   34.9222,  5,  2, 19.0292,  9.7420, 21.0485, 13.2914, -7.0510,  4.9733,  3.00,   0.0
2051, 46294.000,  22.306656225, 114.184705346,   -6.6103,  5,  3,  6.2973,  0.5140, 20.2733,  1.4057,  2.3181, 11.2412,  4.00,   0.0
2051, 46295.000,  22.306624493, 114.184658257,  -19.5951,  5,  3,  6.3009,  0.5155, 20.2721,  1.4136,  2.3334, 11.2442,  5.00,   0.0
2051, 46298.000,  22.306322255, 114.184332160,   37.6438,  5,  3, 13.3960,  8.6143, 14.0964, 10.7381,-10.9810,-13.6602,  8.00,   0.0
2051, 46301.000,  22.306461988, 114.184573679,  -99.0776,  2,  5,  0.1623,  0.1268,  0.7076,  0.0339, -0.2028,  0.1954, 11.00,   0.0
2051, 46302.000,  22.306463884, 114.184573447, -100.6199,  2,  5,  0.1617,  0.1263,  0.7053,  0.0342, -0.2016,  0.1945, 12.00,   0.0
2051, 46303.000,  22.306464477, 114.184571348, -102.5629,  2,  5,  0.1613,  0.1259,  0.7035,  0.0344, -0.2005,  0.1938, 13.00,   0.0
2051, 46304.000,  22.306610905, 114.184415625,   -9.7129,  2,  6,  0.1693,  0.1414,  0.8027, -0.0483, -0.2549,  0.2430, 14.00,   0.0
2051, 46305.000,  22.306532479, 114.184570752,  -98.5197,  2,  5,  0.1631,  0.1256,  0.7031,  0.0395, -0.1998,  0.1943, 15.00,   0.0
2051, 46306.000,  22.306575461, 114.184574193,  -38.0621,  2,  4,  0.1798,  0.1256,  1.1888,  0.0463, -0.1799,  0.3332, 16.00,   0.0
2051, 46307.000,  22.306575405, 114.184573603,  -37.4512,  2,  4,  0.1797,  0.1254,  1.1903,  0.0464, -0.1786,  0.3337, 17.00,   0.0
2051, 46308.000,  22.306625387, 114.184531964,   14.8978,  2,  5,  0.1926,  0.2133,  1.1996, -0.1274, -0.4555,  0.3719, 18.00,   0.0
2051, 46309.000,  22.306591258, 114.184627863,  -28.2035,  2,  6,  0.1643,  0.1305,  0.7391, -0.0127, -0.2194,  0.2176, 19.00,   2.7
2051, 46310.000,  22.306618222, 114.184594819,   -7.6916,  2,  6,  0.1600,  0.1233,  0.6926,  0.0377, -0.1934,  0.1948, 20.00,   2.2
2051, 46311.000,  22.306605998, 114.184608386,  -14.8793,  2,  6,  0.1613,  0.1255,  0.7015,  0.0309, -0.1999,  0.2005, 21.00,   3.0
2051, 46312.000,  22.306609595, 114.184608775,  -12.7945,  2,  6,  0.1634,  0.1259,  0.7145,  0.0265, -0.2021,  0.2091, 22.00,   9.1
2051, 46313.000,  22.306621571, 114.184593032,   -6.3834,  2,  6,  0.1651,  0.1251,  0.7152,  0.0246, -0.2028,  0.2142, 23.00,  98.5
2051, 46314.000,  22.306622492, 114.184593275,   -5.9943,  2,  6,  0.1654,  0.1252,  0.7158,  0.0248, -0.2028,  0.2144, 24.00,   6.0
2051, 46315.000,  22.306612383, 114.184609950,  -12.0060,  2,  6,  0.1660,  0.1262,  0.7234,  0.0221, -0.2043,  0.2170, 25.00,   9.9
2051, 46316.000,  22.306626992, 114.184590386,   -3.3159,  2,  6,  0.1689,  0.1266,  0.7301,  0.0110, -0.2086,  0.2256, 26.00,   1.2
2051, 46317.000,  22.306632047, 114.184592804,   -1.2454,  2,  6,  0.1694,  0.1269,  0.7354,  0.0120, -0.2082,  0.2269, 27.00,   1.1
2051, 46318.000,  22.306637771, 114.184595603,   -1.2635,  2,  6,  0.1699,  0.1271,  0.7369,  0.0123, -0.2085,  0.2276, 28.00,   1.2
2051, 46319.000,  22.306619365, 114.184581910,    1.5130,  2,  6,  0.1727,  0.1279,  0.7389,  0.0211, -0.2086,  0.2293, 29.00,   1.9
2051, 46320.000,  22.306627508, 114.184580777,    2.5933,  2,  5,  0.1690,  0.1254,  0.7259,  0.0112, -0.2054,  0.2241,  0.00,  11.8
2051, 46321.000,  22.306619123, 114.184564477,    9.7031,  2,  4,  0.1710,  0.1308,  0.7365,  0.0291, -0.2141,  0.2212,  1.00,   1.3
2051, 46323.000,  22.306594197, 114.184540425,   13.6088,  2,  5,  0.1692,  0.1261,  0.7282,  0.0121, -0.2066,  0.2237,  3.00,   1.9
2051, 46324.000,  22.306592518, 114.184540540,   14.0199,  2,  5,  0.1693,  0.1260,  0.7279,  0.0127, -0.2062,  0.2236,  4.00,   2.4
2051, 46325.000,  22.306575200, 114.184536394,   11.1875,  2,  4,  0.1721,  0.1260,  0.7242,  0.0194, -0.2064,  0.2247,  5.00,   1.3
2051, 46326.000,  22.306575353, 114.184537878,   12.7660,  2,  4,  0.1725,  0.1259,  0.7278,  0.0195, -0.2055,  0.2246,  6.00,   1.8
2051, 46327.000,  22.306579911, 114.184543281,   25.7642,  1,  4,  0.1843,  0.1177,  0.2036,  0.1461, -0.1512, -0.1848,  7.00,  13.2
2051, 46328.000,  22.306588048, 114.184538467,   14.9435,  2,  4,  0.2764,  0.1260,  0.9335,  0.0459, -0.1950,  0.4234,  8.00,   1.5
2051, 46329.000,  22.306643969, 114.184500932,    3.6989,  1,  4,  0.2685,  0.1700,  0.3258,  0.2085, -0.2208, -0.2568,-21.00,   5.5
2051, 46330.000,  22.306593857, 114.184539656,   18.2485,  2,  5,  0.2664,  0.1258,  0.9276,  0.0388, -0.1970,  0.4117, 10.00,   1.7
2051, 46331.000,  22.306631067, 114.184531385,   25.0675,  2,  5,  0.1457,  0.0936,  0.1734,  0.1149, -0.1216, -0.1444, 11.00,   4.5
2051, 46332.000,  22.306586241, 114.184537010,   14.8329,  2,  5,  0.2655,  0.1260,  0.9197,  0.0378, -0.1986,  0.4087, 12.00,   2.1
2051, 46333.000,  22.306595094, 114.184431704,   10.2643,  1,  5,  0.0566,  0.0289,  0.1466,  0.0154, -0.0483,  0.0558,-17.00,   3.6
2051, 46334.000,  22.306577435, 114.184533441,   13.7059,  2,  5,  0.2658,  0.1284,  0.9244,  0.0408, -0.2040,  0.4073, 14.00,   1.0
2051, 46335.000,  22.306573450, 114.184532904,   12.8274,  2,  5,  0.2660,  0.1283,  0.9249,  0.0404, -0.2037,  0.4077, 15.00,   1.0
2051, 46343.000,  22.306819893, 114.184289340,   31.9176,  2,  6,  0.3453,  0.2736,  2.9375, -0.1709, -0.6527,  0.7853, 23.00,   0.0
2051, 46345.000,  22.306889302, 114.184166996,  -14.6652,  2,  6,  0.3085,  0.2907,  1.2081, -0.1909, -0.4579,  0.2064, 25.00,   0.0
2051, 46347.000,  22.306962365, 114.184129187,    3.9826,  2,  4,  0.5985,  0.9178,  1.2468, -0.7162, -0.7183,  0.6048, 27.00,   0.0
2051, 46348.000,  22.306984178, 114.184155014,    0.9617,  2,  4,  0.2891,  0.3157,  1.2423, -0.2132, -0.5187,  0.5030, 28.00,   0.0
2051, 46349.000,  22.307025209, 114.184171846,    2.0363,  2,  4,  0.2897,  0.3163,  1.2458, -0.2139, -0.5205,  0.5046, 29.00,   0.0
2051, 46350.000,  22.306947736, 114.184348265,  -70.6339,  2,  6,  0.1444,  0.2349,  0.8691,  0.0780, -0.3139, -0.0359,  0.00,   0.0
2051, 46351.000,  22.306972366, 114.184456758,  -26.8265,  2,  5,  0.1497,  0.2917,  1.0652,  0.1051, -0.0886, -0.1294,  1.00,   0.0
2051, 46352.000,  22.307125788, 114.184401576,    2.3468,  2,  5,  0.7620,  0.3501,  2.6504,  0.2911,  0.3767,  1.3603,  2.00,   0.0
2051, 46353.000,  22.307042426, 114.184386262,  -18.5020,  2,  4,  0.4313,  0.4602,  1.4299,  0.2374, -0.7495, -0.3918,  3.00,   0.0
2051, 46354.000,  22.307174002, 114.184455947,  -24.4468,  2,  9,  0.2870,  0.1427,  0.6608, -0.0479, -0.1829, -0.2182,  4.00,   0.0
2051, 46355.000,  22.307194352, 114.184551963,  -19.3711,  2,  4,  0.1167,  1.6194,  2.8579, -0.2116,  2.1175, -0.1420,  5.00,   0.0
2051, 46356.000,  22.307248979, 114.184514470,  -32.6217,  2,  6,  0.1137,  0.2833,  0.6337, -0.1127,  0.2047,  0.1875,  6.00,   0.0
2051, 46357.000,  22.307305331, 114.184601838,  -23.2595,  2,  8,  0.1053,  0.1206,  0.5276, -0.0906, -0.1934,  0.1853,  7.00,   0.0
2051, 46358.000,  22.307371667, 114.184643828,  -22.8748,  2,  9,  0.1610,  0.1895,  0.5266, -0.1623, -0.1861,  0.1863,  8.00,   0.0
2051, 46359.000,  22.307442289, 114.184652148,  -11.1755,  2,  8,  0.0908,  0.1176,  0.5236, -0.0702, -0.1411,  0.1521,  9.00,   0.0
2051, 46360.000,  22.307470446, 114.184692324,  -29.4156,  2,  9,  0.0962,  0.1101,  0.5429, -0.0773, -0.1560,  0.1710, 10.00,   0.0
2051, 46361.000,  22.307519118, 114.184650998,  -39.5666,  2,  9,  0.0804,  0.0810,  0.3188, -0.0502, -0.0907,  0.0996, 11.00,   0.0
2051, 46362.000,  22.307525863, 114.184737053,   -2.4084,  2,  9,  0.0794,  0.0816,  0.3963, -0.0462, -0.0614,  0.1093, 12.00,   0.0
2051, 46363.000,  22.307540643, 114.184742952,    7.9026,  2,  9,  0.0797,  0.0862,  0.2732, -0.0549, -0.0671,  0.0720, 13.00,   0.0
2051, 46364.000,  22.307537218, 114.184753766,    7.2958,  2, 11,  0.0714,  0.0744,  0.2634, -0.0401, -0.0616,  0.0635, 14.00,   0.0
2051, 46365.000,  22.307544421, 114.184759350,   10.3967,  2,  8,  0.0919,  0.0808,  0.3108, -0.0587, -0.0935,  0.1152, 15.00,   0.0
2051, 46366.000,  22.307551936, 114.184759125,   11.7225,  2,  8,  0.0729,  0.0725,  0.2760, -0.0385, -0.0616,  0.0732, 16.00,   3.5
2051, 46367.000,  22.307555037, 114.184761295,   14.5971,  2, 12,  0.0685,  0.0706,  0.2583, -0.0345, -0.0595,  0.0593, 17.00,  17.6
2051, 46368.000,  22.307547330, 114.184750298,   -6.2147,  1, 12,  0.0403,  0.1440,  0.1839, -0.0688,  0.1429, -0.0582, 18.00,   3.6
2051, 46369.000,  22.307551922, 114.184767464,   14.3884,  2, 12,  0.0179,  0.0637,  0.0822, -0.0302,  0.0612, -0.0259, 19.00,   3.8
2051, 46370.000,  22.307542476, 114.184765768,   -1.2111,  1, 12,  0.0255,  0.0468,  0.1302, -0.0233,  0.0508,  0.0171, 20.00,   6.0
2051, 46371.000,  22.307553762, 114.184763394,   16.2531,  2, 12,  0.0680,  0.0694,  0.2524, -0.0336, -0.0554,  0.0574, 21.00,   1.0
2051, 46372.000,  22.307555984, 114.184760244,   16.1416,  2, 11,  0.0682,  0.0694,  0.2519, -0.0338, -0.0553,  0.0571, 22.00,   1.3
2051, 46373.000,  22.307555898, 114.184760246,   16.2222,  2, 11,  0.0682,  0.0694,  0.2518, -0.0338, -0.0549,  0.0569, 23.00,   1.4
2051, 46374.000,  22.307555649, 114.184761139,   16.5208,  2, 10,  0.0683,  0.0697,  0.2523, -0.0341, -0.0537,  0.0564, 24.00,   1.4
2051, 46375.000,  22.307555722, 114.184761186,   16.5658,  2, 10,  0.0684,  0.0697,  0.2522, -0.0341, -0.0537,  0.0563, 25.00,   1.7
2051, 46376.000,  22.307561705, 114.184754610,   19.7658,  1, 11,  0.0091,  0.0108,  0.0312, -0.0077, -0.0056,  0.0081, -4.00,   3.1
2051, 46377.000,  22.307556123, 114.184760935,   16.7076,  2, 11,  0.0689,  0.0698,  0.2524, -0.0345, -0.0535,  0.0562, 27.00,   1.5
2051, 46378.000,  22.307556839, 114.184760686,   16.7941,  2, 11,  0.0695,  0.0699,  0.2529, -0.0345, -0.0538,  0.0567, 28.00,   1.3
2051, 46379.000,  22.307557097, 114.184760396,   16.7337,  2, 12,  0.0695,  0.0698,  0.2527, -0.0342, -0.0546,  0.0566, 29.00,   1.4
2051, 46380.000,  22.307556857, 114.184761300,   16.6106,  2, 12,  0.0687,  0.0690,  0.2497, -0.0333, -0.0546,  0.0562,  0.00,   2.0
2051, 46381.000,  22.307555367, 114.184763752,   15.9646,  2, 11,  0.0715,  0.0741,  0.2659, -0.0376, -0.0651,  0.0620,  1.00,   1.1
2051, 46382.000,  22.307557423, 114.184761556,   16.3946,  2, 12,  0.0713,  0.0737,  0.2642, -0.0373, -0.0638,  0.0617,  2.00,   1.1
2051, 46383.000,  22.307557451, 114.184760720,   16.4773,  2, 13,  0.0714,  0.0734,  0.2631, -0.0375, -0.0629,  0.0616,  3.00,   1.0
2051, 46384.000,  22.307557048, 114.184759988,   16.4898,  2, 13,  0.0722,  0.0733,  0.2623, -0.0379, -0.0623,  0.0622,  4.00,   1.1
2051, 46385.000,  22.307555307, 114.184761815,   16.1696,  2, 10,  0.0734,  0.0741,  0.2631, -0.0392, -0.0635,  0.0628,  5.00,   1.8
2051, 46386.000,  22.307555844, 114.184761261,   16.3237,  2, 11,  0.0717,  0.0725,  0.2625, -0.0369, -0.0577,  0.0584,  6.00,   2.2
2051, 46387.000,  22.307555980, 114.184760495,   16.2631,  2,  9,  0.0708,  0.0707,  0.2577, -0.0333, -0.0575,  0.0647,  7.00,   1.0
