% program   : RTKLIB ver.2.4.3
% inp file  : /home/kcwian/Workspace/catkin_gnss/src/raw_gnss_rtklib/dataset/gps_solution_TST2/2020_06_03_TST_03.obs
% inp file  : /home/kcwian/Workspace/catkin_gnss/src/raw_gnss_rtklib/dataset/gps_solution_TST2/hksc155d.20o
% inp file  : /home/kcwian/Workspace/catkin_gnss/src/raw_gnss_rtklib/dataset/gps_solution_TST2/hksc155d.20b
% inp file  : /home/kcwian/Workspace/catkin_gnss/src/raw_gnss_rtklib/dataset/gps_solution_TST2/hksc155d.20n
% obs start : 2020/06/03 03:02:27.0 GPST (week2108 270147.0s)
% obs end   : 2020/06/03 03:18:52.0 GPST (week2108 271132.0s)
% pos mode  : Kinematic
% freqs     : L1+2
% solution  : Combined
% elev mask : 15.0 deg
% dynamics  : off
% tidecorr  : off
% ionos opt : Broadcast
% tropo opt : Saastamoinen
% ephemeris : Broadcast
% navi sys  : GPS GLONASS Galileo QZSS BDS NavIC SBAS
% amb res   : Fix and Hold
% amb glo   : ON
% val thres : 3.0
% antenna1  :                       ( 0.0000  0.0000  0.0000)
% antenna2  :                       ( 0.0000  0.0000  0.0000)
% ref pos   : 22.322172082, 114.141187963,   20.2386
%
% (lat/lon/height=WGS84/ellipsoidal,Q=1:fix,2:float,3:sbas,4:dgps,5:single,6:ppp,ns=# of satellites)
%  GPST        , latitude(deg),longitude(deg), height(m),  Q, ns,  sdn(m),  sde(m),  sdu(m), sdne(m), sdeu(m), sdun(m),age(s), ratio
2108,270147.000,  22.299911524, 114.177707709,    7.5157,  2,  5,  0.0502,  0.0699,  0.2429,  0.0365,  0.0665,  0.0409,  0.00,   1.1
2108,270148.000,  22.299911608, 114.177707706,    7.6024,  2,  4,  0.0509,  0.0701,  0.2441,  0.0370,  0.0670,  0.0427,  0.00,   1.0
2108,270149.000,  22.299911565, 114.177707729,    7.5211,  2,  5,  0.0502,  0.0699,  0.2439,  0.0365,  0.0667,  0.0411,  0.00,   1.0
2108,270150.000,  22.299911593, 114.177707703,    7.5088,  2,  5,  0.0502,  0.0699,  0.2450,  0.0364,  0.0670,  0.0412,  0.00,   1.1
2108,270151.000,  22.299911581, 114.177707751,    7.5142,  2,  5,  0.0502,  0.0699,  0.2461,  0.0364,  0.0672,  0.0413,  0.00,   1.1
2108,270152.000,  22.299911662, 114.177707790,    7.4927,  2,  5,  0.0502,  0.0699,  0.2473,  0.0364,  0.0675,  0.0414,  0.00,   1.2
2108,270153.000,  22.299911674, 114.177707870,    7.5213,  2,  5,  0.0502,  0.0699,  0.2485,  0.0364,  0.0677,  0.0415,  0.00,   1.2
2108,270251.000,  22.299914095, 114.177706172,    7.4836,  1,  5,  0.0074,  0.0105,  0.0226,  0.0052,  0.0123,  0.0090,  0.00,   3.2
2108,270252.000,  22.299914161, 114.177706155,    7.4815,  1,  5,  0.0074,  0.0105,  0.0226,  0.0052,  0.0123,  0.0089,  0.00,   3.3
2108,270253.000,  22.299914124, 114.177706180,    7.4823,  1,  5,  0.0073,  0.0105,  0.0226,  0.0052,  0.0123,  0.0090,  0.00,   3.3
2108,270254.000,  22.299914091, 114.177706173,    7.4860,  1,  5,  0.0073,  0.0106,  0.0226,  0.0053,  0.0123,  0.0090,  0.00,   3.3
2108,270255.000,  22.299914152, 114.177706270,    7.4833,  1,  5,  0.0073,  0.0105,  0.0226,  0.0052,  0.0123,  0.0090,  0.00,   3.2
2108,270256.000,  22.299914147, 114.177706300,    7.4921,  1,  5,  0.0073,  0.0105,  0.0226,  0.0052,  0.0123,  0.0090,  0.00,   3.1
2108,270257.000,  22.299912419, 114.177708846,    7.7643,  2,  5,  0.0509,  0.0695,  0.2493,  0.0357,  0.0718,  0.0497,  0.00,   1.5
2108,270258.000,  22.299912451, 114.177708936,    7.7902,  2,  5,  0.0509,  0.0695,  0.2493,  0.0356,  0.0719,  0.0498,  0.00,   1.3
2108,270259.000,  22.299912433, 114.177708941,    7.8502,  2,  5,  0.0507,  0.0694,  0.2487,  0.0354,  0.0722,  0.0503,  0.00,   1.1
2108,270260.000,  22.299912484, 114.177708999,    7.8063,  2,  5,  0.0509,  0.0695,  0.2492,  0.0356,  0.0719,  0.0500,  0.00,   1.0
2108,270261.000,  22.299912451, 114.177708964,    7.8644,  2,  5,  0.0507,  0.0694,  0.2486,  0.0354,  0.0722,  0.0505,  0.00,   1.4
2108,270262.000,  22.299912479, 114.177709005,    7.8631,  2,  5,  0.0507,  0.0694,  0.2486,  0.0354,  0.0723,  0.0506,  0.00,   1.4
2108,270263.000,  22.299912472, 114.177708990,    7.8739,  2,  5,  0.0507,  0.0693,  0.2487,  0.0354,  0.0723,  0.0506,  0.00,   1.5
2108,270264.000,  22.299912480, 114.177709018,    7.8707,  2,  5,  0.0507,  0.0693,  0.2487,  0.0354,  0.0723,  0.0507,  0.00,   1.5
2108,270265.000,  22.299912494, 114.177709032,    7.8743,  2,  5,  0.0507,  0.0693,  0.2488,  0.0354,  0.0724,  0.0508,  0.00,   1.5
2108,270266.000,  22.299912465, 114.177709072,    7.8711,  2,  5,  0.0507,  0.0693,  0.2488,  0.0354,  0.0724,  0.0509,  0.00,   1.5
2108,270267.000,  22.299912476, 114.177709091,    7.8821,  2,  5,  0.0508,  0.0693,  0.2489,  0.0354,  0.0725,  0.0510,  0.00,   1.5
2108,270268.000,  22.299912467, 114.177709024,    7.8694,  2,  5,  0.0507,  0.0693,  0.2490,  0.0354,  0.0726,  0.0511,  0.00,   1.4
2108,270269.000,  22.299912484, 114.177709076,    7.8922,  2,  5,  0.0508,  0.0693,  0.2491,  0.0354,  0.0726,  0.0512,  0.00,   1.3
2108,270270.000,  22.299912522, 114.177709117,    7.9055,  2,  5,  0.0508,  0.0693,  0.2492,  0.0354,  0.0727,  0.0514,  0.00,   1.2
2108,270271.000,  22.299912545, 114.177709081,    7.9284,  2,  5,  0.0508,  0.0693,  0.2494,  0.0354,  0.0728,  0.0515,  0.00,   1.1
2108,270272.000,  22.299912558, 114.177709138,    7.9288,  2,  5,  0.0508,  0.0693,  0.2496,  0.0354,  0.0728,  0.0516,  0.00,   1.2
2108,270273.000,  22.299912542, 114.177709156,    7.9843,  2,  4,  0.0509,  0.0693,  0.2504,  0.0354,  0.0728,  0.0513,  0.00,   2.5
2108,270323.000,  22.299912720, 114.177709231,    7.9194,  2,  5,  0.0512,  0.0691,  0.2502,  0.0351,  0.0745,  0.0551,  0.00,   1.5
2108,270324.000,  22.299912714, 114.177709190,    7.9002,  2,  5,  0.0512,  0.0691,  0.2497,  0.0351,  0.0745,  0.0551,  0.00,   1.6
2108,270325.000,  22.299912723, 114.177709153,    7.8861,  2,  5,  0.0513,  0.0691,  0.2493,  0.0351,  0.0744,  0.0551,  0.00,   1.7
2108,270326.000,  22.299912669, 114.177709124,    7.8622,  2,  5,  0.0513,  0.0691,  0.2489,  0.0351,  0.0744,  0.0552,  0.00,   1.8
2108,270327.000,  22.299912736, 114.177709167,    7.9548,  2,  4,  0.0520,  0.0693,  0.2520,  0.0357,  0.0753,  0.0573,  0.00,   1.2
2108,270328.000,  22.299912725, 114.177709155,    7.9459,  2,  4,  0.0520,  0.0693,  0.2520,  0.0357,  0.0754,  0.0574,  0.00,   1.2
2108,270329.000,  22.299912722, 114.177709088,    7.9542,  2,  4,  0.0520,  0.0693,  0.2521,  0.0357,  0.0754,  0.0575,  0.00,   1.3
2108,270330.000,  22.299912682, 114.177709127,    7.8846,  2,  5,  0.0513,  0.0691,  0.2485,  0.0350,  0.0744,  0.0554,  0.00,   2.6
2108,270331.000,  22.299912660, 114.177709070,    7.8361,  2,  5,  0.0513,  0.0691,  0.2481,  0.0350,  0.0743,  0.0555,  0.00,   2.8
2108,270332.000,  22.299912732, 114.177709115,    7.9039,  2,  4,  0.0520,  0.0692,  0.2513,  0.0356,  0.0753,  0.0575,  0.00,   1.5
2108,270333.000,  22.299912738, 114.177709118,    7.9085,  2,  4,  0.0520,  0.0692,  0.2513,  0.0356,  0.0753,  0.0576,  0.00,   1.4
2108,270334.000,  22.299912727, 114.177709050,    7.8883,  2,  4,  0.0520,  0.0692,  0.2514,  0.0356,  0.0754,  0.0577,  0.00,   1.4
2108,270335.000,  22.299912730, 114.177709139,    7.9185,  2,  4,  0.0521,  0.0692,  0.2523,  0.0357,  0.0752,  0.0575,  0.00,   1.2
2108,270336.000,  22.299912762, 114.177709099,    7.8892,  2,  5,  0.0515,  0.0691,  0.2484,  0.0351,  0.0742,  0.0555,  0.00,   2.3
2108,270337.000,  22.299912762, 114.177709135,    7.8814,  2,  5,  0.0515,  0.0691,  0.2480,  0.0351,  0.0742,  0.0556,  0.00,   2.0
2108,270338.000,  22.299912736, 114.177709097,    7.8584,  2,  5,  0.0515,  0.0691,  0.2476,  0.0351,  0.0741,  0.0556,  0.00,   1.8
2108,270339.000,  22.299912739, 114.177709131,    7.8023,  2,  5,  0.0515,  0.0690,  0.2466,  0.0350,  0.0743,  0.0560,  0.00,   1.5
2108,270340.000,  22.299912795, 114.177709148,    7.8405,  2,  5,  0.0516,  0.0690,  0.2469,  0.0352,  0.0741,  0.0558,  0.00,   1.3
2108,270341.000,  22.299912738, 114.177709071,    7.8047,  2,  4,  0.0521,  0.0692,  0.2505,  0.0356,  0.0749,  0.0576,  0.00,   1.0
2108,270342.000,  22.299912754, 114.177709115,    7.8092,  2,  4,  0.0521,  0.0692,  0.2506,  0.0356,  0.0749,  0.0577,  0.00,   1.0
2108,270343.000,  22.299912774, 114.177709121,    7.8091,  2,  4,  0.0521,  0.0692,  0.2506,  0.0356,  0.0750,  0.0577,  0.00,   1.0
2108,270344.000,  22.299912861, 114.177709169,    7.7637,  2,  5,  0.0517,  0.0690,  0.2460,  0.0352,  0.0743,  0.0565,  0.00,   1.1
2108,270345.000,  22.299912832, 114.177709160,    7.8017,  2,  5,  0.0521,  0.0691,  0.2464,  0.0355,  0.0743,  0.0567,  0.00,   1.3
2108,270351.000,  22.299912808, 114.177709106,    7.7943,  2,  4,  0.0522,  0.0691,  0.2493,  0.0355,  0.0753,  0.0585,  0.00,   1.2
2108,270352.000,  22.299912838, 114.177709064,    7.8334,  2,  4,  0.0522,  0.0691,  0.2494,  0.0355,  0.0753,  0.0586,  0.00,   1.2
2108,270379.000,  22.299912924, 114.177709179,    5.6841,  2,  4,  0.0525,  0.0690,  0.1371,  0.0354,  0.0747,  0.0577,  0.00,   1.2
2108,270380.000,  22.299912959, 114.177709180,    5.7060,  2,  4,  0.0525,  0.0690,  0.1371,  0.0354,  0.0747,  0.0577,  0.00,   1.2
2108,270381.000,  22.299912983, 114.177709192,    5.6928,  2,  4,  0.0525,  0.0690,  0.1371,  0.0354,  0.0747,  0.0577,  0.00,   1.1
2108,270383.000,  22.299913020, 114.177709171,    5.6945,  2,  4,  0.0525,  0.0690,  0.1372,  0.0354,  0.0747,  0.0577,  0.00,   1.0
2108,270384.000,  22.299913146, 114.177709194,    5.7196,  2,  5,  0.0519,  0.0689,  0.1344,  0.0350,  0.0741,  0.0558,  0.00,   1.1
2108,270433.000,  22.299913308, 114.177709566,    5.7236,  2,  5,  0.0524,  0.0687,  0.1344,  0.0346,  0.0741,  0.0563,  0.00,   1.1
2108,270434.000,  22.299913291, 114.177709528,    5.7229,  2,  5,  0.0524,  0.0687,  0.1344,  0.0346,  0.0741,  0.0563,  0.00,   1.2
2108,270435.000,  22.299913274, 114.177709495,    5.7124,  2,  5,  0.0524,  0.0687,  0.1344,  0.0346,  0.0741,  0.0564,  0.00,   1.1
2108,270436.000,  22.299913301, 114.177709528,    5.7063,  2,  5,  0.0524,  0.0687,  0.1344,  0.0346,  0.0741,  0.0564,  0.00,   1.1
2108,270437.000,  22.299913284, 114.177709559,    5.7193,  2,  5,  0.0524,  0.0687,  0.1344,  0.0346,  0.0741,  0.0564,  0.00,   1.0
2108,270438.000,  22.299913145, 114.177709459,    5.7208,  2,  5,  0.0524,  0.0687,  0.1344,  0.0346,  0.0742,  0.0564,  0.00,   1.1
2108,270439.000,  22.299913360, 114.177709580,    5.6973,  2,  5,  0.0525,  0.0687,  0.1345,  0.0346,  0.0741,  0.0564,  0.00,   1.2
2108,270445.000,  22.299913143, 114.177709356,    5.7256,  2,  5,  0.0524,  0.0687,  0.1344,  0.0345,  0.0742,  0.0566,  0.00,   1.0
2108,270446.000,  22.299913119, 114.177709393,    5.7334,  2,  5,  0.0524,  0.0687,  0.1344,  0.0345,  0.0742,  0.0566,  0.00,   1.4
2108,270447.000,  22.299913153, 114.177709476,    5.7460,  2,  5,  0.0524,  0.0687,  0.1345,  0.0345,  0.0742,  0.0566,  0.00,   1.5
2108,270448.000,  22.299913454, 114.177709719,    5.7399,  2,  5,  0.0525,  0.0687,  0.1345,  0.0346,  0.0742,  0.0565,  0.00,   1.0
2108,270449.000,  22.299913106, 114.177709450,    5.7560,  2,  5,  0.0525,  0.0687,  0.1345,  0.0345,  0.0742,  0.0566,  0.00,   1.9
2108,270450.000,  22.299913108, 114.177709493,    5.7704,  2,  5,  0.0525,  0.0687,  0.1346,  0.0345,  0.0742,  0.0566,  0.00,   1.9
2108,270451.000,  22.299913431, 114.177709766,    5.7565,  2,  5,  0.0526,  0.0687,  0.1346,  0.0346,  0.0742,  0.0566,  0.00,   1.1
2108,270452.000,  22.299913418, 114.177709763,    5.7597,  2,  5,  0.0526,  0.0687,  0.1347,  0.0345,  0.0742,  0.0566,  0.00,   1.1
2108,270453.000,  22.299913490, 114.177709824,    5.7735,  2,  5,  0.0526,  0.0687,  0.1347,  0.0345,  0.0742,  0.0567,  0.00,   1.2
2108,270464.000,  22.299913437, 114.177709774,    5.7686,  2,  5,  0.0527,  0.0686,  0.1348,  0.0345,  0.0742,  0.0568,  0.00,   1.2
2108,270481.000,  22.299913603, 114.177710089,    5.7689,  2,  5,  0.0529,  0.0686,  0.1348,  0.0344,  0.0743,  0.0570,  0.00,   1.2
2108,270482.000,  22.299913617, 114.177710063,    5.7689,  2,  5,  0.0529,  0.0686,  0.1349,  0.0344,  0.0743,  0.0571,  0.00,   1.1
2108,270483.000,  22.299913671, 114.177710122,    5.7766,  2,  5,  0.0529,  0.0686,  0.1350,  0.0344,  0.0743,  0.0572,  0.00,   1.1
2108,270484.000,  22.299913642, 114.177710078,    5.7750,  2,  5,  0.0529,  0.0686,  0.1351,  0.0344,  0.0743,  0.0573,  0.00,   1.2
2108,270485.000,  22.299913674, 114.177710000,    5.7559,  2,  5,  0.0530,  0.0686,  0.1353,  0.0344,  0.0744,  0.0574,  0.00,   1.2
2108,270486.000,  22.299913715, 114.177710002,    5.7601,  2,  5,  0.0530,  0.0686,  0.1356,  0.0344,  0.0746,  0.0579,  0.00,   1.2
2108,270487.000,  22.299913645, 114.177709992,    5.7612,  2,  5,  0.0533,  0.0686,  0.1368,  0.0346,  0.0749,  0.0587,  0.00,   1.0
2108,270567.000,  22.299913981, 114.177710286,    5.7778,  2,  4,  0.0544,  0.0685,  0.1384,  0.0343,  0.0754,  0.0605,  0.00,   1.1
2108,270568.000,  22.299914021, 114.177710234,    5.7917,  2,  4,  0.0544,  0.0684,  0.1384,  0.0343,  0.0754,  0.0606,  0.00,   1.1
2108,270569.000,  22.299913912, 114.177710249,    5.7566,  2,  5,  0.0543,  0.0684,  0.1382,  0.0343,  0.0754,  0.0604,  0.00,   1.1
2108,270570.000,  22.299914059, 114.177710249,    5.7900,  2,  4,  0.0544,  0.0684,  0.1384,  0.0343,  0.0754,  0.0606,  0.00,   1.2
2108,270571.000,  22.299914061, 114.177710285,    5.8072,  2,  4,  0.0544,  0.0684,  0.1384,  0.0343,  0.0754,  0.0606,  0.00,   1.2
2108,270572.000,  22.299914017, 114.177710231,    5.7934,  2,  4,  0.0544,  0.0684,  0.1385,  0.0343,  0.0754,  0.0606,  0.00,   1.2
2108,270576.000,  22.299912623, 114.177709538,    5.3126,  2,  5,  0.0539,  0.0686,  0.1396,  0.0344,  0.0761,  0.0603,  0.00,   1.0
2108,270577.000,  22.299912398, 114.177708594,    4.9364,  2,  5,  0.0539,  0.0688,  0.1409,  0.0344,  0.0767,  0.0603,  0.00,   1.3
2108,270578.000,  22.299913689, 114.177708436,    5.0559,  2,  4,  0.0545,  0.0688,  0.1414,  0.0344,  0.0768,  0.0610,  0.00,   1.1
2108,270579.000,  22.299912250, 114.177707692,    4.5657,  2,  5,  0.0539,  0.0689,  0.1424,  0.0345,  0.0774,  0.0605,  0.00,   1.6
2108,270875.000,  22.299915427, 114.177709083,    5.1892,  2,  5,  0.0572,  0.0680,  0.1429,  0.0317,  0.0771,  0.0637,  0.00,   1.1
2108,270876.000,  22.299915416, 114.177709468,    5.3261,  2,  5,  0.0572,  0.0680,  0.1428,  0.0317,  0.0771,  0.0638,  0.00,   1.2
2108,270877.000,  22.299915466, 114.177709667,    5.4023,  2,  5,  0.0572,  0.0680,  0.1428,  0.0317,  0.0771,  0.0638,  0.00,   1.8
2108,270878.000,  22.299915487, 114.177709800,    5.4587,  2,  5,  0.0572,  0.0680,  0.1429,  0.0317,  0.0771,  0.0638,  0.00,   1.2
2108,270879.000,  22.299915503, 114.177709988,    5.5112,  2,  5,  0.0572,  0.0680,  0.1430,  0.0317,  0.0771,  0.0638,  0.00,   1.2
2108,270880.000,  22.299915487, 114.177710055,    5.5514,  2,  5,  0.0573,  0.0680,  0.1431,  0.0317,  0.0772,  0.0639,  0.00,   1.4
2108,270881.000,  22.299915544, 114.177710115,    5.5857,  2,  5,  0.0573,  0.0680,  0.1432,  0.0317,  0.0772,  0.0639,  0.00,   1.3
2108,270882.000,  22.299915523, 114.177710216,    5.6146,  2,  5,  0.0573,  0.0681,  0.1434,  0.0317,  0.0773,  0.0639,  0.00,   1.1
2108,270883.000,  22.299915491, 114.177710308,    5.6440,  2,  5,  0.0573,  0.0681,  0.1435,  0.0317,  0.0773,  0.0640,  0.00,   1.2
2108,270884.000,  22.299915565, 114.177710396,    5.6748,  2,  5,  0.0573,  0.0681,  0.1436,  0.0317,  0.0774,  0.0640,  0.00,   1.4
2108,270885.000,  22.299915548, 114.177710342,    5.6818,  2,  5,  0.0573,  0.0681,  0.1438,  0.0317,  0.0775,  0.0641,  0.00,   1.7
2108,270886.000,  22.299915576, 114.177710441,    5.7043,  2,  5,  0.0573,  0.0681,  0.1440,  0.0317,  0.0775,  0.0641,  0.00,   1.9
2108,270887.000,  22.299915528, 114.177710454,    5.7232,  2,  5,  0.0573,  0.0681,  0.1441,  0.0317,  0.0776,  0.0641,  0.00,   2.1
2108,270973.000,  22.299915800, 114.177710619,    5.7664,  2,  5,  0.0583,  0.0678,  0.1437,  0.0306,  0.0771,  0.0648,  0.00,   1.9
2108,270974.000,  22.299915862, 114.177710734,    5.7950,  2,  5,  0.0583,  0.0678,  0.1436,  0.0305,  0.0771,  0.0648,  0.00,   1.7
2108,270975.000,  22.299915876, 114.177710813,    5.8315,  2,  5,  0.0583,  0.0678,  0.1435,  0.0305,  0.0770,  0.0648,  0.00,   1.5
2108,270976.000,  22.299915918, 114.177710867,    5.8633,  2,  5,  0.0584,  0.0678,  0.1434,  0.0305,  0.0770,  0.0648,  0.00,   1.4
2108,270977.000,  22.299915907, 114.177710929,    5.8797,  2,  5,  0.0584,  0.0677,  0.1433,  0.0305,  0.0769,  0.0648,  0.00,   1.2
2108,270978.000,  22.299915921, 114.177710922,    5.9001,  2,  5,  0.0584,  0.0677,  0.1432,  0.0305,  0.0769,  0.0648,  0.00,   1.1
2108,270979.000,  22.299915961, 114.177711019,    5.9276,  2,  5,  0.0584,  0.0677,  0.1432,  0.0304,  0.0769,  0.0648,  0.00,   1.0
2108,270980.000,  22.299915988, 114.177711026,    5.9423,  2,  5,  0.0584,  0.0677,  0.1431,  0.0304,  0.0768,  0.0648,  0.00,   1.0
2108,270981.000,  22.299915998, 114.177711066,    5.9595,  2,  5,  0.0584,  0.0677,  0.1431,  0.0304,  0.0768,  0.0648,  0.00,   1.1
2108,270982.000,  22.299916001, 114.177711106,    5.9744,  2,  5,  0.0584,  0.0677,  0.1430,  0.0304,  0.0768,  0.0648,  0.00,   1.2
2108,270983.000,  22.299916021, 114.177711175,    5.9941,  2,  5,  0.0584,  0.0677,  0.1430,  0.0304,  0.0767,  0.0648,  0.00,   1.2
2108,270984.000,  22.299916021, 114.177711174,    6.0062,  2,  5,  0.0584,  0.0677,  0.1429,  0.0303,  0.0767,  0.0648,  0.00,   1.3
2108,270985.000,  22.299916021, 114.177711253,    6.0203,  2,  5,  0.0585,  0.0677,  0.1429,  0.0303,  0.0767,  0.0648,  0.00,   1.3
2108,270986.000,  22.299916032, 114.177711218,    6.0347,  2,  5,  0.0585,  0.0676,  0.1429,  0.0303,  0.0767,  0.0648,  0.00,   1.4
2108,270987.000,  22.299916042, 114.177711236,    6.0467,  2,  5,  0.0585,  0.0676,  0.1428,  0.0303,  0.0767,  0.0648,  0.00,   1.3
2108,270988.000,  22.299916029, 114.177711227,    6.0571,  2,  5,  0.0585,  0.0676,  0.1428,  0.0303,  0.0766,  0.0648,  0.00,   1.4
2108,270989.000,  22.299916094, 114.177711302,    6.0546,  2,  5,  0.0585,  0.0676,  0.1428,  0.0303,  0.0766,  0.0648,  0.00,   1.4
2108,270990.000,  22.299916129, 114.177711332,    6.0741,  2,  5,  0.0585,  0.0676,  0.1428,  0.0302,  0.0766,  0.0648,  0.00,   1.3
2108,270991.000,  22.299916146, 114.177711344,    6.0814,  2,  5,  0.0585,  0.0676,  0.1427,  0.0302,  0.0766,  0.0648,  0.00,   1.3
2108,270992.000,  22.299916088, 114.177711416,    6.0983,  2,  5,  0.0585,  0.0676,  0.1427,  0.0302,  0.0766,  0.0648,  0.00,   1.3
2108,270993.000,  22.299916100, 114.177711442,    6.1058,  2,  5,  0.0585,  0.0676,  0.1427,  0.0302,  0.0766,  0.0648,  0.00,   1.4
2108,270994.000,  22.299916086, 114.177711438,    6.1161,  2,  5,  0.0586,  0.0676,  0.1427,  0.0302,  0.0766,  0.0649,  0.00,   1.4
2108,271004.000,  22.299916111, 114.177711566,    6.1118,  2,  5,  0.0587,  0.0676,  0.1426,  0.0300,  0.0765,  0.0649,  0.00,   1.4
2108,271005.000,  22.299916089, 114.177711552,    6.1129,  2,  5,  0.0587,  0.0675,  0.1425,  0.0300,  0.0765,  0.0649,  0.00,   1.5
2108,271006.000,  22.299916076, 114.177711593,    6.1143,  2,  5,  0.0587,  0.0675,  0.1425,  0.0300,  0.0764,  0.0649,  0.00,   1.5
2108,271007.000,  22.299916106, 114.177711643,    6.1292,  2,  5,  0.0587,  0.0675,  0.1425,  0.0300,  0.0764,  0.0649,  0.00,   1.6
2108,271008.000,  22.299916094, 114.177711640,    6.1261,  2,  5,  0.0587,  0.0675,  0.1424,  0.0299,  0.0764,  0.0649,  0.00,   1.6
2108,271009.000,  22.299916109, 114.177711648,    6.1304,  2,  5,  0.0587,  0.0675,  0.1424,  0.0299,  0.0764,  0.0649,  0.00,   1.6
2108,271010.000,  22.299916123, 114.177711665,    6.1326,  2,  5,  0.0587,  0.0675,  0.1424,  0.0299,  0.0763,  0.0649,  0.00,   1.6
2108,271011.000,  22.299916134, 114.177711743,    6.1424,  2,  5,  0.0588,  0.0675,  0.1423,  0.0299,  0.0763,  0.0649,  0.00,   1.6
2108,271012.000,  22.299916136, 114.177711709,    6.1380,  2,  5,  0.0588,  0.0675,  0.1423,  0.0299,  0.0763,  0.0649,  0.00,   1.6
2108,271013.000,  22.299916169, 114.177711704,    6.1439,  2,  5,  0.0588,  0.0675,  0.1423,  0.0299,  0.0763,  0.0649,  0.00,   1.6
2108,271014.000,  22.299916158, 114.177711748,    6.1470,  2,  5,  0.0588,  0.0675,  0.1422,  0.0298,  0.0763,  0.0649,  0.00,   1.6
2108,271015.000,  22.299916167, 114.177711715,    6.1403,  2,  5,  0.0588,  0.0675,  0.1422,  0.0298,  0.0763,  0.0650,  0.00,   1.6
2108,271016.000,  22.299916182, 114.177711767,    6.1444,  2,  5,  0.0588,  0.0675,  0.1422,  0.0298,  0.0762,  0.0650,  0.00,   1.6
2108,271017.000,  22.299916185, 114.177711767,    6.1450,  2,  5,  0.0588,  0.0675,  0.1421,  0.0298,  0.0762,  0.0650,  0.00,   1.6
2108,271018.000,  22.299916144, 114.177711764,    6.1362,  2,  5,  0.0588,  0.0675,  0.1421,  0.0298,  0.0762,  0.0650,  0.00,   1.6
2108,271019.000,  22.299916168, 114.177711808,    6.1435,  2,  5,  0.0589,  0.0675,  0.1421,  0.0297,  0.0762,  0.0650,  0.00,   1.6
2108,271020.000,  22.299916153, 114.177711814,    6.1406,  2,  5,  0.0589,  0.0675,  0.1421,  0.0297,  0.0762,  0.0650,  0.00,   1.6
2108,271021.000,  22.299916158, 114.177711771,    6.1398,  2,  5,  0.0589,  0.0675,  0.1420,  0.0297,  0.0761,  0.0650,  0.00,   1.6
2108,271022.000,  22.299916143, 114.177711832,    6.1423,  2,  5,  0.0589,  0.0674,  0.1420,  0.0297,  0.0761,  0.0650,  0.00,   1.6
2108,271023.000,  22.299916150, 114.177711794,    6.1344,  2,  5,  0.0589,  0.0674,  0.1420,  0.0297,  0.0761,  0.0650,  0.00,   1.6
2108,271024.000,  22.299916156, 114.177711805,    6.1352,  2,  5,  0.0589,  0.0674,  0.1419,  0.0297,  0.0761,  0.0650,  0.00,   1.6
2108,271025.000,  22.299916131, 114.177711809,    6.1350,  2,  5,  0.0589,  0.0674,  0.1419,  0.0296,  0.0761,  0.0650,  0.00,   1.6
2108,271026.000,  22.299916163, 114.177711852,    6.1397,  2,  5,  0.0589,  0.0674,  0.1419,  0.0296,  0.0761,  0.0650,  0.00,   1.6
2108,271027.000,  22.299916174, 114.177711794,    6.1336,  2,  5,  0.0589,  0.0674,  0.1419,  0.0296,  0.0760,  0.0650,  0.00,   1.6
2108,271028.000,  22.299916133, 114.177711802,    6.1302,  2,  5,  0.0590,  0.0674,  0.1418,  0.0296,  0.0760,  0.0650,  0.00,   1.6
2108,271029.000,  22.299916145, 114.177711795,    6.1260,  2,  5,  0.0590,  0.0674,  0.1418,  0.0296,  0.0760,  0.0650,  0.00,   1.6
2108,271030.000,  22.299916134, 114.177711810,    6.1269,  2,  5,  0.0590,  0.0674,  0.1418,  0.0296,  0.0760,  0.0650,  0.00,   1.6
2108,271031.000,  22.299916136, 114.177711830,    6.1270,  2,  5,  0.0590,  0.0674,  0.1418,  0.0295,  0.0760,  0.0650,  0.00,   1.6
2108,271032.000,  22.299916133, 114.177711783,    6.1193,  2,  5,  0.0590,  0.0674,  0.1417,  0.0295,  0.0760,  0.0650,  0.00,   1.7
2108,271033.000,  22.299916141, 114.177711808,    6.1178,  2,  5,  0.0590,  0.0674,  0.1417,  0.0295,  0.0759,  0.0650,  0.00,   1.7
2108,271034.000,  22.299916173, 114.177711783,    6.1184,  2,  5,  0.0590,  0.0674,  0.1417,  0.0295,  0.0759,  0.0650,  0.00,   1.7
2108,271040.000,  22.299916216, 114.177711805,    6.1253,  2,  5,  0.0591,  0.0674,  0.1416,  0.0294,  0.0759,  0.0651,  0.00,   1.7
2108,271041.000,  22.299916234, 114.177711814,    6.1276,  2,  5,  0.0591,  0.0674,  0.1416,  0.0294,  0.0759,  0.0651,  0.00,   1.7
2108,271042.000,  22.299916211, 114.177711831,    6.1216,  2,  5,  0.0591,  0.0674,  0.1415,  0.0293,  0.0758,  0.0651,  0.00,   1.7
2108,271043.000,  22.299916240, 114.177711839,    6.1242,  2,  5,  0.0592,  0.0673,  0.1415,  0.0293,  0.0758,  0.0651,  0.00,   1.6
2108,271044.000,  22.299916266, 114.177711872,    6.1335,  2,  5,  0.0592,  0.0673,  0.1415,  0.0293,  0.0758,  0.0651,  0.00,   1.6
2108,271045.000,  22.299916268, 114.177711862,    6.1265,  2,  5,  0.0592,  0.0673,  0.1414,  0.0293,  0.0758,  0.0651,  0.00,   1.6
2108,271046.000,  22.299916274, 114.177711853,    6.1255,  2,  5,  0.0592,  0.0673,  0.1414,  0.0293,  0.0758,  0.0651,  0.00,   1.6
2108,271047.000,  22.299916255, 114.177711869,    6.1245,  2,  5,  0.0592,  0.0673,  0.1414,  0.0292,  0.0757,  0.0651,  0.00,   1.6
2108,271048.000,  22.299916268, 114.177711851,    6.1236,  2,  5,  0.0592,  0.0673,  0.1413,  0.0292,  0.0757,  0.0651,  0.00,   1.6
2108,271049.000,  22.299916301, 114.177711874,    6.1329,  2,  5,  0.0592,  0.0673,  0.1413,  0.0292,  0.0757,  0.0651,  0.00,   1.6
2108,271050.000,  22.299916326, 114.177711921,    6.1334,  2,  5,  0.0593,  0.0673,  0.1412,  0.0292,  0.0757,  0.0651,  0.00,   1.6
2108,271051.000,  22.299916323, 114.177711905,    6.1327,  2,  5,  0.0593,  0.0673,  0.1412,  0.0292,  0.0756,  0.0651,  0.00,   1.6
2108,271052.000,  22.299916324, 114.177711893,    6.1269,  2,  5,  0.0593,  0.0673,  0.1412,  0.0291,  0.0756,  0.0651,  0.00,   1.5
2108,271053.000,  22.299916324, 114.177711893,    6.1248,  2,  5,  0.0593,  0.0673,  0.1411,  0.0291,  0.0756,  0.0651,  0.00,   1.5
2108,271054.000,  22.299916331, 114.177711890,    6.1261,  2,  5,  0.0593,  0.0673,  0.1411,  0.0291,  0.0756,  0.0651,  0.00,   1.5
2108,271055.000,  22.299916299, 114.177711888,    6.1221,  2,  5,  0.0593,  0.0673,  0.1411,  0.0291,  0.0756,  0.0651,  0.00,   1.5
2108,271056.000,  22.299916305, 114.177711896,    6.1197,  2,  5,  0.0593,  0.0673,  0.1410,  0.0291,  0.0755,  0.0651,  0.00,   1.5
2108,271057.000,  22.299916312, 114.177711848,    6.1006,  2,  5,  0.0593,  0.0673,  0.1410,  0.0291,  0.0755,  0.0651,  0.00,   1.5
2108,271058.000,  22.299916313, 114.177711925,    6.1118,  2,  5,  0.0594,  0.0673,  0.1410,  0.0290,  0.0755,  0.0651,  0.00,   1.5
2108,271059.000,  22.299916302, 114.177711899,    6.1052,  2,  5,  0.0594,  0.0673,  0.1409,  0.0290,  0.0755,  0.0651,  0.00,   1.5
2108,271060.000,  22.299916317, 114.177711893,    6.1227,  2,  5,  0.0594,  0.0673,  0.1409,  0.0290,  0.0755,  0.0651,  0.00,   1.5
2108,271061.000,  22.299916326, 114.177711894,    6.1230,  2,  5,  0.0594,  0.0673,  0.1408,  0.0290,  0.0754,  0.0651,  0.00,   1.5
2108,271062.000,  22.299916312, 114.177711893,    6.1286,  2,  5,  0.0594,  0.0672,  0.1408,  0.0290,  0.0754,  0.0651,  0.00,   1.5
2108,271063.000,  22.299916288, 114.177711857,    6.1234,  2,  5,  0.0594,  0.0672,  0.1408,  0.0289,  0.0754,  0.0651,  0.00,   1.5
2108,271064.000,  22.299916316, 114.177711897,    6.1280,  2,  5,  0.0595,  0.0672,  0.1407,  0.0289,  0.0754,  0.0651,  0.00,   1.5
2108,271065.000,  22.299916316, 114.177711840,    6.1195,  2,  5,  0.0595,  0.0672,  0.1407,  0.0289,  0.0754,  0.0651,  0.00,   1.4
2108,271066.000,  22.299916326, 114.177711869,    6.1220,  2,  5,  0.0595,  0.0672,  0.1407,  0.0289,  0.0753,  0.0651,  0.00,   1.4
2108,271067.000,  22.299916312, 114.177711838,    6.1233,  2,  5,  0.0595,  0.0672,  0.1406,  0.0288,  0.0753,  0.0651,  0.00,   1.4
2108,271068.000,  22.299916308, 114.177711806,    6.1192,  2,  5,  0.0595,  0.0672,  0.1406,  0.0288,  0.0753,  0.0651,  0.00,   1.4
2108,271069.000,  22.299916299, 114.177711810,    6.1156,  2,  5,  0.0595,  0.0672,  0.1405,  0.0288,  0.0753,  0.0651,  0.00,   1.4
2108,271070.000,  22.299916300, 114.177711779,    6.1154,  2,  5,  0.0595,  0.0672,  0.1405,  0.0288,  0.0752,  0.0651,  0.00,   1.4
2108,271071.000,  22.299916327, 114.177711822,    6.1192,  2,  5,  0.0596,  0.0672,  0.1405,  0.0288,  0.0752,  0.0652,  0.00,   1.4
2108,271072.000,  22.299916294, 114.177711787,    6.1178,  2,  5,  0.0596,  0.0672,  0.1404,  0.0287,  0.0752,  0.0652,  0.00,   1.4
2108,271073.000,  22.299916337, 114.177711868,    6.1313,  2,  5,  0.0596,  0.0672,  0.1404,  0.0287,  0.0752,  0.0651,  0.00,   1.4
2108,271074.000,  22.299916269, 114.177711782,    6.1142,  2,  5,  0.0596,  0.0672,  0.1403,  0.0287,  0.0752,  0.0652,  0.00,   1.4
2108,271075.000,  22.299916290, 114.177711828,    6.1220,  2,  5,  0.0596,  0.0672,  0.1403,  0.0287,  0.0751,  0.0652,  0.00,   1.4
2108,271076.000,  22.299916319, 114.177711848,    6.1243,  2,  5,  0.0596,  0.0672,  0.1403,  0.0287,  0.0751,  0.0652,  0.00,   1.4
2108,271077.000,  22.299916323, 114.177711777,    6.0972,  2,  5,  0.0596,  0.0672,  0.1402,  0.0286,  0.0751,  0.0652,  0.00,   1.4
2108,271078.000,  22.299916283, 114.177711797,    6.0937,  2,  5,  0.0597,  0.0672,  0.1402,  0.0286,  0.0751,  0.0652,  0.00,   1.4
2108,271079.000,  22.299916297, 114.177711742,    6.0862,  2,  5,  0.0597,  0.0672,  0.1402,  0.0286,  0.0750,  0.0652,  0.00,   1.4
2108,271080.000,  22.299916656, 114.177712393,    6.2356,  2,  5,  0.0596,  0.0670,  0.1397,  0.0283,  0.0747,  0.0649,  0.00,   1.0
2108,271081.000,  22.299916335, 114.177711726,    6.0738,  2,  5,  0.0597,  0.0672,  0.1401,  0.0286,  0.0750,  0.0652,  0.00,   1.5
2108,271091.000,  22.299916375, 114.177711704,    6.0681,  2,  5,  0.0598,  0.0671,  0.1400,  0.0284,  0.0749,  0.0652,  0.00,   1.5
2108,271092.000,  22.299916435, 114.177711704,    6.0629,  2,  5,  0.0598,  0.0671,  0.1399,  0.0283,  0.0749,  0.0652,  0.00,   1.5
2108,271093.000,  22.299916444, 114.177711649,    6.0539,  2,  5,  0.0599,  0.0671,  0.1399,  0.0283,  0.0748,  0.0652,  0.00,   1.5
2108,271094.000,  22.299916446, 114.177711673,    6.0515,  2,  5,  0.0599,  0.0671,  0.1398,  0.0283,  0.0748,  0.0652,  0.00,   1.5
2108,271095.000,  22.299916380, 114.177711628,    6.0494,  2,  5,  0.0599,  0.0671,  0.1398,  0.0283,  0.0748,  0.0652,  0.00,   1.5
2108,271096.000,  22.299916371, 114.177711579,    6.0374,  2,  5,  0.0599,  0.0671,  0.1397,  0.0283,  0.0748,  0.0652,  0.00,   1.5
2108,271097.000,  22.299916418, 114.177711642,    6.0381,  2,  5,  0.0599,  0.0671,  0.1396,  0.0283,  0.0747,  0.0652,  0.00,   1.5
2108,271098.000,  22.299916430, 114.177711592,    6.0312,  2,  5,  0.0599,  0.0671,  0.1396,  0.0282,  0.0747,  0.0652,  0.00,   1.5
2108,271099.000,  22.299916405, 114.177711567,    6.0302,  2,  5,  0.0600,  0.0671,  0.1395,  0.0282,  0.0747,  0.0652,  0.00,   1.5
2108,271100.000,  22.299916417, 114.177711575,    6.0304,  2,  5,  0.0600,  0.0671,  0.1395,  0.0282,  0.0746,  0.0652,  0.00,   1.5
2108,271101.000,  22.299916417, 114.177711559,    6.0282,  2,  5,  0.0600,  0.0671,  0.1394,  0.0281,  0.0746,  0.0652,  0.00,   1.5
2108,271102.000,  22.299916395, 114.177711572,    6.0263,  2,  5,  0.0600,  0.0671,  0.1394,  0.0281,  0.0746,  0.0652,  0.00,   1.5
2108,271103.000,  22.299916399, 114.177711581,    6.0275,  2,  5,  0.0600,  0.0671,  0.1393,  0.0281,  0.0746,  0.0652,  0.00,   1.5
2108,271105.000,  22.299916394, 114.177711544,    6.0232,  2,  5,  0.0600,  0.0670,  0.1393,  0.0281,  0.0745,  0.0652,  0.00,   1.5
2108,271128.000,  22.299916600, 114.177711747,    6.0375,  2,  5,  0.0603,  0.0670,  0.1390,  0.0276,  0.0743,  0.0654,  0.00,   1.5
2108,271129.000,  22.299916609, 114.177711732,    6.0278,  2,  5,  0.0603,  0.0669,  0.1389,  0.0276,  0.0742,  0.0653,  0.00,   1.5
2108,271130.000,  22.299916547, 114.177711694,    6.0168,  2,  5,  0.0603,  0.0669,  0.1388,  0.0275,  0.0742,  0.0653,  0.00,   1.5
2108,271131.000,  22.299916560, 114.177711693,    6.0123,  2,  5,  0.0604,  0.0669,  0.1387,  0.0275,  0.0741,  0.0653,  0.00,   1.5
2108,271132.000,  22.299916562, 114.177711707,    6.0120,  2,  5,  0.0604,  0.0669,  0.1386,  0.0275,  0.0741,  0.0653,  0.00,   1.5
