$GLGSV,3,1,10,78,45,196,36,66,26,115,24,82,21,288,27,79,52,291,30,1*77,1621578775434
$GLGSV,3,2,10,81,37,344,38,67,08,163,29,77,01,165,,80,07,329,,1*7F,1621578775434
$GLGSV,3,3,10,65,14,050,,88,16,039,,1*77,1621578775434
$GAGSV,2,1,08,01,42,313,39,07,14,132,27,13,35,028,37,21,74,206,33,7*7D,1621578775434
$GAGSV,2,2,08,26,54,307,33,27,26,154,26,08,09,082,,33,20,258,,7*79,1621578775436
$PQGSV,1,1,03,193,33,123,25,194,00,000,32,195,56,046,38,0*76,1621578775437
$GBGSV,4,1,16,01,47,122,27,02,46,234,25,03,63,188,25,04,33,108,25,0*7B,1621578775439
$GBGSV,4,2,16,05,23,254,36,07,74,120,28,08,73,310,30,10,74,327,37,0*74,1621578775440
$GBGSV,4,3,16,11,43,327,28,12,35,037,36,13,60,253,37,14,15,178,30,0*70,1621578775440
$GBGSV,4,4,16,21,36,094,33,23,18,307,22,24,29,184,34,25,45,257,40,0*72,1621578775440
$GNGSA,A,3,02,03,06,14,17,19,30,,,,,,1.0,0.7,0.8,1*30,1621578775442
$GNGSA,A,3,67,78,79,81,,,,,,,,,1.0,0.7,0.8,2*35,1621578775442
$GNGSA,A,2,13,,,,,,,,,,,,1.0,0.7,0.8,3*3E,1621578775442
$GNGSA,A,3,07,08,10,11,12,13,21,24,25,,,,1.0,0.7,0.8,5*36,1621578775442
$GNVTG,,T,,M,0.0,N,0.0,K,A*3D,1621578775444
$GNGGA,062844.00,2218.094138,N,11411.418622,E,1,12,0.7,11.9,M,-1.2,M,,*5C,1621578775447
$GNRMC,062844.00,A,2218.094138,N,11411.418622,E,0.0,,210521,2.2,W,A,V*65,1621578775448
$GPGSV,4,1,13,02,14,247,36,03,37,057,34,04,01,109,25,06,44,262,41,1*6D,1621578776424
$GPGSV,4,2,13,09,05,140,27,14,83,146,32,17,47,357,34,19,35,324,41,1*6D,1621578776428
$GPGSV,4,3,13,28,00,000,39,30,21,199,39,01,11,040,,07,00,000,,1*68,1621578776429
$GPGSV,4,4,13,22,13,042,,1*52,1621578776430
$GLGSV,3,1,10,78,45,196,37,66,26,115,25,82,21,288,27,79,52,291,30,1*77,1621578776430
$GLGSV,3,2,10,81,37,344,36,67,08,163,32,77,01,165,,80,07,329,,1*7B,1621578776430
$GLGSV,3,3,10,65,14,050,,88,16,039,,1*77,1621578776432
$GAGSV,2,1,08,01,42,313,39,07,14,132,27,13,35,028,36,21,74,206,33,7*7C,1621578776432
$GAGSV,2,2,08,26,54,307,33,27,26,154,27,08,09,082,,33,20,258,,7*78,1621578776433
$PQGSV,1,1,03,193,33,123,26,194,00,000,29,195,56,046,38,0*7F,1621578776433
$GBGSV,4,1,16,01,47,122,28,02,46,234,25,03,63,188,25,04,33,108,25,0*74,1621578776433
$GBGSV,4,2,16,05,23,254,35,07,74,120,28,08,73,310,31,10,74,327,36,0*77,1621578776433
$GBGSV,4,3,16,11,43,327,29,12,35,037,37,13,60,253,37,14,15,178,27,0*76,1621578776434
$GBGSV,4,4,16,21,36,094,33,23,18,307,24,24,29,184,35,25,45,257,40,0*75,1621578776434
$GNGSA,A,3,02,03,06,14,17,19,30,,,,,,1.0,0.7,0.8,1*30,1621578776435
$GNGSA,A,3,67,78,79,81,,,,,,,,,1.0,0.7,0.8,2*35,1621578776436
$GNGSA,A,2,13,,,,,,,,,,,,1.0,0.7,0.8,3*3E,1621578776436
$GNGSA,A,3,07,08,10,11,12,13,21,24,25,,,,1.0,0.7,0.8,5*36,1621578776436
$GNVTG,,T,,M,0.0,N,0.0,K,A*3D,1621578776436
$GNGGA,062845.00,2218.094136,N,11411.418625,E,1,12,0.7,11.9,M,-1.2,M,,*54,1621578776436
$GNRMC,062845.00,A,2218.094136,N,11411.418625,E,0.0,,210521,2.2,W,A,V*6D,1621578776437
$GPGSV,4,1,13,02,14,247,36,03,37,057,34,04,01,109,24,06,44,262,40,1*6D,1621578777450
$GPGSV,4,2,13,09,05,140,28,14,83,146,31,17,47,357,33,19,35,324,41,1*66,1621578777452
$GPGSV,4,3,13,28,00,000,39,30,21,199,38,01,11,040,,07,00,000,,1*69,1621578777453
$GPGSV,4,4,13,22,13,042,,1*52,1621578777453
$GLGSV,3,1,10,78,45,196,36,66,26,115,27,82,21,288,26,79,52,291,26,1*72,1621578777454
$GLGSV,3,2,10,81,37,344,35,67,08,163,32,77,01,165,,80,07,329,,1*78,1621578777454
$GLGSV,3,3,10,65,14,050,,88,16,039,,1*77,1621578777454
$GAGSV,2,1,08,01,42,313,39,07,14,132,27,13,35,028,36,21,74,206,33,7*7C,1621578777455
$GAGSV,2,2,08,26,54,307,33,27,26,154,27,08,09,082,,33,20,258,,7*78,1621578777456
$PQGSV,1,1,03,193,33,123,25,194,00,000,30,195,56,046,38,0*74,1621578777456
$GBGSV,4,1,16,01,47,122,28,02,46,234,25,03,63,188,25,04,33,108,25,0*74,1621578777456
$GBGSV,4,2,16,05,23,254,33,07,74,120,27,08,73,310,29,10,74,327,35,0*74,1621578777457
$GBGSV,4,3,16,11,43,327,27,12,35,037,35,13,60,253,37,14,15,178,27,0*7A,1621578777457
$GBGSV,4,4,16,21,36,094,31,23,18,307,25,24,29,184,34,25,45,257,39,0*79,1621578777458
$GNGSA,A,3,02,03,06,14,17,19,30,,,,,,1.0,0.7,0.8,1*30,1621578777460
$GNGSA,A,3,67,78,79,81,,,,,,,,,1.0,0.7,0.8,2*35,1621578777462
$GNGSA,A,2,13,,,,,,,,,,,,1.0,0.7,0.8,3*3E,1621578777463
$GNGSA,A,3,07,08,10,11,12,13,21,24,25,,,,1.0,0.7,0.8,5*36,1621578777464
$GNVTG,,T,,M,0.0,N,0.0,K,A*3D,1621578777464
$GNGGA,062846.00,2218.094135,N,11411.418626,E,1,12,0.7,11.9,M,-1.2,M,,*57,1621578777464
$GNRMC,062846.00,A,2218.094135,N,11411.418626,E,0.0,,210521,2.2,W,A,V*6E,1621578777465
$GPGSV,4,1,13,02,14,247,36,03,37,057,34,04,01,109,24,06,44,262,41,1*6C,1621578778431
$GPGSV,4,2,13,09,05,140,28,14,83,146,31,17,47,357,33,19,35,324,40,1*67,1621578778432
$GPGSV,4,3,13,28,00,000,39,30,21,199,38,01,11,040,,07,00,000,,1*69,1621578778433
$GPGSV,4,4,13,22,13,042,,1*52,1621578778433
$GLGSV,3,1,10,78,45,196,33,66,26,115,27,82,21,288,27,79,52,291,29,1*79,1621578778433
$GLGSV,3,2,10,81,37,344,35,67,08,163,29,77,01,165,,80,07,329,,1*72,1621578778434
$GLGSV,3,3,10,65,14,050,,88,16,039,,1*77,1621578778434
$GAGSV,2,1,08,01,42,313,39,07,14,132,27,13,35,028,36,21,74,206,32,7*7D,1621578778435
$GAGSV,2,2,08,26,54,307,32,27,26,154,27,08,09,082,,33,20,258,,7*79,1621578778436
$PQGSV,1,1,03,193,33,123,25,194,00,000,31,195,56,046,37,0*7A,1621578778438
$GBGSV,4,1,16,01,47,122,28,02,46,234,25,03,63,188,25,04,33,108,25,0*74,1621578778439
$GBGSV,4,2,16,05,23,254,35,07,74,120,28,08,73,310,31,10,74,327,36,0*77,1621578778439
$GBGSV,4,3,16,11,43,327,29,12,35,037,36,13,60,253,36,14,15,178,28,0*79,1621578778439
$GBGSV,4,4,16,21,36,094,30,23,18,307,23,24,29,184,34,25,45,257,40,0*70,1621578778440
$GNGSA,A,3,02,03,06,14,17,19,30,,,,,,1.0,0.7,0.8,1*30,1621578778447
$GNGSA,A,3,67,78,79,81,,,,,,,,,1.0,0.7,0.8,2*35,1621578778448
$GNGSA,A,2,13,,,,,,,,,,,,1.0,0.7,0.8,3*3E,1621578778463
$GNGSA,A,3,07,08,10,11,12,13,21,24,25,,,,1.0,0.7,0.8,5*36,1621578778465
$GNVTG,,T,,M,0.0,N,0.0,K,A*3D,1621578778471
$GNGGA,062847.00,2218.094134,N,11411.418628,E,1,12,0.7,11.9,M,-1.2,M,,*59,1621578778471
$GNRMC,062847.00,A,2218.094134,N,11411.418628,E,0.0,,210521,2.2,W,A,V*60,1621578778472
$GPGSV,4,1,13,02,14,247,35,03,37,057,35,04,01,109,25,06,44,262,41,1*6F,1621578779426
$GPGSV,4,2,13,09,05,140,30,14,83,146,31,17,47,357,33,19,35,324,41,1*6F,1621578779427
$GPGSV,4,3,13,28,00,000,39,30,21,199,38,01,11,040,,07,00,000,,1*69,1621578779429
$GPGSV,4,4,13,22,13,042,,1*52,1621578779438
$GLGSV,3,1,10,78,45,196,35,66,26,115,24,82,21,288,27,79,52,291,29,1*7C,1621578779439
$GLGSV,3,2,10,81,37,344,37,67,08,163,29,77,01,165,,80,07,329,,1*70,1621578779439
$GLGSV,3,3,10,65,14,050,,88,16,039,,1*77,1621578779439
$GAGSV,2,1,08,01,42,313,39,07,14,132,27,13,35,028,36,21,74,206,33,7*7C,1621578779439
$GAGSV,2,2,08,26,54,307,33,27,26,154,27,08,09,082,,33,20,258,,7*78,1621578779440
$PQGSV,1,1,03,193,33,123,25,194,00,000,30,195,56,046,38,0*74,1621578779440
$GBGSV,4,1,16,01,47,122,27,02,46,234,25,03,63,188,25,04,33,108,25,0*7B,1621578779440
$GBGSV,4,2,16,05,23,254,34,07,74,120,28,08,73,310,30,10,74,327,36,0*77,1621578779441
$GBGSV,4,3,16,11,43,327,29,12,35,037,36,13,60,253,37,14,15,178,27,0*77,1621578779442
$GBGSV,4,4,16,21,36,094,30,23,18,307,23,24,29,184,35,25,45,257,40,0*71,1621578779442
$GNGSA,A,3,02,03,06,14,17,19,30,,,,,,1.0,0.7,0.8,1*30,1621578779444
$GNGSA,A,3,67,78,79,81,,,,,,,,,1.0,0.7,0.8,2*35,1621578779445
$GNGSA,A,2,13,,,,,,,,,,,,1.0,0.7,0.8,3*3E,1621578779445
$GNGSA,A,3,07,08,10,11,12,13,21,24,25,,,,1.0,0.7,0.8,5*36,1621578779446
$GNVTG,,T,,M,0.0,N,0.0,K,A*3D,1621578779446
$GNGGA,062848.00,2218.094133,N,11411.418628,E,1,12,0.7,11.9,M,-1.2,M,,*51,1621578779447
$GNRMC,062848.00,A,2218.094133,N,11411.418628,E,0.0,,210521,2.2,W,A,V*68,1621578779448
$GPGSV,4,1,13,02,14,247,35,03,37,057,34,04,01,109,27,06,44,262,41,1*6C,1621578780431
$GPGSV,4,2,13,09,05,140,29,14,83,146,32,17,47,357,34,19,35,324,40,1*62,1621578780432
$GPGSV,4,3,13,28,00,000,39,30,21,199,38,01,11,040,,07,00,000,,1*69,1621578780432
$GPGSV,4,4,13,22,13,042,,1*52,1621578780433
$GLGSV,3,1,10,78,45,196,36,66,26,113,25,82,21,288,27,79,52,291,31,1*71,1621578780435
$GLGSV,3,2,10,81,37,344,37,67,08,163,28,77,01,165,,80,07,329,,1*71,1621578780436
$GLGSV,3,3,10,65,14,050,,88,16,039,,1*77,1621578780436
$GAGSV,2,1,08,01,42,313,39,07,14,132,27,13,35,028,36,21,74,206,33,7*7C,1621578780436
$GAGSV,2,2,08,26,54,307,32,27,26,154,27,08,09,082,,33,20,258,,7*79,1621578780439
$PQGSV,1,1,03,193,33,123,25,194,00,000,31,195,56,046,37,0*7A,1621578780440
$GBGSV,4,1,16,01,47,122,27,02,46,234,25,03,63,188,25,04,33,108,25,0*7B,1621578780440
$GBGSV,4,2,16,05,23,254,35,07,74,120,28,08,73,310,30,10,74,327,36,0*76,1621578780441
$GBGSV,4,3,16,11,43,327,30,12,35,037,36,13,60,253,37,14,15,178,27,0*7F,1621578780441
$GBGSV,4,4,16,21,36,094,30,23,18,307,23,24,29,184,34,25,45,257,40,0*70,1621578780441
$GNGSA,A,3,02,03,06,14,17,19,30,,,,,,1.0,0.7,0.8,1*30,1621578780444
$GNGSA,A,3,67,78,79,81,,,,,,,,,1.0,0.7,0.8,2*35,1621578780444
$GNGSA,A,2,13,,,,,,,,,,,,1.0,0.7,0.8,3*3E,1621578780444
$GNGSA,A,3,07,08,10,11,12,13,21,24,25,,,,1.0,0.7,0.8,5*36,1621578780445
$GNVTG,,T,,M,0.0,N,0.0,K,A*3D,1621578780445
$GNGGA,062849.00,2218.094133,N,11411.418628,E,1,12,0.7,11.9,M,-1.2,M,,*50,1621578780445
$GNRMC,062849.00,A,2218.094133,N,11411.418628,E,0.0,,210521,2.2,W,A,V*69,1621578780445
$GPGSV,4,1,13,02,14,247,32,03,37,057,33,04,01,109,24,06,44,262,42,1*6C,1621578781424
$GPGSV,4,2,13,09,05,140,28,14,83,146,32,17,47,357,31,19,35,324,41,1*67,1621578781425
$GPGSV,4,3,13,28,00,000,39,30,21,199,39,01,11,040,,07,00,000,,1*68,1621578781426
$GPGSV,4,4,13,22,13,042,,1*52,1621578781426
$GLGSV,3,1,10,78,45,196,38,66,26,113,26,82,21,288,27,79,52,291,34,1*79,1621578781426
$GLGSV,3,2,10,81,37,344,38,67,08,163,30,77,01,165,,80,07,329,,1*77,1621578781426
$GLGSV,3,3,10,65,14,050,,88,16,039,,1*77,1621578781427
$GAGSV,2,1,08,01,42,313,38,07,14,132,27,13,35,028,37,21,74,206,31,7*7E,1621578781427
$GAGSV,2,2,08,26,54,307,32,27,26,154,27,08,09,082,,33,20,258,,7*79,1621578781427
$PQGSV,1,1,03,193,33,123,23,194,00,000,33,195,56,046,37,0*7E,1621578781427
$GBGSV,4,1,16,01,47,122,27,02,46,234,25,03,63,188,25,04,33,108,25,0*7B,1621578781428
$GBGSV,4,2,16,05,23,254,35,07,74,120,30,08,73,310,31,10,74,327,37,0*7F,1621578781428
$GBGSV,4,3,16,11,43,327,33,12,35,037,35,13,60,253,37,14,15,178,29,0*71,1621578781428
$GBGSV,4,4,16,21,36,094,32,23,18,307,29,24,29,184,36,25,45,257,39,0*74,1621578781428
$GNGSA,A,3,02,03,06,14,17,19,30,,,,,,0.9,0.6,0.7,1*36,1621578781430
$GNGSA,A,3,67,78,79,81,,,,,,,,,0.9,0.6,0.7,2*33,1621578781432
$GNGSA,A,2,13,,,,,,,,,,,,0.9,0.6,0.7,3*38,1621578781434
$GNGSA,A,3,07,08,10,11,12,13,21,23,24,25,,,0.9,0.6,0.7,5*31,1621578781435
$GNVTG,,T,,M,0.0,N,0.0,K,A*3D,1621578781438
$GNGGA,062850.00,2218.094134,N,11411.418628,E,1,12,0.6,11.9,M,-1.2,M,,*5E,1621578781440
$GNRMC,062850.00,A,2218.094134,N,11411.418628,E,0.0,,210521,2.2,W,A,V*66,1621578781440
$GPGSV,4,1,13,02,14,247,37,03,37,057,34,04,01,109,27,06,44,262,43,1*6C,1621578782452
$GPGSV,4,2,13,09,05,140,31,14,83,146,31,17,47,357,28,19,35,324,42,1*67,1621578782453
$GPGSV,4,3,13,28,00,000,41,30,21,199,39,01,11,040,,07,00,000,,1*67,1621578782454
$GPGSV,4,4,13,22,13,042,,1*52,1621578782454
$GLGSV,3,1,10,78,45,196,42,66,26,113,24,82,21,288,27,80,07,329,16,1*72,1621578782454
$GLGSV,3,2,10,79,52,291,34,81,37,344,38,67,08,163,26,77,01,165,,1*73,1621578782454
$GLGSV,3,3,10,65,14,050,,88,16,039,,1*77,1621578782455
$GAGSV,2,1,08,01,42,313,37,07,14,132,27,08,09,082,25,13,35,028,39,7*75,1621578782455
$GAGSV,2,2,08,21,74,206,31,26,54,307,32,27,26,154,25,33,20,258,,7*76,1621578782455
$PQGSV,1,1,03,193,33,123,32,194,00,000,31,195,56,046,34,0*7F,1621578782455
$GBGSV,4,1,16,01,47,122,29,02,46,234,26,03,63,188,25,04,33,108,25,0*76,1621578782456
$GBGSV,4,2,16,05,23,254,36,07,74,120,32,08,73,310,34,10,74,327,39,0*75,1621578782456
$GBGSV,4,3,16,11,43,327,31,12,35,037,33,13,60,253,37,14,15,178,32,0*7F,1621578782456
$GBGSV,4,4,16,21,36,094,31,23,18,307,34,24,29,184,36,25,45,257,42,0*77,1621578782457
$GNGSA,A,3,02,03,06,14,17,19,30,,,,,,0.9,0.6,0.7,1*36,1621578782459
$GNGSA,A,3,67,78,79,81,,,,,,,,,0.9,0.6,0.7,2*33,1621578782459
$GNGSA,A,2,13,,,,,,,,,,,,0.9,0.6,0.7,3*38,1621578782459
$GNGSA,A,3,02,07,08,10,11,12,13,21,23,24,25,,0.9,0.6,0.7,5*33,1621578782459
$GNVTG,304.1,T,304.1,M,1.6,N,3.0,K,A*39,1621578782460
$GNGGA,062851.00,2218.094180,N,11411.418256,E,1,12,0.6,12.2,M,-1.2,M,,*55,1621578782460
$GNRMC,062851.00,A,2218.094180,N,11411.418256,E,1.6,304.1,210521,2.2,W,A,V*4A,1621578782460
$GPGSV,4,1,13,02,14,247,39,03,37,057,34,04,01,109,21,06,44,262,39,1*69,1621578783450
$GPGSV,4,2,13,09,05,140,26,14,83,146,35,17,47,357,35,19,35,324,39,1*65,1621578783458
$GPGSV,4,3,13,28,00,000,41,30,21,199,42,01,11,040,,07,00,000,,1*6B,1621578783459
$GPGSV,4,4,13,22,13,042,,1*52,1621578783459
$GLGSV,3,1,10,78,45,196,39,66,26,113,24,82,21,288,27,80,07,329,16,1*7E,1621578783460
$GLGSV,3,2,10,79,52,291,40,81,37,344,39,67,08,163,28,77,01,165,,1*7F,1621578783460
$GLGSV,3,3,10,65,14,050,,88,16,039,,1*77,1621578783460
$GAGSV,2,1,08,01,42,313,36,07,14,132,31,08,09,082,26,13,35,028,36,7*7F,1621578783461
$GAGSV,2,2,08,21,74,206,31,26,54,307,34,27,26,154,35,33,20,258,,7*71,1621578783461
$PQGSV,1,1,03,193,33,123,32,194,00,000,33,195,56,046,32,0*7B,1621578783462
$GBGSV,4,1,16,01,47,122,29,02,46,234,34,03,63,188,26,04,33,108,23,0*70,1621578783462
$GBGSV,4,2,16,05,23,254,35,07,74,120,32,08,73,310,37,10,74,327,38,0*74,1621578783464
$GBGSV,4,3,16,11,43,327,34,12,35,037,30,13,60,253,38,14,15,178,34,0*70,1621578783466
$GBGSV,4,4,16,21,36,094,24,23,18,307,38,24,29,184,39,25,45,257,42,0*70,1621578783466
$GNGSA,A,3,02,03,06,14,17,19,30,,,,,,0.9,0.6,0.7,1*36,1621578783468
$GNGSA,A,3,67,78,79,81,,,,,,,,,0.9,0.6,0.7,2*33,1621578783468
$GNGSA,A,2,13,,,,,,,,,,,,0.9,0.6,0.7,3*38,1621578783468
$GNGSA,A,3,02,07,08,10,11,12,13,21,23,24,25,,0.9,0.6,0.7,5*33,1621578783469
$GNVTG,266.9,T,266.9,M,2.0,N,3.7,K,A*3B,1621578783469
$GNGGA,062852.00,2218.094206,N,11411.417627,E,1,12,0.6,12.4,M,-1.2,M,,*50,1621578783469
$GNRMC,062852.00,A,2218.094206,N,11411.417627,E,2.0,266.9,210521,2.2,W,A,V*41,1621578783477
$GPGSV,4,1,13,02,14,247,37,03,37,057,32,04,01,109,21,06,44,262,39,1*61,1621578784435
$GPGSV,4,2,13,09,05,140,25,14,83,146,36,17,47,357,35,19,35,324,37,1*6B,1621578784439
$GPGSV,4,3,13,28,00,000,39,30,21,199,42,01,11,040,,07,00,000,,1*64,1621578784439
$GPGSV,4,4,13,22,13,042,,1*52,1621578784439
$GLGSV,3,1,10,78,45,196,38,66,26,113,24,82,21,288,27,80,07,329,16,1*7F,1621578784440
$GLGSV,3,2,10,79,52,291,40,81,37,344,39,67,08,163,27,77,00,000,,1*73,1621578784443
$GLGSV,3,3,10,65,14,050,,88,16,039,,1*77,1621578784448
$GAGSV,2,1,08,01,42,313,35,07,14,132,36,08,09,082,26,13,35,028,33,7*7E,1621578784448
$GAGSV,2,2,08,21,74,206,28,26,54,307,34,27,26,154,32,33,20,258,,7*7E,1621578784449
$PQGSV,1,1,03,193,33,123,33,194,00,000,32,195,56,046,32,0*7B,1621578784449
$GBGSV,4,1,16,01,47,122,29,02,46,234,34,03,63,188,33,04,33,108,23,0*74,1621578784449
$GBGSV,4,2,16,05,23,254,34,07,74,120,32,08,73,310,37,10,74,327,37,0*7A,1621578784449
$GBGSV,4,3,16,11,43,327,31,12,35,037,30,13,60,253,37,14,15,178,33,0*7D,1621578784450
$GBGSV,4,4,16,21,36,094,23,23,18,307,36,24,29,184,39,25,45,257,40,0*7B,1621578784450
$GNGSA,A,3,02,03,06,14,17,19,30,,,,,,0.9,0.6,0.7,1*36,1621578784451
$GNGSA,A,3,67,78,79,81,,,,,,,,,0.9,0.6,0.7,2*33,1621578784452
$GNGSA,A,2,13,,,,,,,,,,,,0.9,0.6,0.7,3*38,1621578784452
$GNGSA,A,3,02,07,08,10,11,12,13,21,23,24,25,,0.9,0.6,0.7,5*33,1621578784452
$GNVTG,267.8,T,267.8,M,2.6,N,4.8,K,A*35,1621578784452
$GNGGA,062853.00,2218.094272,N,11411.416866,E,1,12,0.6,12.4,M,-1.2,M,,*58,1621578784453
$GNRMC,062853.00,A,2218.094272,N,11411.416866,E,2.6,267.8,210521,2.2,W,A,V*4F,1621578784453
$GPGSV,4,1,13,02,14,247,35,03,37,057,31,06,44,262,42,09,05,140,23,1*6A,1621578785427
$GPGSV,4,2,13,14,83,146,33,17,47,357,31,19,35,324,41,28,00,000,40,1*6B,1621578785431
$GPGSV,4,3,13,30,21,199,38,01,11,040,,04,01,109,,07,00,000,,1*64,1621578785433
$GPGSV,4,4,13,22,13,042,,1*52,1621578785434
$GLGSV,3,1,10,78,45,196,40,66,26,113,24,82,21,288,17,80,07,329,16,1*73,1621578785434
$GLGSV,3,2,10,79,52,291,34,81,37,344,37,67,08,163,26,77,00,000,,1*7F,1621578785435
$GLGSV,3,3,10,65,14,050,,88,16,039,,1*77,1621578785435
$GAGSV,2,1,08,01,42,313,38,07,14,132,32,08,09,082,27,13,35,028,37,7*72,1621578785436
$GAGSV,2,2,08,21,74,206,28,26,54,307,32,27,26,154,32,33,20,258,,7*78,1621578785436
$PQGSV,1,1,03,193,33,123,31,194,00,000,32,195,56,046,34,0*7F,1621578785436
$GBGSV,4,1,16,01,47,122,25,02,46,234,34,03,63,188,33,04,33,108,23,0*78,1621578785437
$GBGSV,4,2,16,05,23,254,34,07,74,120,30,08,73,310,34,10,74,327,37,0*7B,1621578785437
$GBGSV,4,3,16,11,43,327,32,12,35,037,32,13,60,253,36,14,15,178,32,0*7C,1621578785438
$GBGSV,4,4,16,21,36,094,31,23,18,307,35,24,29,184,36,25,45,257,42,0*76,1621578785443
$GNGSA,A,3,02,03,06,14,17,19,30,,,,,,0.9,0.6,0.7,1*36,1621578785446
$GNGSA,A,3,67,78,79,81,,,,,,,,,0.9,0.6,0.7,2*33,1621578785447
$GNGSA,A,2,13,,,,,,,,,,,,0.9,0.6,0.7,3*38,1621578785447
$GNGSA,A,3,02,07,08,10,11,12,13,21,23,24,25,,0.9,0.6,0.7,5*33,1621578785447
$GNVTG,314.6,T,314.6,M,3.1,N,5.8,K,A*32,1621578785447
$GNGGA,062854.00,2218.094600,N,11411.416019,E,1,12,0.6,12.7,M,-1.2,M,,*5D,1621578785447
$GNRMC,062854.00,A,2218.094600,N,11411.416019,E,3.1,314.6,210521,2.2,W,A,V*44,1621578785447
$GPGSV,4,1,13,02,14,247,37,03,37,057,34,06,44,262,40,09,05,140,23,1*6F,1621578786431
$GPGSV,4,2,13,14,83,146,32,17,47,357,37,19,35,324,40,28,00,000,35,1*6F,1621578786432
$GPGSV,4,3,13,30,21,199,36,01,11,040,,04,01,109,,07,00,000,,1*6A,1621578786432
$GPGSV,4,4,13,22,13,042,,1*52,1621578786432
$GLGSV,3,1,10,78,45,196,35,66,26,113,24,82,21,288,24,80,07,329,16,1*71,1621578786432
$GLGSV,3,2,10,79,52,291,38,81,37,344,42,67,08,163,29,77,00,000,,1*7E,1621578786432
$GLGSV,3,3,10,65,14,050,,88,16,039,,1*77,1621578786432
$GAGSV,2,1,08,01,42,313,35,07,14,132,32,08,09,082,27,13,35,028,35,7*7D,1621578786432
$GAGSV,2,2,08,21,74,206,31,26,54,307,32,27,26,154,32,33,20,258,,7*70,1621578786433
$PQGSV,1,1,03,193,33,123,26,194,00,000,30,195,56,046,38,0*77,1621578786433
$GBGSV,4,1,16,01,47,122,25,02,46,234,34,03,63,188,33,04,33,108,23,0*78,1621578786433
$GBGSV,4,2,16,05,23,254,32,07,74,120,25,08,73,310,27,10,74,327,32,0*7E,1621578786434
$GBGSV,4,3,16,11,43,327,36,12,35,037,34,13,60,253,36,14,15,178,29,0*74,1621578786434
$GBGSV,4,4,16,21,36,094,26,23,18,307,31,24,29,184,31,25,45,257,37,0*71,1621578786435
$GNGSA,A,3,02,03,06,14,17,19,30,,,,,,0.9,0.6,0.7,1*36,1621578786436
$GNGSA,A,3,67,78,79,81,,,,,,,,,0.9,0.6,0.7,2*33,1621578786437
$GNGSA,A,2,13,,,,,,,,,,,,0.9,0.6,0.7,3*38,1621578786438
$GNGSA,A,3,02,07,08,10,11,12,13,21,23,24,25,,0.9,0.6,0.7,5*33,1621578786468
$GNVTG,314.7,T,314.7,M,3.0,N,5.5,K,A*3E,1621578786468
$GNGGA,062855.00,2218.095203,N,11411.415304,E,1,12,0.6,13.1,M,-1.2,M,,*51,1621578786470
$GNRMC,062855.00,A,2218.095203,N,11411.415304,E,3.0,314.7,210521,2.2,W,A,V*4F,1621578786470
$GPGSV,4,1,13,02,14,247,38,03,37,057,36,04,01,109,25,06,44,262,36,1*61,1621578787433
$GPGSV,4,2,13,09,05,140,24,14,83,146,31,17,47,357,31,19,35,324,36,1*68,1621578787439
$GPGSV,4,3,13,28,00,000,31,30,21,199,35,01,11,040,,07,00,000,,1*6C,1621578787439
$GPGSV,4,4,13,22,13,042,,1*52,1621578787439
$GLGSV,3,1,10,78,45,196,34,66,26,113,20,82,21,288,29,80,07,329,20,1*7C,1621578787440
$GLGSV,3,2,10,79,52,291,43,81,37,344,42,67,08,163,28,77,00,000,,1*73,1621578787441
$GLGSV,3,3,10,65,14,050,,88,16,039,,1*77,1621578787441
$GAGSV,2,1,08,01,42,313,37,07,14,132,32,08,09,082,31,13,35,028,35,7*78,1621578787441
$GAGSV,2,2,08,21,74,206,35,26,54,307,30,27,26,154,32,33,20,258,,7*76,1621578787444
$PQGSV,1,1,03,193,33,123,32,194,00,000,31,195,56,046,38,0*73,1621578787448
$GBGSV,4,1,16,01,47,122,25,02,46,234,31,03,63,188,27,04,33,108,23,0*78,1621578787450
$GBGSV,4,2,16,05,23,254,37,07,74,120,24,08,73,310,22,10,74,327,29,0*75,1621578787451
$GBGSV,4,3,16,11,43,327,37,12,35,037,31,13,60,253,36,14,15,178,28,0*71,1621578787452
$GBGSV,4,4,16,21,36,094,33,23,18,307,35,24,29,184,27,25,45,257,30,0*71,1621578787452
$GNGSA,A,3,02,03,06,14,17,19,30,,,,,,0.9,0.6,0.7,1*36,1621578787456
$GNGSA,A,3,67,78,79,81,,,,,,,,,0.9,0.6,0.7,2*33,1621578787456
$GNGSA,A,2,13,,,,,,,,,,,,0.9,0.6,0.7,3*38,1621578787456
$GNGSA,A,3,02,07,08,10,11,12,13,21,23,24,25,,0.9,0.6,0.7,5*33,1621578787456
$GNVTG,314.7,T,314.7,M,3.1,N,5.8,K,A*32,1621578787457
$GNGGA,062856.00,2218.095992,N,11411.414756,E,1,12,0.6,13.0,M,-1.2,M,,*52,1621578787457
$GNRMC,062856.00,A,2218.095992,N,11411.414756,E,3.1,314.7,210521,2.2,W,A,V*4C,1621578787457
$GPGSV,4,1,13,02,14,247,40,03,37,057,34,04,01,109,24,06,44,262,38,1*63,1621578788426
$GPGSV,4,2,13,09,05,140,24,14,83,146,28,17,47,357,33,19,35,324,37,1*63,1621578788427
$GPGSV,4,3,13,28,00,000,32,30,21,199,36,01,11,040,,07,00,000,,1*6C,1621578788427
$GPGSV,4,4,13,22,13,042,,1*52,1621578788427
$GLGSV,3,1,10,78,45,196,34,66,26,113,20,82,21,288,30,80,07,329,20,1*74,1621578788427
$GLGSV,3,2,10,79,52,291,44,81,37,344,42,67,08,163,27,77,00,000,,1*7B,1621578788428
$GLGSV,3,3,10,65,14,050,,88,16,039,,1*77,1621578788429
$GAGSV,2,1,08,01,42,313,39,07,14,132,25,08,09,082,33,13,35,028,35,7*72,1621578788431
$GAGSV,2,2,08,21,74,206,36,26,54,307,33,27,26,154,29,33,20,258,,7*7C,1621578788431
$PQGSV,1,1,03,193,33,123,30,194,00,000,35,195,56,046,40,0*7A,1621578788432
$GBGSV,4,1,16,01,47,122,27,02,46,234,34,03,63,188,27,04,33,108,23,0*7F,1621578788434
$GBGSV,4,2,16,05,23,254,34,07,74,120,25,08,73,310,22,10,74,327,28,0*76,1621578788435
$GBGSV,4,3,16,11,43,327,35,12,35,037,32,13,60,253,36,14,15,178,33,0*7A,1621578788435
$GBGSV,4,4,16,21,36,094,32,23,18,307,35,24,29,184,27,25,45,257,31,0*71,1621578788435
$GNGSA,A,3,02,03,06,14,17,19,30,,,,,,0.9,0.6,0.7,1*36,1621578788439
$GNGSA,A,3,67,78,79,81,,,,,,,,,0.9,0.6,0.7,2*33,1621578788440
$GNGSA,A,2,13,,,,,,,,,,,,0.9,0.6,0.7,3*38,1621578788441
$GNGSA,A,3,02,07,08,10,11,12,13,21,23,24,25,,0.9,0.6,0.7,5*33,1621578788441
$GNVTG,326.1,T,326.1,M,3.8,N,7.0,K,A*31,1621578788442
$GNGGA,062857.00,2218.096953,N,11411.414199,E,1,12,0.6,13.1,M,-1.2,M,,*59,1621578788442
$GNRMC,062857.00,A,2218.096953,N,11411.414199,E,3.8,326.1,210521,2.2,W,A,V*48,1621578788442
$GPGSV,4,1,13,02,14,247,38,03,37,057,32,04,01,109,22,06,44,262,37,1*63,1621578789451
$GPGSV,4,2,13,09,05,140,24,14,83,146,30,17,47,357,34,19,35,324,38,1*62,1621578789453
$GPGSV,4,3,13,28,00,000,32,30,21,199,36,01,11,040,,07,00,000,,1*6C,1621578789458
$GPGSV,4,4,13,22,13,042,,1*52,1621578789459
$GLGSV,3,1,10,78,45,196,36,66,26,113,20,82,21,288,31,80,07,329,20,1*77,1621578789459
$GLGSV,3,2,10,79,52,291,44,81,37,344,40,67,08,163,24,77,00,000,,1*7A,1621578789459
$GLGSV,3,3,10,65,14,050,,88,16,039,,1*77,1621578789459
$GAGSV,2,1,08,01,42,313,39,07,14,132,25,08,09,082,34,13,35,028,36,7*76,1621578789460
$GAGSV,2,2,08,21,74,206,35,26,54,307,36,27,26,154,31,33,20,258,,7*73,1621578789460
$PQGSV,1,1,03,193,33,123,29,194,00,000,36,195,56,046,40,0*71,1621578789460
$GBGSV,4,1,16,01,47,122,27,02,46,234,33,03,63,188,27,04,33,108,23,0*78,1621578789461
$GBGSV,4,2,16,05,23,254,34,07,74,120,24,08,73,310,22,10,74,327,26,0*79,1621578789461
$GBGSV,4,3,16,11,43,327,34,12,35,037,33,13,60,253,36,14,15,178,31,0*78,1621578789461
$GBGSV,4,4,16,21,36,094,30,23,18,307,37,24,29,184,27,25,45,257,35,0*75,1621578789461
$GNGSA,A,3,02,03,06,14,17,19,30,,,,,,0.9,0.6,0.7,1*36,1621578789475
$GNGSA,A,3,67,78,79,81,,,,,,,,,0.9,0.6,0.7,2*33,1621578789477
$GNGSA,A,2,13,,,,,,,,,,,,0.9,0.6,0.7,3*38,1621578789478
$GNGSA,A,3,02,07,08,10,11,12,13,21,23,24,25,,0.9,0.6,0.7,5*33,1621578789478
$GNVTG,320.9,T,320.9,M,4.4,N,8.1,K,A*34,1621578789478
$GNGGA,062858.00,2218.098050,N,11411.413516,E,1,12,0.6,13.4,M,-1.2,M,,*53,1621578789479
$GNRMC,062858.00,A,2218.098050,N,11411.413516,E,4.4,320.9,210521,2.2,W,A,V*42,1621578789479
$GPGSV,4,1,13,02,14,247,38,03,37,057,29,04,01,109,23,06,44,262,35,1*6A,1621578790439
$GPGSV,4,2,13,09,05,140,24,14,83,146,31,17,47,357,36,19,35,324,38,1*61,1621578790441
$GPGSV,4,3,13,28,00,000,32,30,21,199,34,01,11,040,,07,00,000,,1*6E,1621578790444
$GPGSV,4,4,13,22,13,042,,1*52,1621578790444
$GLGSV,3,1,10,78,45,196,37,66,26,113,20,82,21,288,29,80,07,329,20,1*7F,1621578790444
$GLGSV,3,2,10,79,52,291,43,81,37,344,39,67,08,163,27,77,00,000,,1*70,1621578790445
$GLGSV,3,3,10,65,14,050,,88,16,039,,1*77,1621578790446
$GAGSV,2,1,08,01,42,313,38,07,14,132,25,08,09,082,35,13,35,028,37,7*77,1621578790447
$GAGSV,2,2,08,21,74,206,35,26,54,307,36,27,26,154,31,33,20,258,,7*73,1621578790447
$PQGSV,1,1,03,193,33,123,28,194,00,000,37,195,56,046,41,0*70,1621578790447
$GBGSV,4,1,16,01,47,122,27,02,46,234,34,03,63,188,30,04,33,108,23,0*79,1621578790447
$GBGSV,4,2,16,05,23,254,34,07,74,120,23,08,73,310,20,10,74,327,26,0*7C,1621578790448
$GBGSV,4,3,16,11,43,327,36,12,35,037,32,13,60,253,36,14,15,178,29,0*72,1621578790448
$GBGSV,4,4,16,21,36,094,33,23,18,307,37,24,29,184,27,25,45,257,37,0*74,1621578790448
$GNGSA,A,3,02,03,06,14,17,19,30,,,,,,0.9,0.6,0.7,1*36,1621578790451
$GNGSA,A,3,67,78,79,81,,,,,,,,,0.9,0.6,0.7,2*33,1621578790452
$GNGSA,A,2,13,,,,,,,,,,,,0.9,0.6,0.7,3*38,1621578790453
$GNGSA,A,3,02,07,08,10,11,12,13,21,23,24,25,,0.9,0.6,0.7,5*33,1621578790453
$GNVTG,335.0,T,335.0,M,5.0,N,9.2,K,A*33,1621578790457
$GNGGA,062859.00,2218.099320,N,11411.412787,E,1,12,0.6,12.8,M,-1.2,M,,*51,1621578790458
$GNRMC,062859.00,A,2218.099320,N,11411.412787,E,5.0,335.0,210521,2.2,W,A,V*45,1621578790465
$GPGSV,4,1,13,02,14,247,39,03,37,057,25,04,01,109,22,06,44,262,33,1*60,1621578791457
$GPGSV,4,2,13,09,05,140,19,14,83,146,31,17,47,357,38,19,35,324,39,1*60,1621578791459
$GPGSV,4,3,13,28,00,000,30,30,21,199,33,01,11,040,,07,00,000,,1*6B,1621578791461
$GPGSV,4,4,13,22,13,042,,1*52,1621578791462
$GLGSV,3,1,10,78,45,196,35,66,26,113,20,82,21,288,26,80,07,329,20,1*72,1621578791463
$GLGSV,3,2,10,79,52,291,41,81,37,344,36,67,08,163,26,77,00,000,,1*7C,1621578791464
$GLGSV,3,3,10,65,14,050,,88,16,039,,1*77,1621578791465
$GAGSV,2,1,08,01,42,313,37,07,14,132,26,08,09,082,36,13,35,028,36,7*79,1621578791465
$GAGSV,2,2,08,21,74,206,35,26,54,307,38,27,26,154,31,33,20,258,,7*7D,1621578791466
$PQGSV,1,1,03,193,33,123,26,194,00,000,38,195,56,046,41,0*71,1621578791466
$GBGSV,4,1,16,01,47,122,29,02,46,234,34,03,63,188,30,04,33,108,23,0*77,1621578791466
$GBGSV,4,2,16,05,23,254,28,07,74,120,23,08,73,310,24,10,74,327,26,0*75,1621578791466
$GBGSV,4,3,16,11,43,327,36,12,35,037,34,13,60,253,36,14,15,178,29,0*74,1621578791466
$GBGSV,4,4,16,21,36,094,32,23,18,307,37,24,29,184,29,25,45,257,39,0*75,1621578791467
$GNGSA,A,3,02,03,06,14,17,19,30,,,,,,0.9,0.6,0.7,1*36,1621578791468
$GNGSA,A,3,67,78,79,81,,,,,,,,,0.9,0.6,0.7,2*33,1621578791470
$GNGSA,A,2,13,,,,,,,,,,,,0.9,0.6,0.7,3*38,1621578791471
$GNGSA,A,3,02,07,08,10,11,12,13,21,23,24,25,,0.9,0.6,0.7,5*33,1621578791473
$GNVTG,331.5,T,331.5,M,6.5,N,12.1,K,A*0C,1621578791473
$GNGGA,062900.00,2218.100954,N,11411.411987,E,1,12,0.6,12.8,M,-1.2,M,,*59,1621578791473
$GNRMC,062900.00,A,2218.100954,N,11411.411987,E,6.5,331.5,210521,2.2,W,A,V*4A,1621578791473
$GPGSV,4,1,13,02,14,247,38,03,37,057,24,04,01,109,22,06,44,262,30,1*63,1621578792441
$GPGSV,4,2,13,09,05,140,23,14,83,146,29,17,47,357,38,19,35,324,40,1*6E,1621578792442
$GPGSV,4,3,13,28,00,000,26,30,21,199,29,01,11,040,,07,00,000,,1*67,1621578792445
$GPGSV,4,4,13,22,13,042,,1*52,1621578792447
$GLGSV,3,1,10,78,45,196,32,66,26,113,20,82,21,288,26,80,07,329,20,1*75,1621578792448
$GLGSV,3,2,10,79,52,291,40,81,37,344,34,67,08,163,27,77,00,000,,1*7E,1621578792448
$GLGSV,3,3,10,65,14,050,,88,16,039,,1*77,1621578792450
$GAGSV,2,1,08,01,42,313,36,07,14,132,26,08,09,082,32,13,35,028,33,7*79,1621578792452
$GAGSV,2,2,08,21,74,206,34,26,54,307,38,27,26,154,27,33,20,258,,7*7B,1621578792452
$PQGSV,1,1,03,193,33,123,25,194,00,000,37,195,56,046,40,0*7C,1621578792453
$GBGSV,4,1,16,01,47,122,29,02,46,234,34,03,63,188,30,04,33,108,23,0*77,1621578792455
$GBGSV,4,2,16,05,23,254,28,07,74,120,20,08,73,310,24,10,74,327,23,0*73,1621578792455
$GBGSV,4,3,16,11,43,327,35,12,35,037,34,13,60,253,35,14,15,178,31,0*7D,1621578792456
$GBGSV,4,4,16,21,36,094,29,23,18,307,35,24,29,184,29,25,45,257,38,0*7C,1621578792457
$GNGSA,A,3,02,03,06,14,17,19,30,,,,,,0.9,0.6,0.7,1*36,1621578792469
$GNGSA,A,3,67,78,79,81,,,,,,,,,0.9,0.6,0.7,2*33,1621578792471
$GNGSA,A,2,13,,,,,,,,,,,,0.9,0.6,0.7,3*38,1621578792472
$GNGSA,A,3,02,07,08,10,11,12,13,21,23,24,25,,0.9,0.6,0.7,5*33,1621578792472
$GNVTG,336.0,T,336.0,M,7.9,N,14.7,K,A*01,1621578792472
$GNGGA,062901.00,2218.103072,N,11411.411117,E,1,12,0.6,12.4,M,-1.2,M,,*5B,1621578792472
$GNRMC,062901.00,A,2218.103072,N,11411.411117,E,7.9,336.0,210521,2.2,W,A,V*4B,1621578792472
$GPGSV,4,1,13,02,14,247,31,03,37,057,21,06,44,262,31,09,05,140,24,1*6C,1621578793426
$GPGSV,4,2,13,14,83,146,29,17,47,357,39,19,35,324,40,28,00,000,26,1*69,1621578793427
$GPGSV,4,3,13,30,21,199,30,01,11,040,,04,01,109,,07,00,000,,1*6C,1621578793427
$GPGSV,4,4,13,22,13,042,,1*52,1621578793428
$GLGSV,3,1,10,78,45,196,31,66,26,113,25,82,21,288,26,80,07,329,21,1*72,1621578793428
$GLGSV,3,2,10,79,52,291,39,81,37,344,32,67,08,163,25,77,00,000,,1*74,1621578793428
$GLGSV,3,3,10,65,14,050,,88,16,039,,1*77,1621578793428
$GAGSV,2,1,08,01,42,313,36,07,14,132,30,08,09,082,32,13,35,028,33,7*7E,1621578793428
$GAGSV,2,2,08,21,74,206,34,26,54,307,38,27,26,154,27,33,20,258,,7*7B,1621578793430
$PQGSV,1,1,03,193,33,123,26,194,00,000,37,195,56,046,41,0*7E,1621578793432
$GBGSV,4,1,16,01,47,122,29,02,46,234,32,03,63,188,28,04,33,108,23,0*78,1621578793434
$GBGSV,4,2,16,05,23,254,28,07,74,120,20,08,73,310,24,10,74,327,24,0*74,1621578793435
$GBGSV,4,3,16,11,43,327,35,12,35,037,30,13,60,253,34,14,15,178,31,0*78,1621578793435
$GBGSV,4,4,16,21,36,094,26,23,18,307,34,24,29,184,30,25,45,257,38,0*7A,1621578793436
$GNGSA,A,3,02,03,06,14,17,19,30,,,,,,0.9,0.6,0.7,1*36,1621578793444
$GNGSA,A,3,67,78,79,81,,,,,,,,,0.9,0.6,0.7,2*33,1621578793444
$GNGSA,A,2,13,,,,,,,,,,,,0.9,0.6,0.7,3*38,1621578793444
$GNGSA,A,3,02,07,08,10,11,12,13,21,23,24,25,,0.9,0.6,0.7,5*33,1621578793444
$GNVTG,336.8,T,336.8,M,8.6,N,15.9,K,A*0E,1621578793445
$GNGGA,062902.00,2218.105455,N,11411.410195,E,1,12,0.6,12.3,M,-1.2,M,,*53,1621578793445
$GNRMC,062902.00,A,2218.105455,N,11411.410195,E,8.6,336.8,210521,2.2,W,A,V*4C,1621578793445
$GPGSV,4,1,13,02,14,247,24,03,37,057,28,06,44,262,29,09,05,140,24,1*68,1621578794439
$GPGSV,4,2,13,14,83,146,30,17,47,357,38,19,35,324,41,28,00,000,28,1*6F,1621578794443
$GPGSV,4,3,13,30,21,199,31,01,11,040,,04,01,109,,07,00,000,,1*6D,1621578794444
$GPGSV,4,4,13,22,13,042,,1*52,1621578794444
$GLGSV,3,1,10,78,45,196,33,66,26,113,26,82,21,288,24,80,07,329,21,1*71,1621578794444
$GLGSV,3,2,10,79,52,291,40,81,37,344,34,67,08,163,27,77,00,000,,1*7E,1621578794445
$GLGSV,3,3,10,65,14,050,,88,16,039,,1*77,1621578794445
$GAGSV,2,1,08,01,42,313,35,07,14,132,32,08,09,082,32,13,35,028,35,7*79,1621578794445
$GAGSV,2,2,08,21,74,206,34,26,54,307,38,27,26,154,27,33,20,258,,7*7B,1621578794446
$PQGSV,1,1,03,193,33,123,25,194,00,000,37,195,56,046,40,0*7C,1621578794446
$GBGSV,4,1,16,01,47,122,29,02,46,234,33,03,63,188,28,04,33,108,23,0*79,1621578794447
$GBGSV,4,2,16,05,23,254,28,07,74,120,21,08,73,310,24,10,74,327,25,0*74,1621578794447
$GBGSV,4,3,16,11,43,327,35,12,35,037,30,13,60,253,35,14,15,178,32,0*7A,1621578794447
$GBGSV,4,4,16,21,36,094,29,23,18,307,34,24,29,184,30,25,45,257,38,0*75,1621578794447
$GNGSA,A,3,02,03,06,14,17,19,30,,,,,,0.9,0.6,0.7,1*36,1621578794450
$GNGSA,A,3,67,78,79,81,,,,,,,,,0.9,0.6,0.7,2*33,1621578794450
$GNGSA,A,2,13,,,,,,,,,,,,0.9,0.6,0.7,3*38,1621578794451
$GNGSA,A,3,02,07,08,10,11,12,13,21,23,24,25,,0.9,0.6,0.7,5*33,1621578794451
$GNVTG,337.2,T,337.2,M,9.5,N,17.6,K,A*01,1621578794451
$GNGGA,062903.00,2218.108035,N,11411.409163,E,1,12,0.6,12.1,M,-1.2,M,,*5E,1621578794451
$GNRMC,062903.00,A,2218.108035,N,11411.409163,E,9.5,337.2,210521,2.2,W,A,V*4A,1621578794451
$GPGSV,4,1,13,02,14,247,24,03,37,057,27,06,44,262,30,09,05,140,22,1*69,1621578795425
$GPGSV,4,2,13,14,83,146,27,17,47,357,39,19,35,324,40,28,00,000,26,1*67,1621578795425
$GPGSV,4,3,13,30,21,199,31,01,11,040,,04,01,109,,07,00,000,,1*6D,1621578795426
$GPGSV,4,4,13,22,13,042,,1*52,1621578795426
$GLGSV,3,1,10,78,45,196,34,66,26,113,26,82,21,288,25,80,07,329,21,1*77,1621578795426
$GLGSV,3,2,10,79,52,291,40,81,37,344,35,67,08,163,31,77,00,000,,1*78,1621578795426
$GLGSV,3,3,10,65,14,050,,88,16,039,,1*77,1621578795427
$GAGSV,2,1,08,01,42,313,35,07,14,132,32,08,09,082,32,13,35,028,33,7*7F,1621578795428
$GAGSV,2,2,08,21,74,206,34,26,54,307,38,27,26,154,27,33,20,258,,7*7B,1621578795431
$PQGSV,1,1,03,193,33,123,26,194,00,000,38,195,56,046,40,0*70,1621578795431
$GBGSV,4,1,16,01,47,122,29,02,46,234,33,03,63,188,28,04,33,108,23,0*79,1621578795432
$GBGSV,4,2,16,05,23,254,28,07,74,120,23,08,73,310,22,10,74,327,26,0*73,1621578795433
$GBGSV,4,3,16,11,43,327,36,12,35,037,36,13,60,253,36,14,15,178,31,0*7F,1621578795433
$GBGSV,4,4,16,21,36,094,30,23,18,307,35,24,29,184,31,25,45,257,38,0*7D,1621578795433
$GNGSA,A,3,02,03,06,14,17,19,30,,,,,,0.9,0.6,0.7,1*36,1621578795448
$GNGSA,A,3,67,78,79,81,,,,,,,,,0.9,0.6,0.7,2*33,1621578795448
$GNGSA,A,2,13,,,,,,,,,,,,0.9,0.6,0.7,3*38,1621578795449
$GNGSA,A,3,02,07,08,10,11,12,13,21,23,24,25,,0.9,0.6,0.7,5*33,1621578795449
$GNVTG,336.1,T,336.1,M,11.0,N,20.3,K,A*3C,1621578795449
$GNGGA,062904.00,2218.112140,N,11411.407895,E,1,12,0.6,11.7,M,-1.2,M,,*5A,1621578795449
$GNRMC,062904.00,A,2218.112140,N,11411.407895,E,11.0,336.1,210521,2.2,W,A,V*75,1621578795449
$GPGSV,4,1,13,02,14,247,23,03,37,057,33,06,44,262,30,09,05,140,23,1*6A,1621578796431
$GPGSV,4,2,13,14,83,146,28,17,47,357,38,19,35,324,40,28,00,000,29,1*66,1621578796431
$GPGSV,4,3,13,30,21,199,31,01,11,040,,04,01,109,,07,00,000,,1*6D,1621578796431
$GPGSV,4,4,13,22,13,042,,1*52,1621578796432
$GLGSV,3,1,10,78,45,196,34,66,26,113,26,82,21,288,28,80,07,329,21,1*7A,1621578796432
$GLGSV,3,2,10,79,52,291,40,81,37,344,38,67,08,163,33,77,00,000,,1*77,1621578796432
$GLGSV,3,3,10,65,14,050,,88,16,039,,1*77,1621578796432
$GAGSV,2,1,08,01,42,313,36,07,14,132,32,08,09,082,32,13,35,028,33,7*7C,1621578796432
$GAGSV,2,2,08,21,74,206,34,26,54,307,36,27,26,154,27,33,20,258,,7*75,1621578796432
$PQGSV,1,1,03,193,33,123,24,194,00,000,37,195,56,046,40,0*7D,1621578796432
$GBGSV,4,1,16,01,47,122,29,02,46,234,33,03,63,188,28,04,33,108,23,0*79,1621578796433
$GBGSV,4,2,16,05,23,254,28,07,74,120,23,08,73,310,22,10,74,327,28,0*7D,1621578796434
$GBGSV,4,3,16,11,43,327,36,12,35,037,29,13,60,253,35,14,15,178,31,0*72,1621578796435
$GBGSV,4,4,16,21,36,094,30,23,18,307,35,24,29,184,29,25,45,257,38,0*74,1621578796435
$GNGSA,A,3,02,03,06,14,17,19,30,,,,,,0.9,0.6,0.7,1*36,1621578796438
$GNGSA,A,3,67,78,79,81,,,,,,,,,0.9,0.6,0.7,2*33,1621578796438
$GNGSA,A,2,13,,,,,,,,,,,,0.9,0.6,0.7,3*38,1621578796439
$GNGSA,A,3,02,07,08,10,11,12,13,21,23,24,25,,0.9,0.6,0.7,5*33,1621578796439
$GNVTG,335.2,T,335.2,M,11.9,N,22.0,K,A*34,1621578796440
$GNGGA,062905.00,2218.115286,N,11411.406285,E,1,12,0.6,11.8,M,-1.2,M,,*50,1621578796440
$GNRMC,062905.00,A,2218.115286,N,11411.406285,E,11.9,335.2,210521,2.2,W,A,V*79,1621578796440
$GPGSV,4,1,13,02,14,247,23,03,37,057,27,06,44,262,31,09,05,140,25,1*68,1621578797442
$GPGSV,4,2,13,14,83,146,29,17,47,357,38,19,35,324,38,28,00,000,30,1*60,1621578797446
$GPGSV,4,3,13,30,21,199,30,01,11,040,,04,01,109,,07,00,000,,1*6C,1621578797451
$GPGSV,4,4,13,22,13,042,,1*52,1621578797453
$GLGSV,3,1,10,78,45,196,33,66,26,113,26,82,21,288,26,80,07,329,21,1*73,1621578797455
$GLGSV,3,2,10,79,52,291,40,81,37,344,39,67,08,163,32,77,00,000,,1*77,1621578797455
$GLGSV,3,3,10,65,14,050,,88,16,039,,1*77,1621578797458
$GAGSV,2,1,08,01,42,313,36,07,14,132,32,08,09,082,32,13,35,028,33,7*7C,1621578797459
$GAGSV,2,2,08,21,74,206,33,26,54,307,37,27,26,154,27,33,20,258,,7*73,1621578797471
$PQGSV,1,1,03,193,33,123,29,194,00,000,37,195,56,046,40,0*70,1621578797471
$GBGSV,4,1,16,01,47,122,27,02,46,234,33,03,63,188,28,04,33,108,23,0*77,1621578797471
$GBGSV,4,2,16,05,23,254,28,07,74,120,23,08,73,310,22,10,74,327,28,0*7D,1621578797471
$GBGSV,4,3,16,11,43,327,36,12,35,037,29,13,60,253,36,14,15,178,31,0*71,1621578797472
$GBGSV,4,4,16,21,36,094,33,23,18,307,35,24,29,184,29,25,45,257,38,0*77,1621578797472
$GNGSA,A,3,02,03,06,14,17,19,30,,,,,,0.9,0.6,0.7,1*36,1621578797488
$GNGSA,A,3,67,78,79,81,,,,,,,,,0.9,0.6,0.7,2*33,1621578797490
$GNGSA,A,2,13,,,,,,,,,,,,0.9,0.6,0.7,3*38,1621578797490
$GNGSA,A,3,02,07,08,10,11,12,13,21,23,24,25,,0.9,0.6,0.7,5*33,1621578797490
$GNVTG,334.9,T,334.9,M,12.5,N,23.1,K,A*3B,1621578797490
$GNGGA,062906.00,2218.118012,N,11411.405039,E,1,12,0.6,11.1,M,-1.2,M,,*5E,1621578797490
$GNRMC,062906.00,A,2218.118012,N,11411.405039,E,12.5,334.9,210521,2.2,W,A,V*7B,1621578797491
$GPGSV,4,1,13,02,14,247,23,03,37,057,35,06,44,262,31,09,05,140,23,1*6D,1621578798446
$GPGSV,4,2,13,14,83,146,29,17,47,357,37,19,35,324,37,28,00,000,31,1*61,1621578798447
$GPGSV,4,3,13,30,21,199,32,01,11,040,,04,01,109,,07,00,000,,1*6E,1621578798448
$GPGSV,4,4,13,22,13,042,,1*52,1621578798448
$GLGSV,3,1,10,78,45,196,31,66,26,113,26,82,21,288,24,80,07,329,21,1*73,1621578798448
$GLGSV,3,2,10,79,52,291,39,81,37,344,40,67,08,163,29,77,00,000,,1*7D,1621578798448
$GLGSV,3,3,10,65,14,050,,88,16,039,,1*77,1621578798448
$GAGSV,2,1,08,01,42,313,37,07,14,132,33,08,09,082,32,13,35,028,33,7*7C,1621578798449
$GAGSV,2,2,08,21,74,206,33,26,54,307,37,27,26,154,28,33,20,258,,7*7C,1621578798449
$PQGSV,1,1,03,193,33,123,22,194,00,000,37,195,56,046,40,0*7B,1621578798449
$GBGSV,4,1,16,01,47,122,27,02,46,234,33,03,63,188,28,04,33,108,23,0*77,1621578798449
$GBGSV,4,2,16,05,23,254,28,07,74,120,23,08,73,310,24,10,74,327,29,0*7A,1621578798450
$GBGSV,4,3,16,11,43,327,35,12,35,037,29,13,60,253,37,14,15,178,31,0*73,1621578798450
$GBGSV,4,4,16,21,36,094,31,23,18,307,34,24,29,184,30,25,45,257,38,0*7C,1621578798450
$GNGSA,A,3,02,03,06,14,17,19,30,,,,,,1.0,0.6,0.7,1*3E,1621578798452
$GNGSA,A,3,67,78,79,81,,,,,,,,,1.0,0.6,0.7,2*3B,1621578798453
$GNGSA,A,2,13,,,,,,,,,,,,1.0,0.6,0.7,3*30,1621578798454
$GNGSA,A,3,02,08,10,11,12,13,21,23,24,25,,,1.0,0.6,0.7,5*3C,1621578798455
$GNVTG,335.2,T,335.2,M,12.4,N,23.0,K,A*3B,1621578798455
$GNGGA,062907.00,2218.120907,N,11411.403751,E,1,12,0.6,10.3,M,-1.2,M,,*55,1621578798456
$GNRMC,062907.00,A,2218.120907,N,11411.403751,E,12.4,335.2,210521,2.2,W,A,V*78,1621578798456
$GPGSV,4,1,13,02,14,247,22,03,37,057,34,06,44,262,29,09,05,140,21,1*66,1621578799432
$GPGSV,4,2,13,14,83,146,28,17,47,357,37,19,35,324,37,28,00,000,32,1*63,1621578799432
$GPGSV,4,3,13,30,21,199,29,01,11,040,,04,01,109,,07,00,000,,1*64,1621578799433
$GPGSV,4,4,13,22,13,042,,1*52,1621578799433
$GLGSV,3,1,10,78,45,196,32,66,26,113,26,82,21,288,26,80,07,329,21,1*72,1621578799433
$GLGSV,3,2,10,79,52,291,38,81,37,344,39,67,08,163,29,77,00,000,,1*72,1621578799434
$GLGSV,3,3,10,65,14,050,,88,16,039,,1*77,1621578799434
$GAGSV,2,1,08,01,42,313,36,07,14,132,28,08,09,082,32,13,35,028,33,7*77,1621578799435
$GAGSV,2,2,08,21,74,206,34,26,54,307,37,27,26,154,28,33,20,258,,7*7B,1621578799435
$PQGSV,1,1,03,193,33,123,24,194,00,000,37,195,56,046,40,0*7D,1621578799436
$GBGSV,4,1,16,01,47,122,27,02,46,234,33,03,63,188,29,04,33,108,23,0*76,1621578799436
$GBGSV,4,2,16,05,23,254,28,07,74,120,18,08,73,310,23,10,74,327,30,0*7D,1621578799437
$GBGSV,4,3,16,11,43,327,35,12,35,037,29,13,60,253,37,14,15,178,31,0*73,1621578799438
$GBGSV,4,4,16,21,36,094,34,23,18,307,36,24,29,184,32,25,45,257,39,0*78,1621578799438
$GNGSA,A,3,02,03,06,14,17,19,30,,,,,,0.9,0.6,0.7,1*36,1621578799446
$GNGSA,A,3,67,78,79,81,,,,,,,,,0.9,0.6,0.7,2*33,1621578799448
$GNGSA,A,2,13,,,,,,,,,,,,0.9,0.6,0.7,3*38,1621578799448
$GNGSA,A,3,02,07,08,10,11,12,13,21,23,24,25,,0.9,0.6,0.7,5*33,1621578799448
$GNVTG,335.9,T,335.9,M,12.2,N,22.5,K,A*39,1621578799449
$GNGGA,062908.00,2218.123809,N,11411.402446,E,1,12,0.6,9.2,M,-1.2,M,,*6B,1621578799449
$GNRMC,062908.00,A,2218.123809,N,11411.402446,E,12.2,335.9,210521,2.2,W,A,V*72,1621578799449
$GPGSV,4,1,13,02,14,247,22,03,37,057,24,06,44,262,28,09,05,140,25,1*62,1621578800433
$GPGSV,4,2,13,14,83,146,26,17,47,357,31,19,35,324,38,28,00,000,33,1*65,1621578800434
$GPGSV,4,3,13,30,21,199,32,01,11,040,,04,01,109,,07,00,000,,1*6E,1621578800434
$GPGSV,4,4,13,22,13,042,,1*52,1621578800434
$GLGSV,3,1,10,78,45,196,32,66,26,113,26,82,21,288,25,80,07,329,21,1*71,1621578800434
$GLGSV,3,2,10,79,52,291,39,81,37,344,35,67,08,163,32,77,00,000,,1*75,1621578800434
$GLGSV,3,3,10,65,14,050,,88,16,039,,1*77,1621578800435
$GAGSV,2,1,08,01,42,313,36,07,14,132,31,08,09,082,32,13,35,028,33,7*7F,1621578800435
$GAGSV,2,2,08,21,74,206,33,26,54,307,37,27,26,154,28,33,20,258,,7*7C,1621578800435
$PQGSV,1,1,03,193,33,123,22,194,00,000,36,195,56,046,39,0*74,1621578800436
$GBGSV,4,1,16,01,47,122,27,02,46,234,31,03,63,188,29,04,33,108,24,0*73,1621578800436
$GBGSV,4,2,16,05,23,254,28,07,74,120,24,08,73,310,23,10,74,327,31,0*73,1621578800436
$GBGSV,4,3,16,11,43,327,36,12,35,037,29,13,60,253,37,14,15,178,31,0*70,1621578800436
$GBGSV,4,4,16,21,36,094,33,23,18,307,35,24,29,184,31,25,45,257,38,0*7E,1621578800444
$GNGSA,A,3,02,03,06,14,17,19,30,,,,,,0.9,0.6,0.7,1*36,1621578800449
$GNGSA,A,3,67,78,79,81,,,,,,,,,0.9,0.6,0.7,2*33,1621578800449
$GNGSA,A,2,13,,,,,,,,,,,,0.9,0.6,0.7,3*38,1621578800449
$GNGSA,A,3,02,04,07,08,10,11,12,13,21,23,24,25,0.9,0.6,0.7,5*37,1621578800450
$GNVTG,335.3,T,335.3,M,11.8,N,21.9,K,A*3F,1621578800450
$GNGGA,062909.00,2218.126955,N,11411.400821,E,1,12,0.6,8.9,M,-1.2,M,,*62,1621578800450
$GNRMC,062909.00,A,2218.126955,N,11411.400821,E,11.8,335.3,210521,2.2,W,A,V*72,1621578800451
$GPGSV,4,1,13,02,14,247,22,03,37,057,24,06,44,262,29,09,05,140,24,1*62,1621578801441
$GPGSV,4,2,13,14,83,146,27,17,47,357,25,19,35,324,33,28,00,000,33,1*6A,1621578801442
$GPGSV,4,3,13,30,21,199,30,01,11,040,,04,01,109,,07,00,000,,1*6C,1621578801442
$GPGSV,4,4,13,22,13,042,,1*52,1621578801443
$GLGSV,3,1,10,78,45,196,30,66,26,113,26,82,21,288,25,80,07,329,21,1*73,1621578801443
$GLGSV,3,2,10,79,52,291,39,81,37,344,27,67,08,163,32,77,00,000,,1*76,1621578801443
$GLGSV,3,3,10,65,14,050,,88,16,039,,1*77,1621578801444
$GAGSV,2,1,08,01,42,313,36,07,14,132,31,08,09,082,32,13,35,028,33,7*7F,1621578801444
$GAGSV,2,2,08,21,74,206,33,26,54,307,36,27,26,154,29,33,20,258,,7*7C,1621578801444
$PQGSV,1,1,03,193,33,123,25,194,00,000,36,195,56,046,38,0*72,1621578801444
$GBGSV,4,1,16,01,47,122,27,02,46,234,31,03,63,188,31,04,33,108,24,0*7A,1621578801445
$GBGSV,4,2,16,05,23,254,28,07,74,120,23,08,73,310,25,10,74,327,29,0*7B,1621578801445
$GBGSV,4,3,16,11,43,327,35,12,35,037,29,13,60,253,36,14,15,178,30,0*73,1621578801445
$GBGSV,4,4,16,21,36,094,31,23,18,307,34,24,29,184,28,25,45,257,37,0*7A,1621578801445
$GNGSA,A,3,02,03,06,14,17,19,,,,,,,0.9,0.6,0.7,1*35,1621578801450
$GNGSA,A,3,67,78,79,81,,,,,,,,,0.9,0.6,0.7,2*33,1621578801451
$GNGSA,A,3,02,04,07,08,10,11,12,13,21,23,24,25,0.9,0.6,0.7,5*37,1621578801451
$GNVTG,334.4,T,334.4,M,11.4,N,21.2,K,A*38,1621578801457
$GNGGA,062910.00,2218.130068,N,11411.398871,E,1,12,0.6,8.9,M,-1.2,M,,*69,1621578801458
$GNRMC,062910.00,A,2218.130068,N,11411.398871,E,11.4,334.4,210521,2.2,W,A,V*73,1621578801458
$GPGSV,4,1,13,02,14,247,22,03,37,057,24,06,44,262,33,09,05,140,26,1*6B,1621578802438
$GPGSV,4,2,13,14,83,146,27,17,47,357,25,19,35,324,28,28,00,000,33,1*60,1621578802439
$GPGSV,4,3,13,30,21,199,32,01,11,040,,04,01,109,,07,00,000,,1*6E,1621578802442
$GPGSV,4,4,13,22,13,042,,1*52,1621578802443
$GLGSV,3,1,10,78,45,196,33,66,26,113,26,82,21,288,27,80,07,329,21,1*72,1621578802443
$GLGSV,3,2,10,79,52,291,42,65,14,050,23,81,37,344,27,67,08,163,30,1*7A,1621578802443
$GLGSV,3,3,10,77,00,000,,88,16,039,,1*74,1621578802444
$GAGSV,2,1,08,01,42,313,36,07,14,132,31,08,09,082,32,13,35,028,33,7*7F,1621578802444
$GAGSV,2,2,08,21,74,206,33,26,54,307,34,27,26,154,33,33,20,258,,7*75,1621578802444
$PQGSV,1,1,03,193,33,123,23,194,00,000,35,195,56,046,38,0*77,1621578802444
$GBGSV,4,1,16,01,47,122,25,02,46,234,31,03,63,188,31,04,33,108,24,0*78,1621578802445
$GBGSV,4,2,16,05,23,254,28,07,74,120,22,08,73,310,25,10,74,327,31,0*73,1621578802446
$GBGSV,4,3,16,11,43,327,35,12,35,037,29,13,60,253,36,14,15,178,28,0*7A,1621578802447
$GBGSV,4,4,16,21,36,094,32,23,18,307,34,24,29,184,26,25,45,257,35,0*75,1621578802447
$GNGSA,A,3,02,03,06,14,17,19,30,,,,,,0.9,0.6,0.7,1*36,1621578802449
$GNGSA,A,3,67,78,79,81,,,,,,,,,0.9,0.6,0.7,2*33,1621578802450
$GNGSA,A,3,02,04,07,08,10,11,13,21,23,24,25,,0.9,0.6,0.7,5*34,1621578802450
$GNVTG,331.6,T,331.6,M,11.2,N,20.7,K,A*3A,1621578802452
$GNGGA,062911.00,2218.132806,N,11411.397338,E,1,12,0.6,8.8,M,-1.2,M,,*62,1621578802452
$GNRMC,062911.00,A,2218.132806,N,11411.397338,E,11.2,331.6,210521,2.2,W,A,V*78,1621578802453
$GPGSV,4,1,13,02,14,247,22,03,37,057,24,06,44,262,38,09,05,140,25,1*63,1621578803440
$GPGSV,4,2,13,14,83,146,27,17,47,357,24,19,35,324,29,28,00,000,35,1*66,1621578803443
$GPGSV,4,3,13,30,21,199,35,01,11,040,,04,01,109,,07,00,000,,1*69,1621578803444
$GPGSV,4,4,13,22,13,042,,1*52,1621578803446
$GLGSV,3,1,10,78,45,196,33,66,26,113,26,82,21,288,30,80,07,329,21,1*74,1621578803447
$GLGSV,3,2,10,79,52,291,44,65,14,050,24,88,16,039,19,81,37,344,21,1*76,1621578803451
$GLGSV,3,3,10,67,08,163,30,77,00,000,,1*77,1621578803452
$GAGSV,2,1,08,01,42,313,37,07,14,132,24,08,09,082,32,13,35,028,33,7*7A,1621578803452
$GAGSV,2,2,08,21,74,206,34,26,54,307,34,27,26,154,32,33,20,258,23,7*72,1621578803452
$PQGSV,1,1,03,193,33,123,28,194,00,000,35,195,56,046,40,0*73,1621578803452
$GBGSV,4,1,16,01,47,122,25,02,46,234,30,03,63,188,31,04,33,108,25,0*78,1621578803454
$GBGSV,4,2,16,05,23,254,28,07,74,120,22,08,73,310,28,10,74,327,32,0*7D,1621578803454
$GBGSV,4,3,16,11,43,327,29,12,35,037,29,13,60,253,36,14,15,178,30,0*7E,1621578803454
$GBGSV,4,4,16,21,36,094,30,23,18,307,34,24,29,184,29,25,45,257,30,0*7D,1621578803455
$GNGSA,A,3,02,03,06,14,17,19,30,,,,,,0.9,0.6,0.7,1*36,1621578803456
$GNGSA,A,3,67,78,79,81,,,,,,,,,0.9,0.6,0.7,2*33,1621578803456
$GNGSA,A,3,02,04,07,08,10,11,13,21,23,24,25,,0.9,0.6,0.7,5*34,1621578803457
$GNVTG,326.0,T,326.0,M,9.0,N,16.7,K,A*04,1621578803457
$GNGGA,062912.00,2218.134966,N,11411.395851,E,1,12,0.6,8.6,M,-1.2,M,,*68,1621578803457
$GNRMC,062912.00,A,2218.134966,N,11411.395851,E,9.0,326.0,210521,2.2,W,A,V*47,1621578803458
$GPGSV,4,1,13,02,14,247,22,03,37,057,24,06,44,262,42,09,05,140,22,1*69,1621578804443
$GPGSV,4,2,13,14,83,146,31,17,47,357,21,19,35,324,35,28,00,000,36,1*6A,1621578804444
$GPGSV,4,3,13,30,21,199,36,01,11,040,,04,01,109,,07,00,000,,1*6A,1621578804444
$GPGSV,4,4,13,22,13,042,,1*52,1621578804445
$GLGSV,3,1,10,78,45,196,35,66,26,113,26,82,21,288,26,80,07,329,21,1*75,1621578804445
$GLGSV,3,2,10,79,52,291,40,65,14,050,23,88,16,039,19,81,37,344,21,1*75,1621578804445
$GLGSV,3,3,10,67,08,163,38,77,00,000,,1*7F,1621578804446
$GAGSV,2,1,08,01,42,313,36,07,14,132,24,08,09,082,32,13,35,028,33,7*7B,1621578804446
$GAGSV,2,2,08,21,74,206,34,26,54,307,30,27,26,154,32,33,20,258,22,7*77,1621578804446
$PQGSV,1,1,03,193,33,123,29,194,00,000,29,195,56,046,37,0*7F,1621578804446
$GBGSV,4,1,16,01,47,122,25,02,46,234,30,03,63,188,30,04,33,108,25,0*79,1621578804446
$GBGSV,4,2,16,05,23,254,28,07,74,120,21,08,73,310,31,10,74,327,34,0*70,1621578804446
$GBGSV,4,3,16,11,43,327,27,12,35,037,29,13,60,253,35,14,15,178,31,0*72,1621578804447
$GBGSV,4,4,16,21,36,094,32,23,18,307,31,24,29,184,37,25,45,257,38,0*7D,1621578804447
$GNGSA,A,3,02,03,06,14,17,19,30,,,,,,0.9,0.6,0.7,1*36,1621578804450
$GNGSA,A,3,67,78,79,81,,,,,,,,,0.9,0.6,0.7,2*33,1621578804451
$GNGSA,A,3,02,04,07,08,10,11,13,21,23,24,25,,0.9,0.6,0.7,5*34,1621578804451
$GNVTG,314.4,T,314.4,M,9.0,N,16.7,K,A*04,1621578804451
$GNGGA,062913.00,2218.136763,N,11411.393495,E,1,12,0.6,9.1,M,-1.2,M,,*64,1621578804451
$GNRMC,062913.00,A,2218.136763,N,11411.393495,E,9.0,314.4,210521,2.2,W,A,V*48,1621578804451
$GPGSV,4,1,13,02,14,247,22,03,37,057,24,06,44,262,43,09,05,140,31,1*6A,1621578805433
$GPGSV,4,2,13,14,83,146,32,17,47,357,21,19,35,324,42,28,00,000,40,1*68,1621578805433
$GPGSV,4,3,13,30,21,199,40,01,11,040,,04,01,109,,07,00,000,,1*6B,1621578805433
$GPGSV,4,4,13,22,13,042,,1*52,1621578805433
$GLGSV,3,1,10,78,45,196,40,66,26,113,26,82,21,288,27,80,07,329,21,1*76,1621578805434
$GLGSV,3,2,10,79,52,291,34,65,14,050,24,88,16,039,18,81,37,344,21,1*70,1621578805434
$GLGSV,3,3,10,67,08,163,32,77,00,000,,1*75,1621578805437
$GAGSV,2,1,08,01,42,313,40,07,14,132,24,08,09,082,32,13,35,028,33,7*7A,1621578805437
$GAGSV,2,2,08,21,74,206,33,26,54,307,32,27,26,154,34,33,20,258,26,7*70,1621578805438
$PQGSV,1,1,03,193,33,123,27,194,00,000,35,195,56,046,28,0*72,1621578805456
$GBGSV,4,1,16,01,47,122,28,02,46,234,30,03,63,188,30,04,33,108,25,0*74,1621578805463
$GBGSV,4,2,16,05,23,254,28,07,74,120,28,08,73,310,30,10,74,327,36,0*7A,1621578805463
$GBGSV,4,3,16,11,43,327,30,12,35,037,29,13,60,253,37,14,15,178,31,0*76,1621578805464
$GBGSV,4,4,16,16,03,178,25,21,36,094,32,23,18,307,29,24,29,184,36,0*75,1621578805464
$GNGSA,A,3,02,03,06,14,17,19,30,,,,,,0.9,0.6,0.7,1*36,1621578805465
$GNGSA,A,3,67,78,79,81,,,,,,,,,0.9,0.6,0.7,2*33,1621578805466
$GNGSA,A,3,02,04,07,08,10,11,13,21,23,24,25,,0.9,0.6,0.7,5*34,1621578805466
$GNVTG,297.4,T,297.4,M,9.5,N,17.7,K,A*00,1621578805467
$GNGGA,062914.00,2218.137957,N,11411.390599,E,1,12,0.6,9.4,M,-1.2,M,,*60,1621578805468
$GNRMC,062914.00,A,2218.137957,N,11411.390599,E,9.5,297.4,210521,2.2,W,A,V*46,1621578805468
$GPGSV,4,1,13,02,14,247,22,03,37,057,24,06,44,262,41,09,05,140,30,1*69,1621578806433
$GPGSV,4,2,13,14,83,146,35,17,47,357,23,19,35,324,39,28,00,000,41,1*60,1621578806433
$GPGSV,4,3,13,30,21,199,35,01,11,040,,04,01,109,,07,00,000,,1*69,1621578806434
$GPGSV,4,4,13,22,13,042,,1*52,1621578806435
$GLGSV,3,1,10,78,45,196,41,66,26,113,26,82,21,288,27,80,07,329,21,1*77,1621578806435
$GLGSV,3,2,10,79,52,291,37,65,14,050,25,88,16,039,19,81,37,344,18,1*79,1621578806436
$GLGSV,3,3,10,67,08,163,35,77,00,000,,1*72,1621578806436
$GAGSV,2,1,08,01,42,313,37,07,14,132,29,08,09,082,32,13,35,028,33,7*77,1621578806436
$GAGSV,2,2,08,21,74,206,33,26,54,307,33,27,26,154,35,33,20,258,35,7*72,1621578806437
$PQGSV,1,1,03,193,33,123,32,194,00,000,32,195,56,046,27,0*7E,1621578806437
$GBGSV,4,1,16,01,47,122,28,02,46,234,30,03,63,188,30,04,33,108,25,0*74,1621578806437
$GBGSV,4,2,16,05,23,254,28,07,74,120,30,08,73,310,34,10,74,327,38,0*79,1621578806437
$GBGSV,4,3,16,11,43,327,33,12,35,037,29,13,60,253,36,14,15,178,29,0*7D,1621578806438
$GBGSV,4,4,16,16,03,178,25,21,36,094,30,23,18,307,35,24,29,184,39,0*75,1621578806438
$GNGSA,A,3,06,14,17,19,30,,,,,,,,1.1,0.8,0.7,1*30,1621578806439
$GNGSA,A,3,67,78,79,81,,,,,,,,,1.1,0.8,0.7,2*34,1621578806443
$GNGSA,A,3,02,07,08,10,11,13,21,23,24,25,,,1.1,0.8,0.7,5*37,1621578806444
$GNVTG,282.0,T,282.0,M,9.3,N,17.2,K,A*03,1621578806444
$GNGGA,062915.00,2218.138752,N,11411.387563,E,1,12,0.8,9.9,M,-1.2,M,,*65,1621578806444
$GNRMC,062915.00,A,2218.138752,N,11411.387563,E,9.3,282.0,210521,2.2,W,A,V*46,1621578806444
$GPGSV,4,1,13,02,14,247,22,03,37,057,24,06,44,262,41,09,05,140,29,1*61,1621578807429
$GPGSV,4,2,13,14,83,146,34,17,47,357,23,19,35,324,39,22,13,042,20,1*68,1621578807430
$GPGSV,4,3,13,28,00,000,40,30,21,199,42,01,11,040,,04,01,109,,1*60,1621578807430
$GPGSV,4,4,13,07,00,000,,1*51,1621578807431
$GLGSV,3,1,10,78,45,196,35,66,26,113,26,82,21,288,27,80,07,329,21,1*74,1621578807432
$GLGSV,3,2,10,79,52,291,41,65,14,050,26,88,16,039,19,81,37,344,25,1*75,1621578807433
$GLGSV,3,3,10,67,08,163,30,77,00,000,,1*77,1621578807433
$GAGSV,2,1,08,01,42,313,34,07,14,132,29,08,09,082,32,13,35,028,33,7*74,1621578807435
$GAGSV,2,2,08,21,74,206,30,26,54,307,31,27,26,154,38,33,20,258,35,7*7E,1621578807437
$PQGSV,1,1,03,193,33,123,30,194,00,000,31,195,56,046,31,0*78,1621578807437
$GBGSV,4,1,16,01,47,122,28,02,46,234,37,03,63,188,33,04,33,108,25,0*70,1621578807438
$GBGSV,4,2,16,05,23,254,35,07,74,120,35,08,73,310,37,10,74,327,38,0*73,1621578807439
$GBGSV,4,3,16,11,43,327,29,12,35,037,29,13,60,253,35,14,15,178,30,0*7D,1621578807439
$GBGSV,4,4,16,16,03,178,22,21,36,094,31,23,18,307,35,24,29,184,40,0*7D,1621578807439
$GNGSA,A,3,06,14,17,19,30,,,,,,,,1.0,0.7,0.7,1*3E,1621578807441
$GNGSA,A,3,65,67,78,79,81,,,,,,,,1.0,0.7,0.7,2*39,1621578807443
$GNGSA,A,3,02,07,08,10,11,13,21,23,24,25,,,1.0,0.7,0.7,5*39,1621578807443
$GNVTG,268.3,T,268.3,M,8.8,N,16.2,K,A*08,1621578807444
$GNGGA,062916.00,2218.138487,N,11411.384928,E,1,12,0.7,10.0,M,-1.2,M,,*53,1621578807444
$GNRMC,062916.00,A,2218.138487,N,11411.384928,E,8.8,268.3,210521,2.2,W,A,V*43,1621578807444
$GPGSV,4,1,13,02,14,247,22,03,37,057,24,06,44,262,41,09,05,140,22,1*6A,1621578808428
$GPGSV,4,2,13,14,83,146,32,17,47,357,27,19,35,324,39,22,13,042,19,1*60,1621578808432
$GPGSV,4,3,13,28,00,000,38,30,21,199,38,01,11,040,,04,01,109,,1*62,1621578808432
$GPGSV,4,4,13,07,00,000,,1*51,1621578808433
$GLGSV,3,1,10,78,45,196,37,66,26,113,26,82,21,288,21,80,07,329,21,1*70,1621578808433
$GLGSV,3,2,10,79,52,291,37,65,14,050,26,88,16,039,19,81,37,344,36,1*76,1621578808436
$GLGSV,3,3,10,67,08,163,31,77,00,000,,1*76,1621578808437
$GAGSV,2,1,08,01,42,313,33,07,14,132,30,08,09,082,32,13,35,028,33,7*7B,1621578808438
$GAGSV,2,2,08,21,74,206,33,26,54,307,36,27,26,154,39,33,20,258,35,7*7B,1621578808438
$PQGSV,1,1,03,193,33,123,34,194,00,000,39,195,56,046,36,0*73,1621578808439
$GBGSV,4,1,16,01,47,122,28,02,46,234,35,03,63,188,38,04,33,108,25,0*79,1621578808439
$GBGSV,4,2,16,05,23,254,35,07,74,120,35,08,73,310,38,10,74,327,36,0*72,1621578808439
$GBGSV,4,3,16,11,43,327,32,12,35,037,29,13,60,253,34,14,15,178,35,0*73,1621578808439
$GBGSV,4,4,16,16,03,178,22,21,36,094,32,23,18,307,34,24,29,184,41,0*7E,1621578808439
$GNGSA,A,3,06,14,17,19,30,,,,,,,,1.0,0.7,0.7,1*3E,1621578808441
$GNGSA,A,3,65,67,78,79,81,,,,,,,,1.0,0.7,0.7,2*39,1621578808442
$GNGSA,A,3,02,07,08,10,11,13,21,23,24,25,,,1.0,0.7,0.7,5*39,1621578808443
$GNVTG,254.4,T,254.4,M,8.6,N,15.9,K,A*0E,1621578808445
$GNGGA,062917.00,2218.137910,N,11411.382345,E,1,12,0.7,10.3,M,-1.2,M,,*5A,1621578808448
$GNRMC,062917.00,A,2218.137910,N,11411.382345,E,8.6,254.4,210521,2.2,W,A,V*4F,1621578808449
$GPGSV,4,1,13,02,14,247,22,03,37,057,24,06,44,262,40,09,05,140,25,1*6C,1621578809438
$GPGSV,4,2,13,14,83,146,32,17,47,357,29,19,35,324,39,22,13,042,19,1*6E,1621578809441
$GPGSV,4,3,13,28,00,000,37,30,21,199,35,01,11,040,,04,01,109,,1*60,1621578809441
$GPGSV,4,4,13,07,00,000,,1*51,1621578809441
$GLGSV,3,1,10,78,45,196,41,66,26,113,20,82,21,288,21,80,07,329,21,1*77,1621578809441
$GLGSV,3,2,10,79,52,291,34,65,14,050,21,88,16,039,19,81,37,344,43,1*70,1621578809442
$GLGSV,3,3,10,67,08,163,32,77,00,000,,1*75,1621578809442
$GAGSV,2,1,08,01,42,313,33,07,14,132,30,08,09,082,32,13,35,028,33,7*7B,1621578809442
$GAGSV,2,2,08,21,74,206,33,26,54,307,40,27,26,154,39,33,20,258,26,7*78,1621578809442
$PQGSV,1,1,03,193,33,123,34,194,00,000,40,195,56,046,36,0*7D,1621578809442
$GBGSV,4,1,16,01,47,122,28,02,46,234,35,03,63,188,34,04,33,108,24,0*74,1621578809443
$GBGSV,4,2,16,05,23,254,35,07,74,120,35,08,73,310,35,10,74,327,35,0*7C,1621578809443
$GBGSV,4,3,16,11,43,327,34,12,35,037,29,13,60,253,35,14,15,178,34,0*75,1621578809443
$GBGSV,4,4,16,16,03,178,22,21,36,094,31,23,18,307,35,24,29,184,37,0*7D,1621578809443
$GNGSA,A,3,06,14,17,19,30,,,,,,,,1.0,0.7,0.7,1*3E,1621578809451
$GNGSA,A,3,65,67,78,79,81,,,,,,,,1.0,0.7,0.7,2*39,1621578809451
$GNGSA,A,3,02,07,08,10,11,13,21,23,24,25,,,1.0,0.7,0.7,5*39,1621578809452
$GNVTG,242.2,T,242.2,M,8.6,N,15.8,K,A*0F,1621578809453
$GNGGA,062918.00,2218.136744,N,11411.379924,E,1,12,0.7,10.4,M,-1.2,M,,*55,1621578809455
$GNRMC,062918.00,A,2218.136744,N,11411.379924,E,8.6,242.2,210521,2.2,W,A,V*46,1621578809456
$GPGSV,4,1,13,02,14,247,22,03,37,057,24,06,44,262,39,09,05,140,25,1*62,1621578810444
$GPGSV,4,2,13,14,83,146,34,17,47,357,34,19,35,324,41,22,13,042,19,1*6B,1621578810445
$GPGSV,4,3,13,28,00,000,40,30,21,199,39,01,11,040,,04,01,109,,1*6C,1621578810446
$GPGSV,4,4,13,07,00,000,,1*51,1621578810446
$GLGSV,3,1,10,78,45,196,46,66,26,113,20,82,21,288,21,80,07,329,21,1*70,1621578810447
$GLGSV,3,2,10,79,52,291,35,65,14,050,27,88,16,039,24,81,37,344,42,1*78,1621578810448
$GLGSV,3,3,10,67,08,163,34,77,00,000,,1*73,1621578810449
$GAGSV,2,1,08,01,42,313,33,07,14,132,30,08,09,082,32,13,35,028,33,7*7B,1621578810449
$GAGSV,2,2,08,21,74,206,35,26,54,307,41,27,26,154,39,33,20,258,26,7*7F,1621578810450
$PQGSV,1,1,03,193,33,123,36,194,00,000,40,195,56,046,33,0*7A,1621578810450
$GBGSV,4,1,16,01,47,122,28,02,46,234,35,03,63,188,37,04,33,108,24,0*77,1621578810451
$GBGSV,4,2,16,05,23,254,30,07,74,120,34,08,73,310,35,10,74,327,34,0*79,1621578810451
$GBGSV,4,3,16,11,43,327,39,12,35,037,29,13,60,253,36,14,15,178,34,0*7B,1621578810451
$GBGSV,4,4,16,16,03,178,22,21,36,094,30,23,18,307,33,24,29,184,34,0*79,1621578810451
$GNGSA,A,3,06,14,17,19,30,,,,,,,,1.0,0.7,0.7,1*3E,1621578810453
$GNGSA,A,3,65,67,78,79,81,,,,,,,,1.0,0.7,0.7,2*39,1621578810454
$GNGSA,A,3,02,07,08,10,11,13,21,23,24,,,,1.0,0.7,0.7,5*3E,1621578810454
$GNVTG,236.9,T,236.9,M,8.7,N,16.0,K,A*05,1621578810455
$GNGGA,062919.00,2218.135275,N,11411.377759,E,1,12,0.7,10.6,M,-1.2,M,,*58,1621578810456
$GNRMC,062919.00,A,2218.135275,N,11411.377759,E,8.7,236.9,210521,2.2,W,A,V*40,1621578810456
$GPGSV,4,1,13,02,14,247,22,06,44,262,38,09,05,140,30,14,83,146,35,1*6F,1621578811430
$GPGSV,4,2,13,17,47,357,36,19,35,324,43,22,13,042,21,28,00,000,40,1*64,1621578811439
$GPGSV,4,3,13,30,21,199,40,01,11,040,,03,37,057,,04,01,109,,1*69,1621578811441
$GPGSV,4,4,13,07,00,000,,1*51,1621578811441
$GLGSV,3,1,10,78,45,196,46,66,26,113,22,82,21,288,21,80,07,329,21,1*72,1621578811443
$GLGSV,3,2,10,79,52,291,36,65,14,050,22,88,16,039,23,81,37,344,40,1*7B,1621578811445
$GLGSV,3,3,10,67,08,163,33,77,00,000,,1*74,1621578811446
$GAGSV,2,1,08,01,42,313,29,07,14,132,32,08,09,082,32,13,35,028,33,7*72,1621578811447
$GAGSV,2,2,08,21,74,206,35,26,54,307,42,27,26,154,40,33,20,258,26,7*72,1621578811449
$PQGSV,1,1,03,193,33,123,36,194,00,000,39,195,56,046,31,0*76,1621578811453
$GBGSV,4,1,16,01,47,122,30,02,46,234,30,03,63,188,38,04,33,108,31,0*70,1621578811453
$GBGSV,4,2,16,05,23,254,30,07,74,120,32,08,73,310,36,10,74,327,34,0*7C,1621578811453
$GBGSV,4,3,16,11,43,327,41,12,35,037,29,13,60,253,36,14,15,178,32,0*72,1621578811454
$GBGSV,4,4,16,16,03,178,22,21,36,094,34,23,18,307,34,24,29,184,37,0*79,1621578811463
$GNGSA,A,3,06,14,17,19,30,,,,,,,,1.0,0.7,0.7,1*3E,1621578811468
$GNGSA,A,3,65,67,78,79,81,,,,,,,,1.0,0.7,0.7,2*39,1621578811468
$GNGSA,A,3,02,04,07,08,10,11,13,21,23,24,,,1.0,0.7,0.7,5*3A,1621578811469
$GNVTG,236.4,T,236.4,M,8.8,N,16.4,K,A*0E,1621578811469
$GNGGA,062920.00,2218.133828,N,11411.375476,E,1,12,0.7,10.7,M,-1.2,M,,*5B,1621578811469
$GNRMC,062920.00,A,2218.133828,N,11411.375476,E,8.8,236.4,210521,2.2,W,A,V*40,1621578811469
$GPGSV,4,1,13,02,14,247,22,06,44,262,37,09,05,140,30,14,83,146,35,1*60,1621578812433
$GPGSV,4,2,13,17,47,357,35,19,35,324,41,22,13,042,21,28,00,000,40,1*65,1621578812435
$GPGSV,4,3,13,30,21,199,38,01,11,040,,03,37,057,,04,01,109,,1*66,1621578812439
$GPGSV,4,4,13,07,00,000,,1*51,1621578812441
$GLGSV,3,1,10,78,45,196,46,66,26,113,22,82,21,288,21,80,07,329,21,1*72,1621578812441
$GLGSV,3,2,10,79,52,291,38,65,14,050,23,88,16,039,24,81,37,344,39,1*7D,1621578812444
$GLGSV,3,3,10,67,08,163,32,77,00,000,,1*75,1621578812444
$GAGSV,2,1,08,01,42,313,29,07,14,132,32,08,09,082,32,13,35,028,33,7*72,1621578812445
$GAGSV,2,2,08,21,74,206,34,26,54,307,41,27,26,154,41,33,20,258,26,7*71,1621578812445
$PQGSV,1,1,03,193,33,123,36,194,00,000,38,195,56,046,30,0*76,1621578812446
$GBGSV,4,1,16,01,47,122,30,02,46,234,33,03,63,188,38,04,33,108,31,0*73,1621578812447
$GBGSV,4,2,16,05,23,254,30,07,74,120,32,08,73,310,36,10,74,327,34,0*7C,1621578812447
$GBGSV,4,3,16,11,43,327,40,12,35,037,29,13,60,253,34,14,15,178,32,0*71,1621578812447
$GBGSV,4,4,16,16,03,178,22,21,36,094,32,23,18,307,34,24,29,184,38,0*70,1621578812448
$GNGSA,A,3,06,14,17,19,30,,,,,,,,1.0,0.7,0.7,1*3E,1621578812449
$GNGSA,A,3,65,67,78,79,81,,,,,,,,1.0,0.7,0.7,2*39,1621578812450
$GNGSA,A,3,02,04,07,08,10,11,13,21,23,24,,,1.0,0.7,0.7,5*3A,1621578812451
$GNVTG,235.7,T,235.7,M,8.6,N,16.0,K,A*04,1621578812452
$GNGGA,062921.00,2218.132343,N,11411.373148,E,1,12,0.7,10.9,M,-1.2,M,,*5D,1621578812452
$GNRMC,062921.00,A,2218.132343,N,11411.373148,E,8.6,235.7,210521,2.2,W,A,V*46,1621578812453
$GPGSV,4,1,13,02,14,247,22,03,37,057,23,06,44,262,38,09,05,140,30,1*60,1621578813435
$GPGSV,4,2,13,14,83,146,35,17,47,357,35,19,35,324,41,22,13,042,21,1*60,1621578813441
$GPGSV,4,3,13,28,00,000,40,30,21,199,37,01,11,040,,04,01,109,,1*62,1621578813443
$GPGSV,4,4,13,07,00,000,,1*51,1621578813445
$GLGSV,3,1,10,78,45,196,46,66,26,113,23,82,21,288,21,80,07,329,21,1*73,1621578813445
