     3.03           OBSERVATION DATA    M: Mixed            RINEX VERSION / TYPE
RTKCONV demo5 b33c                      20210524 111844 UTC PGM / RUN BY / DATE 
log: C:\Users\Ivan_PolyU_Dktp\Dropbox\HUAWEI Exp\20210521_  COMMENT             
format: RINEX                                               COMMENT             
Geo++                                                       MARKER NAME         
                                                            MARKER NUMBER       
                                                            MARKER TYPE         
                                                            OBSERVER / AGENCY   
unknown             Google              Pixel 4             REC # / TYPE / VERS 
unknown             Pixel 4                                 ANT # / TYPE        
 -2419232.1640  5385472.0689  2405345.2269                  APPROX POSITION XYZ 
        0.0000        0.0000        0.0000                  ANTENNA: DELTA H/E/N
G    8 C1C L1C D1C S1C C5Q L5Q D5Q S5Q                      SYS / # / OBS TYPES 
R    4 C1C L1C D1C S1C                                      SYS / # / OBS TYPES 
E    8 C1C L1C D1C S1C C5Q L5Q D5Q S5Q                      SYS / # / OBS TYPES 
J    8 C1C L1C D1C S1C C5Q L5Q D5Q S5Q                      SYS / # / OBS TYPES 
  2021     5    21     6    29    6.4322080     GPS         TIME OF FIRST OBS   
  2021     5    21     6    54   39.4321459     GPS         TIME OF LAST OBS    
G                                                           SYS / PHASE SHIFT   
R                                                           SYS / PHASE SHIFT   
E                                                           SYS / PHASE SHIFT   
J                                                           SYS / PHASE SHIFT   
  3 R01  1 R09 -2 R17  4                                    GLONASS SLOT / FRQ #
 C1C    0.000 C1P    0.000 C2C    0.000 C2P    0.000        GLONASS COD/PHS/BIS 
                                                            END OF HEADER       
> 2021  5 21  6 29  6.4322080  0 21                     
E 1  25233922.098 1 132605143.11311      1661.130          31.000    25231796.270 1  99014989.484 1      1240.292          31.500  
E13  25336068.883 1 133141929.500 1     -1729.265          40.750    25333950.550 1  99415843.736 1     -1291.274          25.500  
E21  23611232.762 1 124077661.169 1      -895.575          35.750    23609110.831 1  92647212.789 1      -668.876          31.000  
E26  23653309.833 1 124298985.949 1      -288.943          32.000    23651185.804 1  92812334.076 1      -215.958          33.000  
G 2  24253389.107 1 127452232.972 1      1807.104          33.750                                                                  
G 3  22220485.357 1 116769513.543 1     -1780.468          36.750                                                                  
G 6  21635177.457 1 113693698.907 1      1026.144          34.500                                                                  
G 9  25204719.914 1 132451610.49511      1586.401          27.500                                                                  
G14  20180388.986 1 106048771.439 1      -521.962          36.250                                                                  
G17  21736098.691 1 114223995.974 1       615.876          31.750                                                                  
G19  22057659.079 1 115913822.934 1      1381.795          38.750                                                                  
G30  23632130.395 1 124187610.960 1     -2736.075          33.500                                                                  
J 1  37415404.333 1 196619141.936 1       -30.410          29.250    37413039.870 1                       -23.250          16.500  
J 2  35953230.475 1 188935548.197 1       152.802          34.750    35950895.092 1                       112.200          26.500  
J 3  39704291.869 1 208647332.424 1       296.981          40.750    39701951.690 1                       221.400          20.250  
R 2  21836897.609 1                      2359.700          20.750  
R 3  23707644.518 1                      3503.050          22.000  
R14  20540318.012 1 109491359.33311     -3251.769          28.500  
R15  20082078.045 1 107312485.776 1       533.306          32.000  
R17  21007816.470 1 112417118.593 1      -738.884          40.500  
R18  22357994.461 1                       786.050          24.500  
> 2021  5 21  6 29  7.4322079  0 21                     
E 1  25233570.382 1                      1664.650          28.000    25231449.650 1  99013631.148 1      1241.025          34.000  
E13  25336368.317 1 133143500.882 1     -1729.158          40.250    25334245.786 1  99417017.167 1     -1290.988          27.000  
E21  23611374.205 1 124078398.976 1      -895.269          35.750    23609251.675 1  92647763.757 1      -668.329          29.750  
E26  23653332.258 1 124299116.485 1      -287.460          31.500    23651210.028 1  92812431.578 1      -214.637          34.750  
G 2  24253026.599 1 127450267.490 1      1808.824          34.500                                                                  
G 3  22220788.987 1 116771136.602 1     -1781.158          34.750                                                                  
G 4  25592734.038 1                      1345.250          27.000                                                                  
G 6  21634966.644 1 113692514.453 1      1027.602          35.750                                                                  
G 9  25204374.794 1 132449865.61111      1586.610          27.000                                                                  
G14  20180455.781 1 106049135.820 1      -521.979          35.500                                                                  
G17  21735955.631 1 114223221.976 1       616.744          32.250                                                                  
G19  22057366.422 1 115912282.869 1      1383.124          38.000                                                                  
G30  23632693.646 1 124190642.86711     -2734.533          34.750                                                                  
J 1  37415356.607 1 196619015.28411       -31.502          26.500                                                                  
J 2  35953185.447 1 188935237.563 1       152.960          35.750    35950834.475 1 141078795.49411       114.199          30.000  
J 3  39704206.969 1 208646877.622 1       297.194          39.750                                                                  
R 2  21836342.334 1                      2368.000          23.500  
R14  20540892.655 1 109494451.049 1     -3251.474          34.000  
R15  20081949.075 1 107311791.93011       533.978          28.500  
R17  21007922.238 1 112417696.459 1      -737.826          39.750  
R18  22357851.701 1                       790.000          24.250  
> 2021  5 21  6 29  8.4322079  0 21                     
E 1  25233260.327 1                      1662.550          27.250    25231134.798 1  99012389.043 1      1242.824          38.250  
E13  25336694.121 1 133145229.349 1     -1728.846          37.000    25334573.989 1  99418307.649 1     -1290.434          30.000  
E21  23611541.119 1 124079293.279 1      -894.085          32.750    23609421.587 1  92648431.584 1      -667.487          29.750  
E26  23653387.350 1                      -285.800          22.500    23651265.119 1  92812645.256 1      -213.137          38.000  
G 2  24252690.161 1 127448746.45111      1811.868          33.000                                                                  
G 3  22221129.182 1 116772917.65711     -1782.656          27.750                                                                  
G 6  21634761.216 1 113691485.285 1      1029.976          34.000                                                                  
G 9  25204068.935 1 132448278.51611      1587.425          26.250                                                                  
G14  20180565.135 1 106049657.062 1      -521.250          35.000                                                                  
G17  21735822.752 1 114222603.46811       618.044          29.000                                                                  
G19  22057095.640 1 115910898.349 1      1385.134          37.750                                                                  
G30  23633246.093 1 124193375.88011     -2732.716          31.000                                                                  
J 1  37415367.030 1 196619045.74611       -30.574          26.500                                                                  
J 2  35953156.297 1 188935083.77411       154.207          30.500    35950808.023 1 141078680.560 1       115.244          30.250  
J 3  39704148.739 1 208646579.810 1       297.694          35.750    39701806.461 1                       221.500          30.250  
R 2  21835939.343 1 116520755.84311      2365.401          27.500  
R 3  23706212.880 1                      3502.950          21.500  
R14  20541499.965 1 109497701.467 1     -3249.935          36.000  
R15  20081842.879 1                       535.350          24.250  
R17  21008067.567 1 112418433.114 1      -736.260          37.000  
R18  22357678.950 1                       791.850          24.000  
> 2021  5 21  6 29  9.4322078  0 21                     
E 1  25232911.465 1 132599845.19511      1662.677          32.000    25230787.735 1  99011029.459 1      1242.097          37.750  
E13  25336996.708 1 133146801.977 1     -1731.054          35.750    25334873.878 1  99419481.876 1     -1292.293          31.000  
E21  23611690.513 1 124080030.87711      -895.935          32.000    23609561.087 1  92648982.214 1      -668.870          30.250  
E26  23653428.818 1                      -289.950          23.000    23651290.098 1  92812741.315 1      -213.646          38.500  
G 2  24252322.412 1 127446777.58711      1810.857          29.500                                                                  
G 3  22221438.664 1 116774544.412 1     -1785.273          35.750                                                                  
G 6  21634542.164 1 113690298.250 1      1029.295          37.500                                                                  
G 9  25203726.069 1 132446535.31011      1584.280          27.750                                                                  
G14  20180635.083 1 106050022.251 1      -523.855          36.750                                                                  
G17  21735683.745 1 114221829.361 1       616.059          38.250                                                                  
G19  22056810.334 1 115909356.333 1      1384.315          40.000                                                                  
G30  23633735.451 1 124195952.61211     -2734.631          33.750                                                                  
J 1  37415367.426 1                       -39.100          22.250    37412996.068 1                       -21.400          19.000  
J 2  35953079.947 1 188934773.32611       151.707          27.250    35950748.461 1 141078448.731 1       113.460          29.500  
J 3  39704062.495 1 208646125.50611       295.804          29.250    39701720.816 1 155798079.25911       220.614          36.500  
R 2  21835489.451 1 116518230.25911      2365.801          28.500  
R 3  23705617.888 1                      3506.550          22.500  
R14  20542069.667 1 109500792.632 1     -3251.884          36.000  
R15  20081700.874 1                       528.400          24.500  
R17  21008155.802 1 112419010.047 1      -737.712          36.000  
R18  22357530.949 1                       797.950          23.000  
> 2021  5 21  6 29 10.4322078  0 20                     
E 1  25232594.470 1 132598182.277 1      1662.597          34.250    25230471.340 1  99009787.636 1      1241.479          37.500  
E13  25337325.467 1 133148533.287 1     -1731.789          34.250    25335203.236 1  99420774.681 1     -1293.387          31.750  
E21  23611854.385 1 124080927.88511      -898.684          30.500    23609731.255 1  92649652.08511      -671.258          31.250  
E26  23653453.287 1                      -283.300          24.750    23651344.247 1  92812955.307 1      -214.672          37.500  
G 2  24251961.648 1 127444966.832 1      1810.164          34.000                                                                  
G 3  22221778.515 1 116776330.980 1     -1787.694          39.250                                                                  
G 6  21634345.386 1 113689269.372 1      1027.977          38.000                                                                  
G 9  25203468.434 1 132444952.71411      1580.143          26.500                                                                  
G14  20180735.999 1 106050547.186 1      -526.538          39.000                                                                  
G17  21735568.511 1 114221213.342 1       615.933          41.000                                                                  
G19  22056542.505 1 115907971.644 1      1384.731          41.500                                                                  
G30  23634240.488 1 124198687.813 1     -2736.265          35.250                                                                  
J 1  37415367.012 1 196619080.52511       -36.636          26.750    37413004.348 1                       -26.700          21.500  
J 2  35953060.346 1 188934623.168 1       147.992          29.000    35950719.567 1 141078336.469 1       110.612          28.250  
J 3  39704007.220 1 208645829.84211       294.811          30.000    39701664.042 1 155797859.103 1       219.519          36.750  
R 2  21834969.497 1                      2359.700          25.500  
R 3  23704968.424 1                      3511.850          23.750  
R14  20542687.425 1 109504045.820 1     -3255.396          37.250  
R15  20081610.223 1 107310036.16011       532.690          30.500  
R17  21008311.281 1 112419747.511 1      -737.267          37.500  
> 2021  5 21  6 29 11.4322078  0 20                     
E 1  25232276.415 1 132596517.54111      1663.662          30.000    25230154.783 1  99008544.562 1      1241.956          37.250  
E13  25337653.164 1 133150262.272 1     -1728.887          39.250    25335532.732 1  99422065.998 1     -1292.092          30.750  
E21  23612027.989 1 124081825.833 1      -900.125          34.000    23609903.060 1  92650322.747 1      -672.636          31.750  
E26  23653524.662 1                      -284.550          28.000    23651399.133 1  92813168.267 1      -214.011          37.500  
G 2  24251623.506 1 127443155.52911      1808.209          32.500                                                                  
G 3  22222120.302 1 116778116.64211     -1786.242          31.750                                                                  
G 6  21634153.243 1 113688240.774 1      1026.180          37.000                                                                  
G 9  25203143.183 1                      1582.500          22.500                                                                  
G14  20180829.558 1 106051073.081 1      -527.881          38.000                                                                  
G17  21735447.119 1 114220594.921 1       618.290          35.500                                                                  
G19  22056283.509 1 115906584.522 1      1386.677          41.250                                                                  
G30  23634799.625 1 124201709.73011     -2736.636          30.250                                                                  
J 1  37415365.537 1 196619117.56111       -39.322          28.500    37413010.668 1 146816689.65611       -19.955          23.000  
J 2  35953033.389 1 188934475.094 1       145.270          32.500    35950692.909 1 141078226.008 1       108.416          30.250  
J 3  39703950.583 1 208645533.629 1       295.766          37.250    39701607.705 1 155797638.12811       220.836          33.000  
R 2  21834492.252 1                      2359.300          24.000  
R14  20543302.923 1 109507301.792 1     -3259.222          36.750  
R15  20081512.214 1 107309503.58311       530.655          27.500  
R17  21008444.113 1 112420482.122 1      -734.749          37.250  
R18  22357191.794 1                       790.600          22.000  
> 2021  5 21  6 29 12.4322077  0 20                     
E 1  25231930.563 1 132594696.669 1      1664.857          35.250    25229807.732 1  99007184.671 1      1243.184          36.000  
E13  25337953.664 1 133151832.194 1     -1725.095          38.750    25335830.234 1  99423238.570 1     -1287.801          34.750  
E21  23612166.302 1 124082569.309 1      -899.780          34.500    23610043.472 1  92650877.930 1      -671.895          27.250  
E26  23653546.055 1 124300389.74511      -283.481          31.000    23651423.525 1  92813264.548 1      -212.813          35.250  
G 2  24251239.581 1 127441192.492 1      1806.129          33.000                                                                  
G 3  22222430.996 1 116779745.444 1     -1782.932          35.500                                                                  
G 6  21633930.906 1 113687057.965 1      1026.289          35.750                                                                  
G 9  25202852.193 1                      1591.100          22.500                                                                  
G14  20180901.917 1 106051443.825 1      -526.692          36.250                                                                  
G17  21735306.925 1 114219818.544 1       621.165          37.250                                                                  
G19  22055986.523 1 115905040.068 1      1388.485          39.000                                                                  
G30  23635334.563 1 124204288.79411     -2736.546          35.750                                                                  
J 1  37415329.071 1                       -36.000          24.250    37412985.294 1                       -28.250          25.000  
J 2  35952975.338 1 188934172.65411       146.422          30.000    35950631.260 1 141078000.39511       109.139          31.500  
J 3  39703869.448 1 208645080.016 1       299.222          37.500    39701521.773 1 155797297.44611       223.432          30.750  
R 3  23703634.180 1                      3502.500          22.500  
R14  20543896.021 1 109510403.09011     -3260.052          27.500  
R15  20081369.322 1 107308812.688 1       531.972          34.500  
R17  21008543.752 1 112421055.745 1      -731.654          37.250  
R18  22357048.902 1                       786.950          23.000  
> 2021  5 21  6 29 13.4322077  0 20                     
E 1  25231610.486 1 132593029.298 1      1666.754          36.500    25229490.953 1  99005939.539 1      1244.836          36.500  
E13  25338282.039 1 133153554.049 1     -1722.560          36.000    25336158.309 1  99424524.569 1     -1286.331          38.500  
E21  23612338.484 1 124083466.66511      -897.890          31.250    23610217.153 1  92651548.067 1      -670.220          28.000  
E26  23653597.421 1 124300671.839 1      -282.922          36.500    23651476.690 1  92813475.371 1      -210.925          35.000  
G 2  24250894.321 1 127439384.095 1      1808.052          33.500                                                                  
G 3  22222767.464 1 116781525.778 1     -1781.294          35.750                                                                  
G 6  21633729.247 1 113686029.426 1      1028.067          36.500                                                                  
G14  20181003.648 1 106051968.216 1      -525.209          37.500                                                                  
G17  21735179.614 1 114219194.534 1       623.608          36.000                                                                  
G19  22055714.413 1 115903648.723 1      1390.974          36.750                                                                  
G30  23635873.991 1 124207356.130 1     -2729.017          36.750                                                                  
J 1  37415351.058 1 196618996.87411       -32.238          26.750    37412993.790 1                       -25.900          27.750  
J 2  35952982.634 1                       148.150          24.500    35950603.181 1 141077889.263 1       110.871          33.000  
J 3  39703815.287 1 208644777.74811       301.256          30.500    39701463.715 1 155797072.204 1       225.006          35.500  
R 2  21833646.747 1                      2361.200          23.250  
R 3  23702879.404 1                      3506.750          23.000  
R14  20544508.899 1 109513660.13311     -3257.333          28.250  
R15  20081274.689 1 107308278.486 1       533.314          30.750  
R17  21008694.350 1 112421784.899 1      -729.806          39.250  
R18  22356925.789 1                       787.900          24.000  
> 2021  5 21  6 29 14.4322077  0 21                     
E 1  25231296.163 1 132591366.213 1      1664.354          38.000    25229174.531 1  99004697.734 1      1242.888          37.250  
E13  25338609.571 1 133155280.225 1     -1724.605          35.000    25336487.041 1  99425813.611 1     -1287.849          39.500  
E21  23612515.221 1 124084368.599 1      -901.048          31.000    23610386.695 1  92652221.596 1      -672.748          28.000  
E26  23653653.642 1 124300958.344 1      -285.363          37.750    23651531.411 1  92813689.289 1      -212.660          36.000  
G 2  24250551.818 1 127437579.870 1      1805.202          33.000                                                                  
G 3  22223111.186 1 116783311.165 1     -1784.317          35.750                                                                  
G 6  21633521.350 1 113685005.192 1      1025.413          32.750                                                                  
G 9  25202294.840 1                      1592.050          20.500                                                                  
G14  20181104.238 1 106052497.386 1      -528.273          37.750                                                                  
G17  21735055.660 1 114218574.673 1       621.284          34.500                                                                  
G19  22055460.048 1 115902261.381 1      1388.760          38.500                                                                  
G30  23636383.498 1 124210088.92911     -2731.921          36.750                                                                  
J 1  37415408.177 1                       -31.700          24.500    37413002.043 1                       -31.400          29.000  
J 2  35952933.927 1 188933942.80111       146.661          27.000    35950576.659 1 141077781.252 1       108.810          33.250  
J 3  39703742.297 1 208644479.74911       299.236          27.750    39701407.813 1 155796849.891 1       223.372          35.750  
R 2  21833030.533 1                      2355.850          23.000  
R 3  23702339.937 1                      3501.700          23.750  
R14  20545111.041 1 109516922.45911     -3261.064          29.750  
R15  20081178.615 1 107307749.379 1       530.029          34.000  
R17  21008822.520 1 112422518.361 1      -731.936          38.250  
R18  22356713.095 1 119341652.75211       794.552          26.750  
> 2021  5 21  6 29 15.4322076  0 21                     
E 1  25230951.430 1 132589543.769 1      1663.553          41.750    25228828.300 1  99003336.829 1      1242.259          35.000  
E13  25338908.793 1 133156846.525 1     -1725.104          35.750    25336784.764 1  99426983.264 1     -1288.576          38.500  
E21  23612651.656 1 124085111.469 1      -902.171          35.500    23610528.526 1                      -668.100          22.500  
E26  23653674.956 1 124301085.127 1      -285.653          38.500    23651556.323 1  92813783.992 1      -213.191          34.500  
G 2  24250184.901 1 127435616.49111      1804.424          33.500                                                                  
G 3  22223412.206 1 116784937.521 1     -1785.601          36.250                                                                  
G 6  21633307.328 1 113683821.763 1      1024.520          34.000                                                                  
G 9  25201984.884 1                      1592.200          22.500                                                                  
G14  20181176.217 1 106052867.713 1      -529.699          39.500                                                                  
G17  21734919.883 1 114217795.090 1       620.991          33.250                                                                  
G19  22055162.683 1 115900714.138 1      1388.634          40.250                                                                  
G30  23636856.300 1 124212664.87011     -2735.547          37.500                                                                  
J 1                                                                  37412977.789 1 146816560.27011       -29.168          28.000  
J 2  35952879.094 1 188933639.75511       143.570          29.500    35950516.430 1 141077554.509 1       107.798          27.250  
J 3  39703654.786 1 208644022.374 1       298.473          29.000    39701321.202 1 155796508.343 1       222.932          33.500  
R 2  21832596.762 1                      2356.650          22.500  
R 3  23701648.045 1                      3511.150          26.250  
R14  20545692.368 1 109520022.92211     -3262.706          31.000  
R15  20081044.037 1 107307058.761 1       528.805          35.000  
R17  21008935.871 1 112423088.945 1      -732.040          35.500  
R18  22356572.522 1 119340698.53611       792.625          29.750  
> 2021  5 21  6 29 16.4322076  0 20                     
E 1  25230633.669 1 132587879.279 1      1665.754          40.750    25228510.839 1  99002093.821 1      1244.240          35.500  
E13  25339235.286 1 133158570.926 1     -1723.178          37.500    25337112.756 1  99428270.901 1     -1286.773          40.500  
E21  23612823.456 1 124086014.453 1      -903.213          35.250    23610699.427 1                      -676.700          23.000  
E26  23653732.835 1 124301370.112 1      -283.867          39.000    23651610.005 1  92813996.793 1      -212.032          36.000  
G 2  24249840.159 1 127433812.43411      1804.018          32.750                                                                  
G 3  22223760.884 1 116786723.451 1     -1785.625          31.750                                                                  
G 6  21633115.480 1 113682797.241 1      1025.010          34.000                                                                  
G14  20181278.465 1 106053398.134 1      -530.640          40.000                                                                  
G17  21734797.586 1 114217173.14811       623.610          30.500                                                                  
G19  22054898.285 1 115899324.246 1      1391.679          40.250                                                                  
G30  23637354.574 1 124215136.52411     -2741.620          34.750                                                                  
J 1  37415435.207 1                       -35.300          20.750    37412986.502 1 146816590.564 1       -31.008          30.000  
J 2  35952846.436 1 188933496.67911       143.028          27.750    35950490.967 1                       106.250          29.250  
J 3  39703596.946 1 208643723.585 1       299.438          32.250    39701264.860 1 155796285.266 1       223.613          35.750  
R 2  21832127.906 1                      2349.300          25.250  
R 3  23700971.133 1                      3511.100          25.500  
R14  20546297.368 1 109523287.68111     -3265.633          30.250  
R15  20080945.125 1 107306529.840 1       529.679          34.500  
R17  21009072.595 1 112423819.694 1      -728.654          34.500  
R18  22356372.879 1 119339905.78711       794.654          28.500  
> 2021  5 21  6 29 17.4322076  0 21                     
E 1  25230316.177 1 132586213.122 1      1668.732          41.250    25228193.646 1  99000849.644 1      1246.115          33.750  
E13  25339565.945 1 133160293.726 1     -1720.181          37.000    25337441.016 1  99429557.472 1     -1284.754          39.500  
E21  23612996.424 1 124086919.347 1      -903.940          37.000                                                                  
E26  23653784.687 1 124301653.865 1      -281.312          39.250    23651663.955 1  92814208.656 1      -209.992          34.500  
G 2  24249487.890 1 127432008.89011      1804.463          34.000                                                                  
G 3  22224097.538 1 116788509.61211     -1782.009          26.500                                                                  
G 6  21632918.503 1 113681773.203 1      1025.855          33.000                                                                  
G 9  25201402.093 1                      1599.000          22.000                                                                  
G14  20181377.084 1 106053930.447 1      -531.292          40.250                                                                  
G17  21734676.757 1 114216549.41311       626.642          27.000                                                                  
G19  22054632.956 1 115897931.847 1      1395.486          40.500                                                                  
G30  23637810.246 1 124217530.88211     -2748.199          34.750                                                                  
J 1  37415355.449 1                       -37.750          22.750    37412994.884 1 146816623.520 1       -32.879          28.750  
J 2  35952817.044 1 188933356.769 1       139.548          28.750    35950466.071 1 141077350.13311       104.079          29.000  
J 3  39703551.664 1 208643424.668 1       300.895          35.000    39701206.987 1 155796062.053 1       224.771          34.000  
R 2  21831707.584 1                      2346.000          24.750  
R 3  23700241.126 1                      3501.950          24.500  
R14  20546917.326 1 109526555.58111     -3267.986          28.750  
R15  20080838.086 1 107306000.949 1       530.850          33.250  
R17  21009202.992 1 112424547.926 1      -724.941          34.500  
R18  22356285.926 1                       793.950          26.000  
> 2021  5 21  6 29 18.4322075  0 22                     
E 1  25229966.149 1 132584383.315 1      1670.906          39.250    25227846.017 1  98999483.213 1      1247.424          33.500  
E13  25339859.272 1 133161852.958 1     -1717.902          35.250    25337737.941 1  99430721.845 1     -1282.734          39.500  
E21  23613136.557 1 124087664.152 1      -905.083          38.000    23611017.624 1                      -677.100          21.500  
E26  23653808.501 1 124301774.382 1      -279.493          38.750    23651686.270 1  92814298.637 1      -208.981          34.750  
G 2  24249117.777 1 127430045.370 1      1804.199          34.750                                                                  
G 3  22224410.053 1 116790129.53711     -1780.892          26.250                                                                  
G 4  25589629.260 1                      1329.250          24.250                                                                  
G 6  21632701.884 1 113680587.428 1      1026.292          34.500                                                                  
G 9  25201065.257 1                      1602.250          24.250                                                                  
G14  20181448.565 1 106054302.538 1      -532.091          40.000                                                                  
G17  21734570.162 1 114215762.74711       628.024          26.000                                                                  
G19  22054342.888 1 115896374.981 1      1398.537          40.250                                                                  
G30  23638335.013 1 124220121.192 1     -2750.570          32.750                                                                  
J 1  37415333.995 1                       -43.100          26.250    37412971.330 1 146816538.21911       -34.621          29.250  
J 2  35952746.123 1 188933059.08611       137.062          27.500    35950409.841 1 141077127.767 1       102.364          31.500  
J 3  39703462.756 1 208642963.949 1       302.213          36.000    39701118.979 1 155795717.646 1       225.631          35.500  
R 2  21831250.231 1                      2354.000          24.500  
R 3  23699636.275 1                      3519.400          24.500  
R14  20547530.532 1 109529662.79711     -3270.139          27.750  
R15  20080728.792 1 107305307.32311       531.696          30.500  
R17  21009308.950 1 112425108.709 1      -721.764          33.750  
R18  22356084.896 1 119338299.31611       800.525          29.000  
> 2021  5 21  6 29 19.4322075  0 22                     
E 1  25229650.068 1 132582712.003 1      1672.738          39.500    25227527.238 1  98998235.130 1      1249.066          32.500  
E13  25340189.243 1 133163570.714 1     -1716.159          34.000    25338064.914 1  99432004.666 1     -1281.501          39.500  
E21  23613308.838 1 124088570.115 1      -905.575          38.500    23611186.607 1                      -679.100          21.750  
E26  23653860.564 1 124302053.582 1      -277.789          39.250    23651739.533 1  92814507.126 1      -207.276          35.250  
G 2  24248790.903 1 127428241.44011      1804.725          28.500                                                                  
G 3  22224741.523 1 116791912.28011     -1782.411          26.500                                                                  
G 4  25589354.850 1                      1330.000          21.500                                                                  
G 6  21632501.522 1 113679561.576 1      1026.978          35.500                                                                  
G 9  25200751.274 1                      1598.700          22.500                                                                  
G14  20181552.493 1 106054835.759 1      -532.806          41.000                                                                  
G17  21734408.473 1 114215132.61011       631.440          27.000                                                                  
G19  22054070.876 1 115894975.848 1      1400.955          39.750                                                                  
G30  23638853.254 1                     -2740.500          34.750                                                                  
J 1  37415336.293 1                       -43.950          27.750    37412981.423 1 146816574.065 1       -35.883          31.500  
J 2  35952727.736 1 188932924.13011       134.998          27.500    35950383.059 1 141077026.705 1       101.173          30.750  
J 3  39703404.496 1 208642662.192 1       302.967          36.500    39701061.918 1 155795492.309 1       226.182          35.500  
R 2  21830952.737 1 116494146.20211      2350.395          27.250  
R 3  23699032.692 1                      3514.200          26.250  
R14  20548110.530 1 109532934.93511     -3269.814          27.000  
R15  20080627.362 1 107304776.20511       532.206          30.500  
R17  21009446.454 1 112425829.976 1      -719.477          34.250  
R18  22355924.407 1 119337498.90711       801.753          30.000  
> 2021  5 21  6 29 20.4322075  0 22                     
E 1  25229331.318 1 132581040.005 1      1673.988          38.000    25227209.686 1  98996986.581 1      1250.013          33.250  
E13  25340513.548 1 133165287.93211     -1715.347          33.500    25338391.617 1  99433286.978 1     -1281.091          40.500  
E21  23613482.646 1 124089477.690 1      -906.628          36.250    23611356.818 1                      -675.250          25.250  
E26  23653914.756 1 124302332.302 1      -276.712          38.750    23651793.125 1  92814715.313 1      -206.804          35.000  
G 2  24248496.136 1                      1809.750          23.000                                                                  
G 3  22225085.014 1 116793695.79611     -1783.807          31.500                                                                  
G 4  25589122.739 1                      1328.600          24.000                                                                  
G 6  21632299.091 1 113678536.304 1      1026.964          33.250                                                                  
G 9  25200344.385 1                      1562.750          22.500                                                                  
G14  20181651.953 1 106055370.758 1      -533.995          39.500                                                                  
G17  21734301.077 1 114214501.57111       633.674          25.750                                                                  
G19  22053807.287 1 115893575.492 1      1402.870          39.750                                                                  
G30  23639459.663 1                     -2722.600          36.000                                                                  
J 1  37415343.417 1                       -47.300          25.500    37412991.245 1 146816611.917 1       -37.424          31.500  
J 2  35952717.472 1 188932791.33311       133.781          26.750    35950358.105 1 141076927.533 1        99.404          32.250  
J 3  39703351.962 1 208642360.624 1       303.209          34.500    39701003.987 1 155795267.163 1       226.483          35.500  
R 2  21830568.932 1 116492098.13111      2367.379          29.000  
R 3  23698231.576 1                      3479.600          26.250  
R14  20548770.003 1                     -3265.200          26.000  
R15  20080516.968 1 107304245.66211       532.253          30.000  
R17  21009562.703 1 112426550.057 1      -717.341          34.250  
R18  22355775.939 1 119336698.437 1       803.393          29.500  
> 2021  5 21  6 29 21.4322074  0 20                     
E 1  25228984.460 1 132579207.414 1      1675.722          38.250    25226860.431 1  98995618.081 1      1251.799          34.000  
E13  25340812.443 1 133166844.82211     -1714.462          32.500    25338687.814 1  99434449.475 1     -1279.424          37.750  
E21  23613622.652 1 124090227.298 1      -907.496          36.000    23611504.018 1  92656612.60011      -677.497          25.000  
E26  23653938.442 1 124302450.687 1      -275.166          38.750    23651815.312 1  92814803.673 1      -205.398          35.750  
G 3  22225398.300 1 116795323.00911     -1785.130          30.250                                                                  
G 6  21632076.947 1 113677351.530 1      1027.651          32.250                                                                  
G 9  25200151.321 1                      1615.000          22.250                                                                  
G14  20181724.805 1 106055747.704 1      -534.796          39.500                                                                  
G17  21734119.405 1                       634.900          22.000                                                                  
G19  22053506.298 1 115892013.879 1      1405.280          39.500                                                                  
G30  23639844.599 1 124228221.47711     -2735.158          34.500                                                                  
J 1  37415325.132 1                       -47.350          25.000    37412970.862 1 146816532.581 1       -38.950          31.000  
J 2  35952656.916 1 188932500.43011       132.602          25.750    35950303.845 1 141076711.063 1        98.089          32.500  
J 3  39703261.127 1 208641899.636 1       303.875          33.250    39700916.450 1 155794922.900 1       226.938          35.500  
R 2  21829913.888 1                      2340.150          25.000  
R 3  23697546.552 1                      3481.100          26.250  
R14  20549312.629 1                     -3274.850          23.250  
R15  20080380.864 1 107303553.08811       532.755          28.750  
R17  21009691.016 1 112427105.935 1      -714.943          33.000  
R18  22355566.686 1 119335733.68711       805.263          28.250  
> 2021  5 21  6 29 22.4322074  0 21                     
E 1  25228661.992 1 132577527.416 1      1678.672          38.500    25226540.660 1  98994363.547 1      1253.884          34.000  
E13  25341139.925 1                     -1707.550          23.250    25339015.296 1                     -1280.350          24.500  
E21  23613797.539 1 124091131.918 1      -906.941          35.750    23611675.608 1  92657288.282 1      -676.904          23.250  
E26  23653987.117 1 124302721.911 1      -272.573          38.250    23651866.984 1  92815006.208 1      -203.218          35.250  
G 2  24247857.988 1                      1805.400          23.000                                                                  
G 3  22225739.572 1 116797105.15211     -1784.179          34.500                                                                  
G 4  25588594.915 1                      1330.600          19.750                                                                  
G 6  21631886.088 1 113676320.54611      1029.124          32.000                                                                  
G14  20181827.143 1 106056279.855 1      -534.127          39.250                                                                  
G17  21734022.380 1 114213057.55411       637.579          27.000                                                                  
G19  22053237.492 1 115890604.260 1      1408.790          39.250                                                                  
G30  23640371.742 1                     -2738.650          32.250                                                                  
J 1  37415350.723 1                       -44.400          22.250    37412979.664 1 146816570.009 1       -39.269          30.250  
J 2  35952639.936 1                       133.300          25.250    35950276.972 1 141076611.176 1        98.107          32.250  
J 3  39703197.379 1 208641592.355 1       305.917          33.500    39700857.799 1 155794693.446 1       228.420          34.750  
R 2  21829421.137 1                      2340.550          25.750  
R 3  23696878.124 1 126851243.25411      3477.866          27.500  
R14  20549941.403 1                     -3267.100          24.000  
R15  20080286.838 1 107303016.934 1       534.601          31.000  
R17  21009816.738 1 112427816.707 1      -711.589          34.000  
R18  22355436.684 1 119334924.05411       808.660          28.500  
> 2021  5 21  6 29 23.4322074  0 20                     
E 1  25228344.578 1 132575848.025 1      1679.803          38.750    25226222.348 1  98993109.427 1      1254.934          34.750  
E21  23613969.687 1 124092038.986 1      -907.314          36.750                                                                  
E26  23654041.146 1 124302993.767 1      -271.446          38.250    23651918.915 1  92815209.242 1      -202.260          35.250  
G 2  24247484.214 1                      1809.600          21.250                                                                  
G 3  22226091.895 1 116798886.83211     -1775.658          28.000                                                                  
G 6  21631691.290 1 113675291.50011      1029.727          31.000                                                                  
G 9  25199450.282 1                      1608.050          20.500                                                                  
G14  20181924.043 1 106056814.567 1      -534.935          39.250                                                                  
G17  21733895.036 1 114212419.15211       639.183          29.000                                                                  
G19  22052970.744 1 115889194.679 1      1410.324          39.500                                                                  
G30  23640909.937 1                     -2750.600          31.750                                                                  
J 1  37415406.851 1                       -19.400          23.000    37412989.324 1 146816609.884 1       -40.219          29.500  
J 2  35952610.923 1 188932245.15611       130.326          26.000    35950253.355 1 141076513.660 1        97.305          32.250  
J 3  39703150.079 1 208641286.459 1       306.173          32.500    39700800.306 1 155794465.007 1       228.546          34.500  
R 2  21829009.289 1                      2339.400          26.000  
R 3  23696246.228 1 126847766.25211      3476.496          28.250  
R14  20550540.455 1                     -3268.550          24.250  
R15  20080191.271 1 107302482.413 1       534.673          33.000  
R17  21009940.919 1 112428527.627 1      -710.198          36.000  
R18  22355267.968 1 119334114.90811       809.637          28.500  
> 2021  5 21  6 29 24.4322073  0 20                     
E 1  25227993.649 1 132574013.054 1      1675.896          39.000    25225872.917 1  98991739.167 1      1251.387          34.250  
E21  23614114.015 1 124092791.423 1      -911.454          37.000    23611995.381 1                      -678.200          20.000  
E26  23654063.458 1 124303110.029 1      -275.232          39.000    23651941.227 1  92815296.082 1      -205.884          35.250  
G 3  22226383.420 1                     -1788.300          36.500                                                                  
G 4  25588038.095 1                      1327.150          19.500                                                                  
G 6  21631456.979 1 113674107.420 1      1025.452          32.500                                                                  
G 9  25199204.879 1                      1598.600          23.500                                                                  
G14  20181997.919 1 106057194.821 1      -539.376          40.000                                                                  
G17  21733748.565 1 114211624.81611       634.165          29.500                                                                  
G19  22052672.878 1 115887629.095 1      1406.569          40.750                                                                  
G30  23641455.686 1                     -2730.950          35.500                                                                  
J 1  37415321.537 1                       -47.700          23.500    37412971.165 1 146816534.375 1       -42.849          29.250  
J 2  35952543.298 1 188931960.08011       126.183          27.250    35950198.321 1 141076300.793 1        94.438          31.750  
J 3  39703056.072 1 208640825.131 1       302.539          32.000    39700711.995 1 155794120.525 1       225.849          33.000  
R 2  21828590.007 1                      2335.250          24.000  
R 3  23695585.613 1                      3476.900          26.000  
R14  20551150.660 1 109549196.82411     -3281.510          27.000  
R15  20080052.894 1 107301790.474 1       529.801          33.750  
R17  21010054.667 1 112429079.774 1      -714.176          37.000  
R18  22355093.017 1 119333147.79411       806.631          29.000  
> 2021  5 21  6 29 25.4322073  0 20                     
E 1  25227676.537 1 132572340.777 1      1673.668          38.750    25225554.306 1  98990490.401 1      1249.586          34.500  
E21  23614286.464 1 124093706.027 1      -913.026          37.000    23612169.330 1                      -680.050          22.000  
E26  23654113.592 1 124303388.662 1      -277.233          39.000    23651994.060 1  92815504.175 1      -207.127          36.000  
G 3  22226732.747 1 116802268.76911     -1790.426          33.250                                                                  
G 4  25587790.835 1                      1320.700          21.250                                                                  
G 6  21631269.078 1 113673085.242 1      1023.530          32.750                                                                  
G 9  25198864.384 1                      1597.550          21.500                                                                  
G14  20182097.819 1 106057737.363 1      -540.974          39.500                                                                  
G17  21733629.915 1 114210993.745 1       633.299          29.000                                                                  
G19  22052405.831 1 115886225.988 1      1404.562          40.750                                                                  
G30  23641909.341 1                     -2750.150          31.500                                                                  
J 1  37415318.308 1                       -39.050          23.250    37412982.925 1 146816579.217 1       -43.157          29.000  
J 2  35952515.186 1 188931836.46611       124.501          26.500    35950174.107 1 141076208.429 1        93.834          32.750  
J 3  39703000.379 1 208640525.488 1       301.469          31.500    39700654.803 1 155793896.769 1       225.147          33.500  
R 2  21828117.903 1                      2334.950          23.000  
R 3  23694955.818 1                      3477.700          23.750  
R14  20551760.806 1 109552480.76511     -3282.160          28.000  
R15  20079960.327 1 107301264.420 1       527.226          34.000  
R17  21010198.936 1 112429797.265 1      -715.826          35.250  
R18  22354933.596 1 119332344.52311       803.566          27.500  
> 2021  5 21  6 29 26.4322073  0 21                     
E 1  25227358.011 1 132570664.770 1      1674.154          38.250    25225236.080 1  98989238.788 1      1250.640          34.500  
E21  23614460.497 1 124094616.175 1      -911.863          36.750    23612343.662 1                      -679.150          21.750  
E26  23654166.209 1 124303663.120 1      -276.190          39.000    23652046.676 1  92815709.163 1      -206.333          35.500  
G 2  24246451.778 1                      1810.500          20.250                                                                  
G 3  22227042.886 1                     -1781.500          21.750                                                                  
G 4  25587546.658 1                      1322.150          21.750                                                                  
G 6  21631069.869 1 113672058.37111      1025.081          32.500                                                                  
G 9  25198509.882 1                      1583.400          24.500                                                                  
G14  20182204.398 1 106058275.606 1      -539.738          40.000                                                                  
G17  21733513.449 1 114210357.31111       634.125          26.000                                                                  
G19  22052141.268 1 115884818.735 1      1405.651          41.250                                                                  
G30  23642442.825 1                     -2738.400          34.000                                                                  
J 1  37415358.634 1                       -50.650          26.500    37412992.672 1 146816619.971 1       -41.362          29.750  
J 2  35952507.245 1 188931708.50711       127.915          28.000    35950149.677 1 141076112.126 1        95.647          34.000  
J 3  39702948.069 1 208640220.978 1       303.326          32.000    39700597.096 1 155793669.401 1       226.412          33.250  
R 2  21827701.644 1                      2334.550          26.000  
R 3  23694288.933 1 126837383.15311      3477.328          27.250  
R14  20552356.048 1 109555761.38611     -3282.506          29.500  
R15  20079851.356 1 107300734.736 1       527.781          33.250  
R17  21010330.698 1 112430510.45111      -714.888          30.000  
R18  22354773.660 1                       805.950          26.250  
> 2021  5 21  6 29 27.4322072  0 19                     
E 1  25227010.189 1 132568832.484 1      1673.816          38.750    25224886.759 1  98987870.615 1      1250.335          35.000  
E21  23614603.136 1 124095369.422 1      -911.472          36.250    23612483.303 1                      -684.450          23.000  
E26  23654190.430 1 124303781.070 1      -276.267          38.500    23652068.799 1  92815797.167 1      -205.922          35.250  
G 4  25587256.096 1                      1324.350          22.500                                                                  
G 6  21630848.860 1 113670875.47611      1025.542          29.500                                                                  
G 9  25198244.204 1                      1587.350          23.750                                                                  
G14  20182273.888 1 106058657.260 1      -539.870          40.000                                                                  
G17  21733368.287 1                       625.750          23.750                                                                  
G19  22051843.512 1 115883255.176 1      1405.211          37.500                                                                  
G30  23642965.601 1 124244622.14711     -2737.194          33.750                                                                  
J 1  37415434.119 1 196619432.73011       -38.878          27.500    37412973.722 1 146816543.088 1       -40.993          29.500  
J 2  35952437.930 1 188931422.01511       129.025          28.000    35950096.251 1 141075898.149 1        96.225          33.000  
J 3  39702846.077 1 208639759.03611       303.321          31.500    39700507.995 1 155793324.848 1       226.533          33.000  
R 2  21827236.904 1                      2334.500          23.500  
R 3  23693602.645 1 126833745.07011      3478.016          27.000  
R14  20552957.369 1 109558881.76511     -3281.088          29.000  
R15  20079734.075 1 107300046.506 1       527.047          34.250  
R17  21010469.740 1                      -731.700          21.750  
R18  22354647.385 1                       805.600          25.250  
> 2021  5 21  6 29 28.4322072  0 17                     
E 1  25226688.556 1 132567159.429 1      1672.847          38.250    25224568.424 1  98986621.250 1      1249.264          36.250  
E21  23614773.761 1 124096281.285 1      -911.828          36.750    23612659.325 1                      -675.950          22.250  
E26  23654245.636 1 124304057.839 1      -276.910          38.500    23652121.906 1  92816003.903 1      -206.680          34.500  
G 6  21630665.731 1 113669849.94411      1025.233          29.250                                                                  
G 9  25197963.342 1                      1591.750          24.000                                                                  
G14  20182377.960 1 106059197.930 1      -540.826          39.500                                                                  
G17  21733236.423 1                       630.850          24.500                                                                  
G19  22051574.942 1 115881850.790 1      1404.410          33.500                                                                  
G30  23643464.799 1                     -2742.700          32.500                                                                  
J 1  37415337.030 1                       -50.450          25.000    37412985.159 1 146816584.322 1       -41.158          26.250  
J 2  35952420.586 1 188931291.70411       136.017          29.000    35950070.813 1 141075802.150 1        96.430          30.500  
J 3  39702789.760 1 208639456.806 1       301.830          31.250    39700451.079 1 155793099.082 1       225.368          33.250  
R 3  23692957.236 1 126830265.51111      3479.361          28.750  
R14  20553558.797 1                     -3271.350          29.250  
R15  20079632.489 1 107299520.306 1       526.245          35.500  
R17  21010638.267 1                      -729.800          21.000  
R18  22354465.455 1                       804.800          25.250  
> 2021  5 21  6 29 29.4322071  0 17                     
E 1  25226341.092 1 132565329.543 1      1672.100          36.500    25224219.761 1  98985254.706 1      1248.804          36.500  
E21  23614920.655 1 124097035.428 1      -911.325          35.500    23612797.825 1                      -678.950          22.250  
E26  23654264.818 1 124304177.275 1      -276.955          35.250    23652144.086 1  92816093.056 1      -206.549          33.500  
G 6  21630430.989 1 113668667.25411      1026.864          35.500                                                                  
G 9  25197616.478 1                      1607.550          21.750                                                                  
G14  20182456.501 1 106059581.744 1      -541.418          39.000                                                                  
G17  21733085.922 1 114208136.89111       629.042          26.000                                                                  
G19  22051271.847 1 115880289.645 1      1403.073          30.000                                                                  
G30  23643987.033 1 124249990.14211     -2725.692          34.750                                                                  
J 1  37415285.162 1                       -56.900          22.500    37412965.967 1                       -45.050          27.500  
J 2  35952366.019 1 188930994.97711       137.899          29.000    35950015.347 1 141075587.89411        97.188          29.500  
J 3  39702706.713 1 208639000.03011       298.089          30.750    39700364.134 1 155792756.982 1       223.572          34.750  
R 2  21826259.320 1                      2335.900          19.750  
R 3  23692258.415 1                      3484.950          26.250  
R14  20554160.176 1 109565239.65611     -3267.591          30.500  
R15  20079511.968 1 107298834.292 1       526.135          34.250  
R18  22354306.260 1                       807.300          23.750  
> 2021  5 21  6 29 30.4322071  0 16                     
E 1  25226024.970 1 132563658.231 1      1671.784          35.500    25223902.439 1  98984006.608 1      1248.369          37.250  
E21  23615095.293 1 124097946.426 1      -909.291          33.500    23612968.865 1  92662360.90411      -678.792          24.250  
E26  23654322.237 1                      -275.850          25.500    23652197.008 1  92816300.305 1      -206.530          33.250  
