$GNRMC,062844.00,A,2218.10911,N,11411.41229,E,0.081,,210521,,,A*67
$GNVTG,,T,,M,0.081,N,0.150,K,A*30
$GNGGA,062844.00,2218.10911,N,11411.41229,E,1,09,0.80,-31.3,M,-1.6,M,,*40
$GNGSA,A,3,01,14,17,28,22,19,06,30,03,,,,1.67,0.80,1.47*10
$GPGSV,3,1,10,01,11,042,10,03,37,057,20,04,02,110,,06,45,265,25*7C
$GPGSV,3,2,10,14,83,151,21,17,47,359,24,19,36,326,25,22,13,042,09*7D
$GPGSV,3,3,10,28,75,330,22,30,21,200,19*7A
$GNGLL,2218.10911,N,11411.41229,E,062844.00,A,A*72
$GNZDA,062844.00,21,05,2021,00,00*73
$GNVTG,,T,,M,0.079,N,0.147,K,A*31
$GNGGA,062845.00,2218.10902,N,11411.41237,E,1,08,0.80,-31.2,M,-1.6,M,,*4C
$GNGSA,A,3,14,17,28,22,19,06,30,03,,,,,1.67,0.80,1.47*11
$GPGSV,3,1,10,01,11,042,07,03,37,057,20,04,02,110,,06,45,265,25*7A
$GPGSV,3,2,10,14,83,151,20,17,47,359,24,19,36,326,25,22,13,042,10*74
$GPGSV,3,3,10,28,75,330,22,30,21,200,19*7A
$GNGLL,2218.10902,N,11411.41237,E,062845.00,A,A*7E
$GNZDA,062845.00,21,05,2021,00,00*72
$GNVTG,,T,,M,0.077,N,0.143,K,A*3B
$GNGGA,062846.00,2218.10894,N,11411.41244,E,1,09,0.80,-31.0,M,-1.6,M,,*46
$GNGSA,A,3,01,14,17,28,22,19,06,30,03,,,,1.67,0.80,1.47*10
$GPGSV,3,1,10,01,11,042,10,03,37,057,20,04,02,110,,06,45,265,25*7C
$GPGSV,3,2,10,14,83,151,20,17,47,359,24,19,36,326,24,22,13,042,09*7D
$GPGSV,3,3,10,28,75,330,22,30,21,200,20*70
$GNGLL,2218.10894,N,11411.41244,E,062846.00,A,A*77
$GNZDA,062846.00,21,05,2021,00,00*71
$GNVTG,,T,,M,0.076,N,0.140,K,A*39
$GNGGA,062847.00,2218.10885,N,11411.41250,E,1,09,0.80,-30.8,M,-1.6,M,,*4B
$GNGSA,A,3,01,14,17,28,22,19,06,30,03,,,,1.67,0.80,1.47*10
$GPGSV,3,1,10,01,11,042,10,03,37,057,20,04,02,110,,06,45,265,24*7D
$GPGSV,3,2,10,14,83,151,20,17,47,359,24,19,36,326,24,22,13,042,11*74
$GPGSV,3,3,10,28,75,330,22,30,21,200,19*7A
$GNGLL,2218.10885,N,11411.41250,E,062847.00,A,A*73
$GNZDA,062847.00,21,05,2021,00,00*70
$GNVTG,,T,,M,0.074,N,0.137,K,A*3B
$GNGGA,062848.00,2218.10878,N,11411.41255,E,1,09,0.80,-30.7,M,-1.6,M,,*4C
$GNGSA,A,3,01,14,17,28,22,19,06,30,03,,,,1.67,0.80,1.47*10
$GPGSV,3,1,10,01,11,042,09,03,37,057,19,04,02,110,,06,45,265,23*78
$GPGSV,3,2,10,14,83,151,19,17,47,359,23,19,36,326,22,22,13,042,09*76
$GPGSV,3,3,10,28,75,330,21,30,21,200,18*78
$GNGLL,2218.10878,N,11411.41255,E,062848.00,A,A*7B
$GNZDA,062848.00,21,05,2021,00,00*7F
$GNVTG,,T,,M,0.073,N,0.135,K,A*3E
$GNGGA,062849.00,2218.10872,N,11411.41259,E,1,07,0.80,-30.6,M,-1.6,M,,*44
$GNGSA,A,3,14,17,28,19,06,30,03,,,,,,1.67,0.80,1.47*11
$GPGSV,3,1,10,01,11,042,08,03,37,057,19,04,02,110,,06,45,265,23*79
$GPGSV,3,2,10,14,83,151,20,17,47,359,23,19,36,326,22,22,13,042,07*72
$GPGSV,3,3,10,28,75,330,20,30,21,200,19*78
$GNGLL,2218.10872,N,11411.41259,E,062849.00,A,A*7C
$GNZDA,062849.00,21,05,2021,00,00*7E
$GNVTG,,T,,M,0.071,N,0.132,K,A*3B
$GNGGA,062850.00,2218.10864,N,11411.41265,E,1,08,0.80,-30.5,M,-1.6,M,,*48
$GNGSA,A,3,14,17,28,22,19,06,30,03,,,,,1.67,0.80,1.47*11
$GPGSV,3,1,10,01,11,042,08,03,37,057,19,04,02,110,,06,45,265,23*79
$GPGSV,3,2,10,14,83,151,20,17,47,359,22,19,36,326,22,22,13,042,11*74
$GPGSV,3,3,10,28,75,330,20,30,21,200,18*79
$GNGLL,2218.10864,N,11411.41265,E,062850.00,A,A*7C
$GNZDA,062850.00,21,05,2021,00,00*76
$GNVTG,,T,,M,0.070,N,0.129,K,A*30
$GNGGA,062851.00,2218.10857,N,11411.41269,E,1,09,0.80,-30.3,M,-1.6,M,,*42
$GNGSA,A,3,01,14,17,28,22,19,06,30,03,,,,1.67,0.80,1.47*10
$GPGSV,3,1,10,01,11,042,11,03,37,057,19,04,02,110,,06,45,265,23*71
$GPGSV,3,2,10,14,83,151,19,17,47,359,22,19,36,326,22,22,13,042,11*7E
$GPGSV,3,3,10,28,75,330,20,30,21,200,17*76
$GNGLL,2218.10857,N,11411.41269,E,062851.00,A,A*71
$GNZDA,062851.00,21,05,2021,00,00*77
$GNVTG,,T,,M,0.069,N,0.127,K,A*36
$GNGGA,062852.00,2218.10850,N,11411.41271,E,1,08,0.80,-30.2,M,-1.6,M,,*4F
$GNGSA,A,3,01,14,17,28,19,06,30,03,,,,,1.67,0.80,1.47*10
$GPGSV,3,1,10,01,11,042,09,03,37,057,17,04,02,110,,06,45,265,22*77
$GPGSV,3,2,10,14,83,151,18,17,47,359,21,19,36,326,21,22,13,042,10*7E
$GPGSV,3,3,10,28,75,330,20,30,21,200,16*77
$GNGLL,2218.10850,N,11411.41271,E,062852.00,A,A*7C
$GNZDA,062852.00,21,05,2021,00,00*74
$GNVTG,,T,,M,0.067,N,0.125,K,A*3A
$GNGGA,062853.00,2218.10844,N,11411.41272,E,1,07,0.80,-30.1,M,-1.6,M,,*44
$GNGSA,A,3,14,17,28,19,06,30,03,,,,,,1.67,0.80,1.47*11
$GPGSV,3,1,10,01,11,042,08,03,37,057,17,04,02,110,,06,45,265,22*76
$GPGSV,3,2,10,14,83,151,19,17,47,359,20,19,36,326,22,22,13,042,09*75
$GPGSV,3,3,10,28,75,330,21,30,21,200,17*77
$GNGLL,2218.10844,N,11411.41272,E,062853.00,A,A*7B
$GNZDA,062853.00,21,05,2021,00,00*75
$GNVTG,,T,,M,0.066,N,0.122,K,A*3C
$GNGGA,062854.00,2218.10836,N,11411.41274,E,1,07,0.80,-29.9,M,-1.6,M,,*40
$GNGSA,A,3,14,17,28,19,06,30,03,,,,,,1.67,0.80,1.47*11
$GPGSV,3,1,10,01,11,042,08,03,37,057,19,04,02,110,,06,45,265,25*7F
$GPGSV,3,2,10,14,83,151,21,17,47,359,23,19,36,326,25,22,13,042,09*7A
$GPGSV,3,3,10,28,75,330,22,30,21,200,19*7A
$GNGLL,2218.10836,N,11411.41274,E,062854.00,A,A*7F
$GNZDA,062854.00,21,05,2021,00,00*72
$GNRMC,062855.00,A,2218.10827,N,11411.41275,E,0.064,,210521,,,A*61
$GNVTG,,T,,M,0.064,N,0.119,K,A*36
$GNGGA,062855.00,2218.10827,N,11411.41275,E,1,08,0.80,-29.7,M,-1.6,M,,*41
$GNGSA,A,3,01,14,17,28,19,06,30,03,,,,,1.67,0.80,1.47*10
$GPGSV,3,1,10,01,11,042,11,03,37,057,21,04,02,110,,06,45,265,27*7E
$GPGSV,3,2,10,14,83,151,23,17,47,359,25,19,36,326,25,22,13,042,08*7F
$GPGSV,3,3,10,28,75,330,23,30,21,200,20*71
$GNGLL,2218.10827,N,11411.41275,E,062855.00,A,A*7F
$GNZDA,062855.00,21,05,2021,00,00*73
$GNVTG,,T,,M,0.063,N,0.117,K,A*3F
$GNGGA,062856.00,2218.10817,N,11411.41271,E,1,08,0.80,-29.3,M,-1.6,M,,*41
$GNGSA,A,3,01,14,17,28,19,06,30,03,,,,,1.67,0.80,1.47*10
$GPGSV,3,1,10,01,11,042,10,03,37,057,23,04,02,110,,06,45,265,31*7A
$GPGSV,3,2,10,14,83,151,26,17,47,359,31,19,36,326,27,22,13,042,07*72
$GPGSV,3,3,10,28,75,330,24,30,21,200,24*72
$GNGLL,2218.10817,N,11411.41271,E,062856.00,A,A*7B
$GNZDA,062856.00,21,05,2021,00,00*70
$Ï§ùAâ«D
$GNVTG,,T,,M,0.062,N,0.115,K,A*3C
$GNGGA,062857.00,2218.10813,N,11411.41270,E,1,08,0.86,-29.1,M,-1.6,M,,*41
$GNGSA,A,3,01,14,17,28,19,06,30,03,,,,,1.76,0.86,1.54*14
$GPGSV,3,1,10,01,11,042,09,03,37,057,23,04,02,110,,06,45,265,25*77
$GPGSV,3,2,10,14,83,151,25,17,47,359,29,19,36,326,27,22,13,042,10*7E
$GPGSV,3,3,10,28,75,330,23,30,21,200,23*72
$GNGLL,2218.10813,N,11411.41270,E,062857.00,A,A*7F
$GNZDA,062857.00,21,05,2021,00,00*71
$GNVTG,,T,,M,0.062,N,0.114,K,A*3D
$GNGGA,062858.00,2218.10808,N,11411.41268,E,1,08,0.80,-28.8,M,-1.6,M,,*43
$GNGSA,A,3,01,14,17,28,19,06,30,03,,,,,1.67,0.80,1.47*10
$GPGSV,3,1,10,01,11,042,09,03,37,057,21,04,02,110,,06,45,265,26*76
$GPGSV,3,2,10,14,83,151,25,17,47,359,29,19,36,326,27,22,13,042,08*77
$GPGSV,3,3,10,28,75,330,23,30,21,200,23*72
$GNGLL,2218.10808,N,11411.41268,E,062858.00,A,A*73
$GNZDA,062858.00,21,05,2021,00,00*7E
$GNVTG,,T,,M,0.061,N,0.114,K,A*3E
$GNGGA,062859.00,2218.10808,N,11411.41266,E,1,07,0.80,-28.5,M,-1.6,M,,*4E
$GNGSA,A,3,14,17,28,19,06,30,03,,,,,,1.67,0.80,1.47*11
$GPGSV,3,1,10,01,11,042,04,03,37,057,20,04,02,110,,06,45,265,27*7B
$GPGSV,3,2,10,14,83,151,26,17,47,359,29,19,36,326,27,22,13,042,09*75
$GPGSV,3,3,10,28,75,330,23,30,21,200,24*75
$GNGLL,2218.10808,N,11411.41266,E,062859.00,A,A*7C
$GNZDA,062859.00,21,05,2021,00,00*7F
$GNVTG,,T,,M,0.062,N,0.115,K,A*3C
$GNGGA,062900.00,2218.10813,N,11411.41263,E,1,08,0.80,-28.4,M,-1.6,M,,*42
$GNGSA,A,3,01,14,17,28,19,06,30,03,,,,,1.67,0.80,1.47*10
$GPGSV,3,1,10,01,11,042,09,03,37,057,17,04,02,110,,06,45,265,27*72
$GPGSV,3,2,10,14,83,151,26,17,47,359,29,19,36,326,27,22,13,042,12*7F
$GPGSV,3,3,10,28,75,330,23,30,21,200,23*72
$GNGLL,2218.10813,N,11411.41263,E,062900.00,A,A*7E
$GNZDA,062900.00,21,05,2021,00,00*72
$GNVTG,,T,,M,0.063,N,0.117,K,A*3F
$GNGGA,062901.00,2218.10818,N,11411.41257,E,1,07,0.88,-28.5,M,-1.6,M,,*49
$GNGSA,A,3,14,17,28,19,06,30,03,,,,,,1.93,0.88,1.72*14
$GPGSV,3,1,10,01,11,042,10,03,37,057,16,04,02,110,,06,45,265,28*74
$GPGSV,3,2,10,14,83,151,27,17,47,359,31,19,36,326,29,22,13,042,09*73
$GPGSV,3,3,10,28,75,330,25,30,21,200,25*72
$GNGLL,2218.10818,N,11411.41257,E,062901.00,A,A*73
$GNZDA,062901.00,21,05,2021,00,00*73
$GNVTG,,T,,M,0.068,N,0.126,K,A*36
$GNGGA,062902.00,2218.10849,N,11411.41252,E,1,07,0.80,-28.7,M,-1.6,M,,*41
$GNGSA,A,3,14,17,28,19,06,30,03,,,,,,1.67,0.80,1.47*11
$GPGSV,3,1,10,01,11,042,06,03,37,057,16,04,03,109,,06,45,265,31*72
$GPGSV,3,2,10,14,83,151,29,17,47,359,33,19,36,326,31,22,13,042,07*78
$GPGSV,3,3,10,28,75,330,27,30,21,200,27*72
$GNGLL,2218.10849,N,11411.41252,E,062902.00,A,A*71
$GNZDA,062902.00,21,05,2021,00,00*70
$GNVTG,,T,,M,0.073,N,0.134,K,A*3F
$GNGGA,062903.00,2218.10874,N,11411.41231,E,1,07,0.92,-29.2,M,-1.6,M,,*4C
$GNGSA,A,3,14,17,28,19,06,30,03,,,,,,1.95,0.92,1.72*19
$GPGSV,3,1,10,01,11,042,07,03,37,057,22,04,03,109,,06,45,265,32*77
$GPGSV,3,2,10,14,83,151,31,17,47,359,34,19,36,326,32,22,13,042,09*7B
$GPGSV,3,3,10,28,75,330,28,30,21,200,28*72
$GNGLL,2218.10874,N,11411.41231,E,062903.00,A,A*7B
$GNZDA,062903.00,21,05,2021,00,00*71
$GNVTG,,T,,M,0.077,N,0.142,K,A*3A
$GNGGA,062904.00,2218.10897,N,11411.41212,E,1,08,1.61,-30.2,M,-1.6,M,,*4D
$GNGSA,A,3,14,17,28,22,19,06,30,03,,,,,3.42,1.61,3.02*19
$GPGSV,3,1,10,01,11,042,08,03,37,057,23,04,03,109,,06,45,265,32*79
$GPGSV,3,2,10,14,83,152,31,17,47,359,33,19,36,326,32,22,13,042,11*76
$GPGSV,3,3,10,28,75,330,29,30,21,200,28*73
$GNGLL,2218.10897,N,11411.41212,E,062904.00,A,A*70
$GNZDA,062904.00,21,05,2021,00,00*76
$GNVTG,,T,,M,0.082,N,0.151,K,A*32
$GNGGA,062905.00,2218.10924,N,11411.41193,E,1,08,1.61,-31.1,M,-1.6,M,,*4D
$GNGSA,A,3,14,17,28,22,19,06,30,03,,,,,3.42,1.61,3.02*19
$GPGSV,3,1,10,01,11,042,08,03,37,057,25,04,03,109,,06,45,265,31*7C
$GPGSV,3,2,10,14,83,152,30,17,48,360,33,19,36,326,31,22,13,042,09*78
$GPGSV,3,3,10,28,75,330,28,30,21,200,27*7D
$GNGLL,2218.10924,N,11411.41193,E,062905.00,A,A*72
$GNZDA,062905.00,21,05,2021,00,00*77
$GNVTG,,T,,M,0.087,N,0.161,K,A*34
$GNGGA,062906.00,2218.10955,N,11411.41173,E,1,08,1.61,-32.3,M,-1.6,M,,*47
$GNGSA,A,3,01,14,17,28,22,19,06,03,,,,,3.42,1.61,3.02*1B
$GPGSV,3,1,10,01,11,042,09,03,37,057,23,04,03,109,,06,45,265,31*7B
$GPGSV,3,2,10,14,83,152,30,17,48,360,33,19,37,327,31,22,13,042,10*70
$GPGSV,3,3,10,28,75,330,28,30,21,200,*78
$GNGLL,2218.10955,N,11411.41173,E,062906.00,A,A*79
$GNZDA,062906.00,21,05,2021,00,00*74
$GNVTG,,T,,M,0.093,N,0.173,K,A*32
$GNGGA,062907.00,2218.10989,N,11411.41138,E,1,07,1.61,-33.5,M,-1.6,M,,*40
$GNGSA,A,3,14,17,28,22,19,06,03,,,,,,3.43,1.61,3.02*1B
$GPGSV,3,1,10,01,11,042,06,03,37,057,31,04,03,109,,06,45,265,32*74
$GPGSV,3,2,10,14,83,152,32,17,48,360,34,19,37,327,32,22,13,042,09*7E
$GPGSV,3,3,10,28,75,330,28,30,21,200,27*7D
$GNGLL,2218.10989,N,11411.41138,E,062907.00,A,A*76
$GNZDA,062907.00,21,05,2021,00,00*75
$GNVTG,,T,,M,0.100,N,0.186,K,A*33
$GNGGA,062908.00,2218.11033,N,11411.41118,E,1,09,2.32,-35.1,M,-1.6,M,,*4D
$GNGSA,A,3,01,14,17,28,22,19,06,30,03,,,,5.62,2.32,5.12*1E
$GPGSV,3,1,10,01,11,042,09,03,37,057,24,04,03,109,,06,45,265,33*7E
$GPGSV,3,2,10,14,83,152,33,17,48,360,34,19,37,327,32,22,13,042,10*77
$GPGSV,3,3,10,28,76,329,29,30,21,200,29*79
$GNGLL,2218.11033,N,11411.41118,E,062908.00,A,A*72
$GNZDA,062908.00,21,05,2021,00,00*7A
$GNVTG,,T,,M,0.107,N,0.198,K,A*3B
$GNGGA,062909.00,2218.11071,N,11411.41098,E,1,09,1.56,-36.6,M,-1.6,M,,*46
$GNGSA,A,3,01,14,17,28,22,19,06,30,03,,,,2.59,1.56,2.07*13
$GPGSV,3,1,10,01,11,042,09,03,37,057,20,04,03,109,,06,45,265,32*7B
$GPGSV,3,2,10,14,83,152,32,17,48,360,29,19,37,327,32,22,13,042,09*72
$GPGSV,3,3,10,28,76,329,29,30,20,200,28*79
$GNGLL,2218.11071,N,11411.41098,E,062909.00,A,A*7C
$GNZDA,062909.00,21,05,2021,00,00*7B
$GNVTG,,T,,M,0.112,N,0.208,K,A*35
$GNGGA,062910.00,2218.11108,N,11411.41082,E,1,09,1.35,-37.4,M,-1.6,M,,*4C
$GNGSA,A,3,01,14,17,28,22,19,06,30,03,,,,2.37,1.35,1.95*16
$GPGSV,3,1,10,01,11,042,10,03,37,057,17,04,03,109,,06,45,265,32*77
$GPGSV,3,2,10,14,83,152,31,17,48,360,21,19,37,327,27,22,13,042,09*7D
$GPGSV,3,3,10,28,76,329,28,30,20,200,28*78
$GNGLL,2218.11108,N,11411.41082,E,062910.00,A,A*70
$GNZDA,062910.00,21,05,2021,00,00*73
$GNVTG,,T,,M,0.118,N,0.219,K,A*3F
$GNGGA,062911.00,2218.11143,N,11411.41057,E,1,07,1.38,-38.6,M,-1.6,M,,*44
$GNGSA,A,3,01,14,17,28,19,06,30,,,,,,3.27,1.38,2.97*19
$GPGSV,3,1,10,01,11,042,09,03,37,057,10,04,03,109,,06,45,265,32*78
$GPGSV,3,2,10,14,83,152,31,17,48,360,22,19,37,327,26,22,13,042,08*7E
$GPGSV,3,3,10,28,76,329,29,30,20,200,29*78
$GNGLL,2218.11143,N,11411.41057,E,062911.00,A,A*76
$GNZDA,062911.00,21,05,2021,00,00*72
$GNVTG,338.03,T,,M,9.541,N,17.671,K,A*17
$GNGGA,062912.00,2218.12897,N,11411.40066,E,1,07,1.38,-40.8,M,-1.6,M,,*46
$GNGSA,A,3,14,17,28,22,19,06,30,,,,,,3.27,1.38,2.97*18
$GPGSV,3,1,10,01,11,042,08,03,37,057,08,04,03,109,,06,45,265,34*76
$GPGSV,3,2,10,14,83,152,31,17,48,360,21,19,37,327,24,22,13,042,10*76
$GPGSV,3,3,10,28,76,329,29,30,20,200,29*78
$GNGLL,2218.12897,N,11411.40066,E,062912.00,A,A*75
$GNZDA,062912.00,21,05,2021,00,00*71
$GNRMC,062913.00,A,2218.13378,N,11411.39766,E,9.321,324.38,210521,,,A*73
$GNVTG,324.38,T,,M,9.321,N,17.263,K,A*15
$GNGGA,062913.00,2218.13378,N,11411.39766,E,1,07,1.38,-34.7,M,-1.6,M,,*49
$GNGSA,A,3,01,14,17,28,19,06,30,,,,,,3.27,1.38,2.97*19
$GPGSV,3,1,10,01,11,042,10,03,37,057,08,04,03,109,,06,45,265,35*7E
$GPGSV,3,2,10,14,83,152,32,17,48,360,21,19,37,327,26,22,13,042,08*7E
$GPGSV,3,3,10,28,76,329,32,30,20,200,30*7A
$GNGLL,2218.13378,N,11411.39766,E,062913.00,A,A*76
$GNZDA,062913.00,21,05,2021,00,00*70
$GNVTG,317.07,T,,M,8.600,N,15.928,K,A*18
$GNGGA,062914.00,2218.13682,N,11411.39381,E,1,08,1.24,-18.3,M,-1.6,M,,*4B
$GNGSA,A,3,01,14,17,28,22,19,06,30,,,,,2.30,1.24,1.94*13
$GPGSV,3,1,10,01,11,042,12,03,37,057,07,04,03,109,,06,45,265,34*72
$GPGSV,3,2,10,14,83,152,31,17,48,360,19,19,37,327,33,22,13,042,11*7A
$GPGSV,3,3,10,28,76,329,31,30,20,200,30*79
$GNGLL,2218.13682,N,11411.39381,E,062914.00,A,A*7C
$GNZDA,062914.00,21,05,2021,00,00*77
$GNVTG,309.78,T,,M,8.032,N,14.874,K,A*11
$GNGGA,062915.00,2218.13872,N,11411.38980,E,1,08,1.00,-4.9,M,-1.6,M,,*70
$GNGSA,A,3,01,14,17,28,22,19,06,30,,,,,1.91,1.00,1.62*14
$GPGSV,3,1,10,01,11,042,09,03,37,057,08,04,03,109,,06,45,265,34*77
$GPGSV,3,2,10,14,83,152,32,17,48,360,17,19,37,327,34,22,13,042,12*73
$GPGSV,3,3,10,28,76,329,32,30,20,200,28*73
$GNGLL,2218.13872,N,11411.38980,E,062915.00,A,A*76
$GNZDA,062915.00,21,05,2021,00,00*76
$GNVTG,302.21,T,,M,7.343,N,13.599,K,A*15
$GNGGA,062916.00,2218.13941,N,11411.38722,E,1,07,1.00,-0.6,M,-1.6,M,,*70
$GNGSA,A,3,01,14,17,28,19,06,30,,,,,,1.91,1.00,1.62*14
$GPGSV,3,1,10,01,11,042,12,03,37,057,08,04,03,109,,06,45,265,33*7A
$GPGSV,3,2,10,14,83,152,33,17,48,360,13,19,37,327,33,22,13,042,07*75
$GPGSV,3,3,10,28,76,329,32,30,20,200,28*73
$GNGLL,2218.13941,N,11411.38722,E,062916.00,A,A*72
$GNZDA,062916.00,21,05,2021,00,00*75
$GNVTG,291.53,T,,M,6.988,N,12.941,K,A*1F
$GNGGA,062917.00,2218.13924,N,11411.38433,E,1,07,1.00,0.5,M,-1.6,M,,*5F
$GNGSA,A,3,01,14,17,28,19,06,30,,,,,,1.91,1.00,1.62*14
$GPGSV,3,1,10,01,11,042,09,03,37,057,08,04,03,109,,06,45,265,33*70
$GPGSV,3,2,10,14,83,152,34,17,48,360,13,19,37,327,33,22,13,042,*75
$GPGSV,3,3,10,28,76,329,31,30,20,200,29*71
$GNGLL,2218.13924,N,11411.38433,E,062917.00,A,A*73
$GNZDA,062917.00,21,05,2021,00,00*74
$GNVTG,279.63,T,,M,7.061,N,13.077,K,A*18
$GNGGA,062918.00,2218.13806,N,11411.38143,E,1,06,1.00,1.9,M,-1.6,M,,*5F
$GNGSA,A,3,14,17,28,19,06,30,,,,,,,1.91,1.00,1.62*15
$GPGSV,3,1,10,01,11,042,07,03,37,057,08,04,03,109,,06,45,265,35*78
$GPGSV,3,2,10,14,83,152,34,17,48,360,13,19,37,327,34,22,13,042,*72
$GPGSV,3,3,10,28,76,329,31,30,20,200,30*79
$GNGLL,2218.13806,N,11411.38143,E,062918.00,A,A*7F
$GNZDA,062918.00,21,05,2021,00,00*7B
$GNVTG,271.34,T,,M,7.073,N,13.100,K,A*10
$GNGGA,062919.00,2218.13710,N,11411.37924,E,1,06,1.00,2.1,M,-1.6,M,,*5B
$GNGSA,A,3,14,17,28,19,06,30,,,,,,,1.91,1.00,1.62*15
$GPGSV,3,1,10,01,11,042,08,03,37,057,09,04,03,109,,06,45,265,35*76
$GPGSV,3,2,10,14,83,152,33,17,48,360,30,19,37,327,33,22,13,042,*73
$GPGSV,3,3,10,28,76,329,32,30,20,200,31*7B
$GNGLL,2218.13710,N,11411.37924,E,062919.00,A,A*70
$GNZDA,062919.00,21,05,2021,00,00*7A
$GNVTG,265.32,T,,M,7.247,N,13.421,K,A*10
$GNGGA,062920.00,2218.13619,N,11411.37665,E,1,07,1.00,2.6,M,-1.6,M,,*55
$GNGSA,A,3,01,14,17,28,19,06,30,,,,,,1.91,1.00,1.62*14
$GPGSV,3,1,10,01,11,042,10,03,37,057,,04,03,109,,06,45,265,34*77
$GPGSV,3,2,10,14,83,152,32,17,48,360,31,19,37,327,33,22,13,042,*73
$GPGSV,3,3,10,28,76,329,31,30,20,200,31*78
$GNGLL,2218.13619,N,11411.37665,E,062920.00,A,A*78
$GNZDA,062920.00,21,05,2021,00,00*70
$GNVTG,260.00,T,,M,7.450,N,13.797,K,A*1A
$GNGGA,062921.00,2218.13496,N,11411.37431,E,1,07,0.87,2.8,M,-1.6,M,,*52
$GNGSA,A,3,01,14,17,28,19,06,30,,,,,,1.73,0.87,1.50*17
$GPGSV,3,1,10,01,11,042,10,03,37,057,,04,03,109,,06,45,265,34*77
$GPGSV,3,2,10,14,83,152,32,17,48,360,31,19,37,327,32,22,13,042,*72
$GPGSV,3,3,10,28,76,329,31,30,20,200,31*78
$GNGLL,2218.13496,N,11411.37431,E,062921.00,A,A*7F
$GNZDA,062921.00,21,05,2021,00,00*71
$GNVTG,256.28,T,,M,7.514,N,13.917,K,A*12
$GNGGA,062922.00,2218.13366,N,11411.37204,E,1,07,1.00,3.4,M,-1.6,M,,*5A
$GNGSA,A,3,01,14,17,28,19,06,30,,,,,,1.91,1.00,1.62*14
$GPGSV,3,1,10,01,11,042,10,03,37,057,,04,03,109,,06,45,265,34*77
$GPGSV,3,2,10,14,83,152,32,17,48,360,32,19,37,327,32,22,13,042,*71
$GPGSV,3,3,10,28,76,329,31,30,20,200,31*78
$GNGLL,2218.13366,N,11411.37204,E,062922.00,A,A*74
$GNZDA,062922.00,21,05,2021,00,00*72
$GNVTG,253.56,T,,M,7.514,N,13.916,K,A*1F
$GNGGA,062923.00,2218.13240,N,11411.37004,E,1,06,1.00,3.1,M,-1.6,M,,*58
$GNGSA,A,3,14,17,28,19,06,30,,,,,,,1.91,1.00,1.62*15
$GPGSV,3,1,10,01,11,042,08,03,37,057,,04,03,109,,06,45,265,34*7E
$GPGSV,3,2,10,14,83,152,32,17,48,360,31,19,37,327,33,22,13,042,*73
$GPGSV,3,3,10,28,76,329,31,30,20,200,30*79
$GNGLL,2218.13240,N,11411.37004,E,062923.00,A,A*72
$GNZDA,062923.00,21,05,2021,00,00*73
$GNVTG,251.69,T,,M,7.453,N,13.803,K,A*16
$GNGGA,062924.00,2218.13128,N,11411.36811,E,1,07,0.87,3.5,M,-1.6,M,,*54
$GNGSA,A,3,01,14,17,28,19,06,30,,,,,,1.73,0.87,1.50*17
$GPGSV,3,1,10,01,11,042,11,03,37,057,22,04,03,109,,06,45,265,35*77
$GPGSV,3,2,10,14,83,152,32,17,48,360,32,19,37,327,33,22,13,042,*70
$GPGSV,3,3,10,28,76,329,31,30,20,200,22*7A
$GNGLL,2218.13128,N,11411.36811,E,062924.00,A,A*75
$GNZDA,062924.00,21,05,2021,00,00*74
$GNVTG,250.30,T,,M,7.366,N,13.642,K,A*11
$GNGGA,062925.00,2218.13015,N,11411.36624,E,1,08,0.80,4.1,M,-1.6,M,,*59
$GNGSA,A,3,01,14,17,28,19,06,30,03,,,,,1.67,0.80,1.47*10
$GPGSV,3,1,10,01,11,042,10,03,37,057,27,04,03,109,,06,45,265,34*72
$GPGSV,3,2,10,14,83,152,32,17,48,360,32,19,37,327,32,22,13,042,*71
$GPGSV,3,3,10,28,76,329,31,30,20,200,23*7B
$GNGLL,2218.13015,N,11411.36624,E,062925.00,A,A*73
$GNZDA,062925.00,21,05,2021,00,00*75
$GNVTG,249.14,T,,M,7.345,N,13.604,K,A*1C
$GNGGA,062926.00,2218.12909,N,11411.36451,E,1,08,0.80,4.2,M,-1.6,M,,*5C
$GNGSA,A,3,01,14,17,28,19,06,30,03,,,,,1.67,0.80,1.47*10
$GPGSV,3,1,10,01,11,042,10,03,37,057,28,04,03,109,,06,45,265,34*7D
$GPGSV,3,2,10,14,83,152,31,17,48,360,31,19,37,327,32,22,13,042,*71
$GPGSV,3,3,10,28,76,329,31,30,20,200,25*7D
$GNGLL,2218.12909,N,11411.36451,E,062926.00,A,A*75
$GNZDA,062926.00,21,05,2021,00,00*76
$GNVTG,248.32,T,,M,7.361,N,13.633,K,A*1B
$GNGGA,062927.00,2218.12811,N,11411.36262,E,1,08,0.80,3.9,M,-1.6,M,,*5F
$GNGSA,A,3,01,14,17,28,19,06,30,03,,,,,1.67,0.80,1.47*10
$GPGSV,3,1,10,01,11,042,09,03,37,057,27,04,03,109,,06,45,265,30*7E
$GPGSV,3,2,10,14,83,152,25,17,48,360,30,19,37,327,30,22,13,042,*77
$GPGSV,3,3,10,28,76,329,30,30,20,200,25*7C
$GNGLL,2218.12811,N,11411.36262,E,062927.00,A,A*7A
$GNZDA,062927.00,21,05,2021,00,00*77
$GNVTG,247.75,T,,M,7.403,N,13.710,K,A*14
$GNGGA,062928.00,2218.12713,N,11411.36056,E,1,08,0.86,3.7,M,-1.6,M,,*50
$GNGSA,A,3,01,14,17,28,19,06,30,03,,,,,1.76,0.86,1.53*13
$GPGSV,3,1,10,01,11,042,10,03,37,057,26,04,03,109,,06,45,265,19*7C
$GPGSV,3,2,10,14,83,152,27,17,48,360,29,19,37,327,29,22,13,042,13*77
$GPGSV,3,3,10,28,76,329,28,30,20,200,25*75
$GNGLL,2218.12713,N,11411.36056,E,062928.00,A,A*7D
$GNZDA,062928.00,21,05,2021,00,00*78
$GNVTG,247.44,T,,M,7.420,N,13.742,K,A*10
$GNGGA,062929.00,2218.12626,N,11411.35850,E,1,08,0.80,3.0,M,-1.6,M,,*5A
$GNGSA,A,3,01,14,17,28,19,06,30,03,,,,,1.67,0.80,1.47*10
$GPGSV,3,1,10,01,11,042,12,03,37,057,24,04,03,109,,06,45,265,16*73
$GPGSV,3,2,10,14,83,152,26,17,48,360,25,19,37,327,26,22,13,042,12*74
$GPGSV,3,3,10,28,76,329,25,30,20,200,22*7F
$GNGLL,2218.12626,N,11411.35850,E,062929.00,A,A*76
$GNZDA,062929.00,21,05,2021,00,00*79
$GNVTG,247.31,T,,M,7.436,N,13.771,K,A*15
$GNGGA,062930.00,2218.12539,N,11411.35639,E,1,08,0.80,2.2,M,-1.6,M,,*5D
$GNGSA,A,3,01,14,17,28,19,06,30,03,,,,,1.67,0.80,1.47*10
$GPGSV,3,1,10,01,11,042,10,03,37,057,22,04,03,109,,06,45,265,17*76
$GPGSV,3,2,10,14,83,152,26,17,48,360,25,19,37,327,25,22,13,042,14*71
$GPGSV,3,3,10,28,76,329,24,30,20,200,18*77
$GNGLL,2218.12539,N,11411.35639,E,062930.00,A,A*72
$GNZDA,062930.00,21,05,2021,00,00*71
$GNVTG,247.27,T,,M,7.449,N,13.795,K,A*10
$GNGGA,062931.00,2218.12454,N,11411.35428,E,1,08,0.80,1.4,M,-1.6,M,,*51
$GNGSA,A,3,01,14,17,28,19,06,30,03,,,,,1.67,0.80,1.47*10
$GPGSV,3,1,10,01,11,042,11,03,37,057,18,04,03,109,,06,45,265,16*7F
$GPGSV,3,2,10,14,83,152,25,17,48,360,23,19,37,327,23,22,13,042,11*77
$GPGSV,3,3,10,28,76,329,21,30,20,200,13*79
$GNGLL,2218.12454,N,11411.35428,E,062931.00,A,A*7B
$GNZDA,062931.00,21,05,2021,00,00*70
$GNVTG,247.30,T,,M,7.462,N,13.820,K,A*1E
$GNGGA,062932.00,2218.12372,N,11411.35213,E,1,08,0.80,0.7,M,-1.6,M,,*5D
$GNGSA,A,3,01,14,17,28,19,06,30,03,,,,,1.67,0.80,1.47*10
$GPGSV,3,1,10,01,11,042,10,03,37,057,17,04,03,109,,06,45,265,14*73
$GPGSV,3,2,10,14,83,152,24,17,48,360,22,19,37,327,23,22,13,042,09*7E
$GPGSV,3,3,10,28,76,329,21,30,20,200,12*78
$GNGLL,2218.12372,N,11411.35213,E,062932.00,A,A*75
$GNZDA,062932.00,21,05,2021,00,00*73
$GNVTG,247.40,T,,M,7.471,N,13.836,K,A*1C
$GNGGA,062933.00,2218.12298,N,11411.34996,E,1,08,0.80,0.1,M,-1.6,M,,*58
$GNGSA,A,3,01,14,17,28,19,06,30,03,,,,,1.67,0.80,1.47*10
$GPGSV,3,1,10,01,11,042,09,03,37,057,18,04,03,109,,06,45,265,13*73
$GPGSV,3,2,10,14,83,152,24,17,48,360,23,19,37,327,23,22,13,042,09*7F
$GPGSV,3,3,10,28,76,329,22,30,20,200,10*79
$GNGLL,2218.12298,N,11411.34996,E,062933.00,A,A*76
$GNZDA,062933.00,21,05,2021,00,00*72
$GNVTG,247.58,T,,M,7.467,N,13.828,K,A*1D
$GNGGA,062934.00,2218.12232,N,11411.34778,E,1,06,0.88,-0.6,M,-1.6,M,,*7D
$GNGSA,A,3,14,17,28,19,06,03,,,,,,,1.93,0.88,1.72*17
$GPGSV,3,1,10,01,11,042,12,03,37,057,21,04,03,109,,06,45,265,20*73
$GPGSV,3,2,10,14,83,152,23,17,48,360,25,19,37,327,26,22,13,042,09*7B
$GPGSV,3,3,10,28,76,329,23,30,20,200,08*71
$GNGLL,2218.12232,N,11411.34778,E,062934.00,A,A*7F
$GNZDA,062934.00,21,05,2021,00,00*75
$GNVTG,247.90,T,,M,7.483,N,13.859,K,A*15
$GNGGA,062935.00,2218.12178,N,11411.34542,E,1,06,0.88,-1.5,M,-1.6,M,,*78
$GNGSA,A,3,14,17,28,19,06,03,,,,,,,1.93,0.88,1.72*17
$GPGSV,3,1,10,01,11,042,11,03,37,057,22,04,03,109,,06,45,265,21*72
$GPGSV,3,2,10,14,83,152,23,17,48,360,25,19,37,327,26,22,13,042,09*7B
$GPGSV,3,3,10,28,76,329,23,30,20,200,09*70
$GNGLL,2218.12178,N,11411.34542,E,062935.00,A,A*78
$GNZDA,062935.00,21,05,2021,00,00*74
$GNVTG,248.20,T,,M,7.481,N,13.856,K,A*1C
$GNGGA,062936.00,2218.12116,N,11411.34324,E,1,06,0.92,-2.2,M,-1.6,M,,*7A
$GNGSA,A,3,14,17,28,19,06,03,,,,,,,1.98,0.92,1.76*13
$GPGSV,3,2,10,14,83,152,21,17,48,360,23,19,37,327,24,22,13,042,09*7D
$GPGSV,3,3,10,28,76,329,21,30,20,200,08*73
$GNGLL,2218.12116,N,11411.34324,E,062936.00,A,A*75
$GNZDA,062936.00,21,05,2021,00,00*77
$GNVTG,248.44,T,,M,7.468,N,13.831,K,A*18
$GNGGA,062937.00,2218.12059,N,11411.34112,E,1,06,0.92,-3.0,M,-1.6,M,,*75
$GNGSA,A,3,14,17,28,19,06,03,,,,,,,1.98,0.92,1.76*13
$GPGSV,3,1,10,01,11,042,07,03,37,057,20,04,03,109,,06,45,265,23*75
$GPGSV,3,2,10,14,83,152,22,17,48,360,22,19,37,327,23,22,13,042,10*70
$GPGSV,3,3,10,28,76,329,20,30,20,200,08*72
$GNGLL,2218.12059,N,11411.34112,E,062937.00,A,A*79
$GNZDA,062937.00,21,05,2021,00,00*76
$GNVTG,248.65,T,,M,7.451,N,13.800,K,A*13
$GNGGA,062938.00,2218.12004,N,11411.33902,E,1,06,0.92,-4.0,M,-1.6,M,,*7B
$GNGSA,A,3,14,17,28,19,06,03,,,,,,,1.98,0.92,1.76*13
$GPGSV,3,1,10,01,11,042,10,03,37,057,21,04,03,109,,06,45,265,25*74
$GPGSV,3,2,10,14,83,152,22,17,48,360,24,19,37,327,25,22,13,042,12*72
$GPGSV,3,3,10,28,76,329,21,30,20,200,08*73
$GNGLL,2218.12004,N,11411.33902,E,062938.00,A,A*70
$GNZDA,062938.00,21,05,2021,00,00*79
$GNVTG,248.81,T,,M,7.421,N,13.743,K,A*16
$GNGGA,062939.00,2218.11949,N,11411.33703,E,1,06,1.11,-5.3,M,-1.6,M,,*7E
$GNGSA,A,3,14,17,28,19,06,03,,,,,,,2.66,1.11,2.42*1F
$GPGSV,3,1,10,01,11,042,10,03,37,057,21,04,03,109,,06,45,265,26*77
$GPGSV,3,2,10,14,83,152,23,17,48,360,25,19,37,327,26,22,13,042,12*71
$GPGSV,3,3,10,28,76,329,22,30,20,200,08*70
$GNGLL,2218.11949,N,11411.33703,E,062939.00,A,A*7D
$GNZDA,062939.00,21,05,2021,00,00*78
$GNVTG,248.95,T,,M,7.384,N,13.675,K,A*1F
$GNGGA,062940.00,2218.11897,N,11411.33511,E,1,07,1.62,-6.9,M,-1.6,M,,*7F
$GNGSA,A,3,01,14,17,28,19,06,03,,,,,,3.44,1.62,3.03*1F
$GPGSV,3,1,10,01,11,042,09,03,37,057,22,04,03,109,,06,45,265,27*7D
$GPGSV,3,2,10,14,83,152,24,17,48,360,26,19,37,327,27,22,13,042,12*74
$GPGSV,3,3,10,28,76,329,24,30,20,200,07*79
$GNGLL,2218.11897,N,11411.33511,E,062940.00,A,A*70
$GNZDA,062940.00,21,05,2021,00,00*76
$GNVTG,249.15,T,,M,7.245,N,13.418,K,A*13
$GNGGA,062941.00,2218.11872,N,11411.33368,E,1,08,1.62,-8.5,M,-1.6,M,,*70
$GNGSA,A,3,01,14,17,28,22,19,06,03,,,,,3.44,1.62,3.03*1F
$GPGSV,3,1,10,01,11,042,10,03,37,057,22,04,03,109,,06,45,265,27*75
$GPGSV,3,2,10,14,83,152,23,17,48,360,26,19,37,327,26,22,13,042,12*72
$GPGSV,3,3,10,28,76,329,24,30,20,200,07*79
$GNGLL,2218.11872,N,11411.33368,E,062941.00,A,A*72
$GNZDA,062941.00,21,05,2021,00,00*77
$GNVTG,249.37,T,,M,7.111,N,13.170,K,A*1A
$GNGGA,062942.00,2218.11849,N,11411.33230,E,1,09,1.62,-10.2,M,-1.6,M,,*48
$GNGSA,A,3,01,14,17,28,22,19,06,30,03,,,,3.44,1.62,3.04*1B
$GPGSV,3,1,10,01,11,043,09,03,37,057,21,04,03,109,,06,45,265,27*7F
$GPGSV,3,2,10,14,83,152,24,17,48,360,26,19,37,327,26,22,13,042,11*76
$GPGSV,3,3,10,28,76,329,24,30,20,200,13*7C
$GNGLL,2218.11849,N,11411.33230,E,062942.00,A,A*75
$GNZDA,062942.00,21,05,2021,00,00*74
$GNVTG,249.56,T,,M,7.044,N,13.045,K,A*1B
$GNGGA,062943.00,2218.11810,N,11411.33068,E,1,07,1.62,-11.6,M,-1.6,M,,*41
$GNGSA,A,3,01,14,17,28,19,06,03,,,,,,3.44,1.62,3.04*18
$GPGSV,3,1,10,01,11,043,09,03,36,056,20,04,03,109,,06,45,265,27*7E
$GPGSV,3,2,10,14,83,152,24,17,48,360,25,19,37,327,26,22,13,042,09*7C
$GPGSV,3,3,10,28,76,329,24,30,20,200,07*79
$GNGLL,2218.11810,N,11411.33068,E,062943.00,A,A*77
$GNZDA,062943.00,21,05,2021,00,00*75
$GNVTG,249.72,T,,M,6.952,N,12.876,K,A*1B
$GNGGA,062944.00,2218.11781,N,11411.32922,E,1,06,1.62,-13.1,M,-1.6,M,,*43
$GNGSA,A,3,14,17,28,19,06,03,,,,,,,3.44,1.62,3.04*19
$GPGSV,3,1,10,01,11,043,08,03,36,056,21,04,03,109,,06,45,265,28*71
$GPGSV,3,2,10,14,83,152,27,17,48,360,26,19,37,327,27,22,13,042,08*7C
$GPGSV,3,3,10,28,76,329,25,30,20,200,08*77
$GNGLL,2218.11781,N,11411.32922,E,062944.00,A,A*71
$GNZDA,062944.00,21,05,2021,00,00*72
$GNVTG,249.76,T,,M,6.834,N,12.657,K,A*13
$GNGGA,062945.00,2218.11750,N,11411.32804,E,1,06,1.62,-13.7,M,-1.6,M,,*4D
$GNGSA,A,3,14,17,28,19,06,03,,,,,,,3.44,1.62,3.04*19
$GPGSV,3,1,10,01,11,043,08,03,36,056,23,04,03,109,,06,45,266,30*79
$GPGSV,3,2,10,14,83,152,30,17,48,360,27,19,37,327,28,22,13,042,07*7B
$GPGSV,3,3,10,28,76,329,26,30,20,200,08*74
$GNGLL,2218.11750,N,11411.32804,E,062945.00,A,A*79
$GNZDA,062945.00,21,05,2021,00,00*73
$GNVTG,249.70,T,,M,6.604,N,12.231,K,A*1C
$GNGGA,062946.00,2218.11726,N,11411.32758,E,1,07,1.62,-13.8,M,-1.6,M,,*47
$GNGSA,A,3,01,14,17,28,19,06,03,,,,,,3.44,1.62,3.04*18
$GPGSV,3,1,10,01,11,043,10,03,36,056,25,04,03,109,,06,45,266,31*77
$GPGSV,3,2,10,14,82,153,29,17,48,360,28,19,37,327,28,22,13,042,07*7C
$GPGSV,3,3,10,28,76,329,27,30,20,200,07*7A
$GNGLL,2218.11726,N,11411.32758,E,062946.00,A,A*7D
$GNZDA,062946.00,21,05,2021,00,00*70
$GNVTG,249.64,T,,M,6.357,N,11.772,K,A*1B
$GNGGA,062947.00,2218.11716,N,11411.32724,E,1,06,1.62,-14.4,M,-1.6,M,,*44
$GNGSA,A,3,14,17,28,19,06,03,,,,,,,3.44,1.62,3.04*19
$GPGSV,3,1,10,01,11,043,07,03,36,056,26,04,03,109,,06,45,266,29*7B
$GPGSV,3,2,10,14,82,153,28,17,48,000,28,19,37,327,28,22,13,042,08*77
$GPGSV,3,3,10,28,76,329,26,30,20,200,07*7B
$GNGLL,2218.11716,N,11411.32724,E,062947.00,A,A*74
$GNZDA,062947.00,21,05,2021,00,00*71
$GNVTG,249.63,T,,M,5.963,N,11.044,K,A*10
$GNGGA,062948.00,2218.11743,N,11411.32778,E,1,08,0.99,-17.1,M,-1.6,M,,*4F
$GNGSA,A,3,01,14,17,28,19,06,30,03,,,,,1.86,0.99,1.57*16
$GPGSV,3,1,10,01,11,043,12,03,36,056,28,04,03,109,,06,45,266,29*71
$GPGSV,3,2,10,14,82,153,28,17,48,000,29,19,37,327,29,22,13,042,08*77
$GPGSV,3,3,10,28,76,329,27,30,20,200,11*7D
$GNGLL,2218.11743,N,11411.32778,E,062948.00,A,A*72
$GNZDA,062948.00,21,05,2021,00,00*7E
$GNVTG,249.63,T,,M,5.629,N,10.426,K,A*10
$GNGGA,062949.00,2218.11760,N,11411.32804,E,1,08,1.62,-19.4,M,-1.6,M,,*45
$GNGSA,A,3,01,14,17,28,19,06,30,03,,,,,3.44,1.62,3.04*1B
$GPGSV,3,1,10,01,11,043,09,03,36,056,28,04,03,109,,06,45,266,29*7B
$GPGSV,3,2,10,14,82,153,28,17,48,000,29,19,37,327,28,22,12,042,09*76
$GPGSV,3,3,10,28,76,329,27,30,20,200,11*7D
$GNGLL,2218.11760,N,11411.32804,E,062949.00,A,A*76
$GNZDA,062949.00,21,05,2021,00,00*7F
$GNVTG,249.64,T,,M,5.335,N,9.881,K,A*26
$GNGGA,062950.00,2218.11773,N,11411.32823,E,1,08,0.89,-21.6,M,-1.6,M,,*47
$GNGSA,A,3,01,14,17,28,19,06,30,03,,,,,1.74,0.89,1.50*1D
$GPGSV,3,1,10,01,11,043,11,03,36,056,28,04,03,109,,06,45,266,29*72
$GPGSV,3,2,10,14,82,153,28,17,48,000,29,19,37,327,29,22,12,042,09*77
$GPGSV,3,3,10,28,76,329,27,30,20,200,11*7D
$GNGLL,2218.11773,N,11411.32823,E,062950.00,A,A*79
$GNZDA,062950.00,21,05,2021,00,00*77
$GNVTG,249.66,T,,M,5.076,N,9.400,K,A*25
$GNGGA,062951.00,2218.11781,N,11411.32827,E,1,09,0.89,-23.7,M,-1.6,M,,*4D
$GNGSA,A,3,01,14,17,28,22,19,06,30,03,,,,1.74,0.89,1.50*1D
$GPGSV,3,1,10,01,11,043,09,03,36,056,28,04,03,109,,06,45,266,29*7B
$GPGSV,3,2,10,14,82,153,28,17,48,000,30,19,37,327,29,22,12,042,10*77
$GPGSV,3,3,10,28,76,329,27,30,20,200,10*7C
$GNGLL,2218.11781,N,11411.32827,E,062951.00,A,A*71
$GNZDA,062951.00,21,05,2021,00,00*76
$GNVTG,249.65,T,,M,4.846,N,8.974,K,A*23
$GNGGA,062952.00,2218.11784,N,11411.32828,E,1,09,1.11,-25.7,M,-1.6,M,,*42
$GNGSA,A,3,01,14,17,28,22,19,06,30,03,,,,2.66,1.11,2.42*1D
$GPGSV,3,1,10,01,11,043,13,03,36,056,28,04,03,109,,06,45,266,29*70
$GPGSV,3,2,10,14,82,153,28,17,48,000,30,19,37,327,30,22,12,042,10*7F
$GPGSV,3,3,10,28,76,329,27,30,20,200,10*7C
$GNGLL,2218.11784,N,11411.32828,E,062952.00,A,A*78
$GNZDA,062952.00,21,05,2021,00,00*75
$GNVTG,249.62,T,,M,4.633,N,8.580,K,A*2F
$GNGGA,062953.00,2218.11784,N,11411.32829,E,1,09,0.91,-27.7,M,-1.6,M,,*49
$GNGSA,A,3,01,14,17,28,22,19,06,30,03,,,,1.81,0.91,1.57*19
$GPGSV,3,1,10,01,11,043,13,03,36,056,28,04,03,109,,06,45,266,29*70
$GPGSV,3,2,10,14,82,153,28,17,48,000,30,19,37,327,30,22,12,042,11*7E
$GPGSV,3,3,10,28,76,329,27,30,20,200,12*7E
$GNGLL,2218.11784,N,11411.32829,E,062953.00,A,A*78
$GNZDA,062953.00,21,05,2021,00,00*74
$GNVTG,249.59,T,,M,4.435,N,8.214,K,A*29
$GNGGA,062954.00,2218.11784,N,11411.32828,E,1,09,0.85,-29.4,M,-1.6,M,,*47
$GNGSA,A,3,01,14,17,28,22,19,06,30,03,,,,1.70,0.85,1.47*13
$GPGSV,3,1,10,01,11,043,12,03,36,056,28,04,03,109,,06,45,266,30*79
$GPGSV,3,2,10,14,82,153,29,17,48,000,30,19,37,327,30,22,12,042,11*7F
$GPGSV,3,3,10,28,76,329,27,30,20,200,12*7E
$GNGLL,2218.11784,N,11411.32828,E,062954.00,A,A*7E
$GNZDA,062954.00,21,05,2021,00,00*73
$GNVTG,249.51,T,,M,4.264,N,7.896,K,A*2C
$GNGGA,062955.00,2218.11778,N,11411.32821,E,1,08,1.11,-30.9,M,-1.6,M,,*44
$GNGSA,A,3,01,14,17,28,19,06,30,03,,,,,2.66,1.11,2.42*1D
$GPGSV,3,1,10,01,11,043,12,03,36,056,28,04,03,109,20,06,45,266,30*7B
$GPGSV,3,2,10,14,82,153,28,17,48,000,30,19,37,327,30,22,12,042,10*7F
$GPGSV,3,3,10,28,76,329,27,30,20,200,09*74
$GNGLL,2218.11778,N,11411.32821,E,062955.00,A,A*75
$GNZDA,062955.00,21,05,2021,00,00*72
$GNVTG,249.39,T,,M,4.112,N,7.615,K,A*25
$GNGGA,062956.00,2218.11766,N,11411.32810,E,1,08,0.85,-32.3,M,-1.6,M,,*4E
$GNGSA,A,3,01,14,17,28,19,06,30,03,,,,,1.70,0.85,1.47*13
$GPGSV,3,1,10,01,11,043,13,03,36,056,28,04,03,109,18,06,45,266,29*79
$GPGSV,3,2,10,14,82,153,28,17,48,000,29,19,37,327,30,22,12,042,09*7F
$GPGSV,3,3,10,28,76,329,26,30,20,200,10*7D
$GNGLL,2218.11766,N,11411.32810,E,062956.00,A,A*7B
$GNZDA,062956.00,21,05,2021,00,00*71
$GNVTG,249.27,T,,M,3.966,N,7.346,K,A*25
$GNGGA,062957.00,2218.11756,N,11411.32800,E,1,08,0.85,-33.6,M,-1.6,M,,*49
$GNGSA,A,3,01,14,17,28,19,06,30,03,,,,,1.70,0.85,1.47*13
$GPGSV,3,1,10,01,11,043,10,03,36,056,28,04,03,109,18,06,45,266,29*7A
$GPGSV,3,2,10,14,82,153,28,17,48,000,29,19,37,327,31,22,12,042,09*7E
$GPGSV,3,3,10,28,76,329,26,30,20,200,14*79
$GNGLL,2218.11756,N,11411.32800,E,062957.00,A,A*78
$GNZDA,062957.00,21,05,2021,00,00*70
$GNVTG,249.18,T,,M,3.835,N,7.103,K,A*2D
$GNGGA,062958.00,2218.11746,N,11411.32785,E,1,08,1.62,-34.9,M,-1.6,M,,*45
$GNGSA,A,3,01,14,17,28,19,06,30,03,,,,,3.45,1.62,3.04*1A
$GPGSV,3,1,10,01,11,043,11,03,36,056,27,04,03,109,17,06,45,266,29*7B
$GPGSV,3,2,10,14,82,153,28,17,48,000,29,19,37,327,30,22,12,042,07*71
$GPGSV,3,3,10,28,76,329,25,30,20,200,09*76
$GNGLL,2218.11746,N,11411.32785,E,062958.00,A,A*74
$GNZDA,062958.00,21,05,2021,00,00*7F
$GNVTG,249.08,T,,M,3.712,N,6.875,K,A*2F
$GNGGA,062959.00,2218.11738,N,11411.32774,E,1,08,0.99,-36.2,M,-1.6,M,,*4F
$GNGSA,A,3,01,14,17,28,19,06,30,03,,,,,1.86,0.99,1.57*16
$GPGSV,3,1,10,01,11,043,11,03,36,056,27,04,03,109,17,06,45,266,29*7B
$GPGSV,3,2,10,14,82,153,28,17,48,000,29,19,37,327,30,22,12,042,07*71
$GPGSV,3,3,10,28,76,329,25,30,20,200,10*7E
$GNGLL,2218.11738,N,11411.32774,E,062959.00,A,A*72
$GNZDA,062959.00,21,05,2021,00,00*7E
$GNVTG,248.99,T,,M,3.594,N,6.657,K,A*24
$GNGGA,063000.00,2218.11731,N,11411.32764,E,1,07,0.97,-37.4,M,-1.6,M,,*45
$GNGSA,A,3,01,14,17,28,19,06,03,,,,,,2.01,0.97,1.75*17
$GPGSV,3,1,10,01,11,043,11,03,36,056,27,04,03,109,18,06,45,266,30*7C
$GPGSV,3,2,10,14,82,153,28,17,48,000,29,19,37,327,30,22,12,042,07*71
$GPGSV,3,3,10,28,76,329,26,30,20,200,07*7B
$GNGLL,2218.11731,N,11411.32764,E,063000.00,A,A*7E
$GNZDA,063000.00,21,05,2021,00,00*7A
$GNVTG,248.92,T,,M,3.485,N,6.454,K,A*2F
$GNGGA,063001.00,2218.11724,N,11411.32752,E,1,08,1.62,-38.7,M,-1.6,M,,*4D
$GNGSA,A,3,01,14,17,28,19,06,30,03,,,,,3.45,1.62,3.04*1A
$GPGSV,3,1,10,01,11,043,13,03,36,056,27,04,03,109,18,06,45,266,30*7E
$GPGSV,3,2,10,14,82,153,28,17,48,000,29,19,37,327,30,22,12,042,07*71
$GPGSV,3,3,10,28,76,329,26,30,20,200,09*75
$GNGLL,2218.11724,N,11411.32752,E,063001.00,A,A*7E
$GNZDA,063001.00,21,05,2021,00,00*7B
$GNVTG,248.82,T,,M,3.385,N,6.268,K,A*20
$GNGGA,063002.00,2218.11716,N,11411.32742,E,1,07,0.99,-39.8,M,-1.6,M,,*4A
$GNGSA,A,3,14,17,28,19,06,30,03,,,,,,1.86,0.99,1.57*17
$GPGSV,3,1,10,01,11,043,08,03,36,056,27,04,03,109,19,06,45,266,29*7D
$GPGSV,3,2,10,14,82,153,28,17,48,000,29,19,37,327,30,22,12,042,08*7E
$GPGSV,3,3,10,28,76,329,25,30,20,200,09*76
$GNGLL,2218.11716,N,11411.32742,E,063002.00,A,A*7D
$GNZDA,063002.00,21,05,2021,00,00*78
$GNVTG,248.73,T,,M,3.284,N,6.081,K,A*2B
$GNGGA,063003.00,2218.11710,N,11411.32737,E,1,08,0.99,-41.0,M,-1.6,M,,*47
$GNGSA,A,3,01,14,17,28,19,06,30,03,,,,,1.86,0.99,1.57*16
$GPGSV,3,1,10,01,11,043,14,03,36,056,28,04,03,109,19,06,45,266,30*77
$GPGSV,3,2,10,14,82,153,28,17,48,000,29,19,37,327,30,22,12,042,08*7E
$GPGSV,3,3,10,28,76,329,25,30,20,200,10*7E
$GNGLL,2218.11710,N,11411.32737,E,063003.00,A,A*78
$GNZDA,063003.00,21,05,2021,00,00*79
$GNVTG,248.64,T,,M,3.185,N,5.898,K,A*2C
$GNGGA,063004.00,2218.11705,N,11411.32734,E,1,08,0.97,-41.8,M,-1.6,M,,*41
$GNGSA,A,3,01,14,17,28,19,06,30,03,,,,,2.00,0.97,1.75*15
$GPGSV,3,1,10,01,11,043,11,03,36,056,28,04,03,109,20,06,45,266,31*79
$GPGSV,3,2,10,14,82,153,28,17,48,000,29,19,37,327,31,22,12,042,08*7F
$GPGSV,3,3,10,28,76,329,27,30,20,200,11*7D
$GNGLL,2218.11705,N,11411.32734,E,063004.00,A,A*78
$GNZDA,063004.00,21,05,2021,00,00*7E
$GNVTG,248.53,T,,M,3.094,N,5.731,K,A*25
$GNGGA,063005.00,2218.11701,N,11411.32718,E,1,08,0.87,-42.4,M,-1.6,M,,*44
$GNGSA,A,3,01,14,17,28,19,06,30,03,,,,,1.77,0.87,1.54*14
$GPGSV,3,1,10,01,11,043,14,03,36,056,28,04,03,109,21,06,45,266,30*7C
$GPGSV,3,2,10,14,82,153,28,17,48,000,29,19,37,327,30,22,12,042,08*7E
$GPGSV,3,3,10,28,76,329,26,30,20,200,09*75
$GNGLL,2218.11701,N,11411.32718,E,063005.00,A,A*73
$GNZDA,063005.00,21,05,2021,00,00*7F
$GNVTG,248.40,T,,M,3.010,N,5.574,K,A*28
$GNGGA,063006.00,2218.11697,N,11411.32695,E,1,07,0.92,-42.9,M,-1.6,M,,*4B
$GNGSA,A,3,01,14,17,28,19,06,03,,,,,,1.95,0.92,1.72*1B
$GPGSV,3,1,10,01,11,043,10,03,36,056,29,04,03,109,20,06,45,266,30*78
$GPGSV,3,2,10,14,82,153,28,17,48,000,29,19,37,327,30,22,12,042,07*71
$GPGSV,3,3,10,28,76,329,26,30,20,200,08*74
$GNGLL,2218.11697,N,11411.32695,E,063006.00,A,A*7A
$GNZDA,063006.00,21,05,2021,00,00*7C
$GNVTG,248.31,T,,M,2.932,N,5.430,K,A*27
$GNGGA,063007.00,2218.11696,N,11411.32666,E,1,08,1.08,-43.1,M,-1.6,M,,*43
$GNGSA,A,3,01,14,17,28,19,06,30,03,,,,,2.36,1.08,2.10*17
$GPGSV,3,1,10,01,11,043,10,03,36,056,29,04,03,109,20,06,45,266,30*78
$GPGSV,3,2,10,14,82,153,28,17,48,000,29,19,37,327,30,22,12,042,08*7E
$GPGSV,3,3,10,28,76,329,26,30,20,200,13*7E
$GNGLL,2218.11696,N,11411.32666,E,063007.00,A,A*76
$GNZDA,063007.00,21,05,2021,00,00*7D
$GNVTG,248.23,T,,M,2.860,N,5.297,K,A*29
$GNGGA,063008.00,2218.11693,N,11411.32634,E,1,09,0.83,-43.3,M,-1.6,M,,*4F
$GNGSA,A,3,01,14,17,28,22,19,06,30,03,,,,1.70,0.83,1.49*1B
$GPGSV,3,1,10,01,11,043,11,03,36,056,29,04,03,109,20,06,45,266,30*79
$GPGSV,3,2,10,14,82,153,28,17,48,000,30,19,37,327,30,22,12,042,13*7C
$GPGSV,3,3,10,28,76,329,26,30,20,200,10*7D
$GNGLL,2218.11693,N,11411.32634,E,063008.00,A,A*7B
$GNZDA,063008.00,21,05,2021,00,00*72
$GNVTG,248.17,T,,M,2.798,N,5.181,K,A*22
$GNGGA,063009.00,2218.11687,N,11411.32591,E,1,08,0.87,-43.5,M,-1.6,M,,*44
$GNGSA,A,3,14,17,28,22,19,06,30,03,,,,,1.77,0.87,1.54*15
$GPGSV,3,1,10,01,11,043,08,03,36,056,29,04,03,109,20,06,45,266,29*79
$GPGSV,3,2,10,14,82,153,28,17,48,000,30,19,37,327,30,22,12,042,14*7B
$GPGSV,3,3,10,28,76,329,25,30,20,200,09*76
$GNGLL,2218.11687,N,11411.32591,E,063009.00,A,A*73
$GNZDA,063009.00,21,05,2021,00,00*73
$GNVTG,248.13,T,,M,2.738,N,5.071,K,A*22
$GNGGA,063010.00,2218.11682,N,11411.32546,E,1,09,1.07,-43.5,M,-1.6,M,,*4B
$GNGSA,A,3,01,14,17,28,22,19,06,30,03,,,,1.99,1.07,1.68*12
$GPGSV,3,1,10,01,11,043,09,03,36,056,29,04,03,109,20,06,45,266,29*78
$GPGSV,3,2,10,14,82,153,28,17,48,000,30,19,37,327,29,22,12,042,11*76
$GPGSV,3,3,10,28,76,329,25,30,20,200,13*7D
$GNGLL,2218.11682,N,11411.32546,E,063010.00,A,A*74
$GNZDA,063010.00,21,05,2021,00,00*7B
$GNVTG,248.10,T,,M,2.684,N,4.970,K,A*2E
$GNGGA,063011.00,2218.11678,N,11411.32499,E,1,09,0.87,-43.7,M,-1.6,M,,*47
$GNGSA,A,3,01,14,17,28,22,19,06,30,03,,,,1.77,0.87,1.54*14
$GPGSV,3,1,10,01,11,043,12,03,36,056,29,04,03,109,21,06,45,266,29*73
$GPGSV,3,2,10,14,82,153,28,17,48,000,30,19,37,327,30,22,12,042,12*7D
$GPGSV,3,3,10,28,76,329,25,30,20,200,10*7E
$GNGLL,2218.11678,N,11411.32499,E,063011.00,A,A*73
$GNZDA,063011.00,21,05,2021,00,00*7A
$GNVTG,248.09,T,,M,2.630,N,4.871,K,A*29
$GNGGA,063012.00,2218.11677,N,11411.32454,E,1,08,0.83,-43.8,M,-1.6,M,,*40
$GNGSA,A,3,14,17,28,22,19,06,30,03,,,,,1.70,0.83,1.49*1A
$GPGSV,3,1,10,01,11,043,08,03,36,056,29,04,03,109,21,06,45,266,29*78
$GPGSV,3,2,10,14,82,153,28,17,48,000,30,19,37,327,30,22,12,042,10*7F
$GPGSV,3,3,10,28,76,329,25,30,20,200,09*76
$GNGLL,2218.11677,N,11411.32454,E,063012.00,A,A*7E
$GNZDA,063012.00,21,05,2021,00,00*79
$GNVTG,248.10,T,,M,2.580,N,4.777,K,A*20
$GNGGA,063013.00,2218.11675,N,11411.32408,E,1,09,1.07,-43.9,M,-1.6,M,,*47
$GNGSA,A,3,01,14,17,28,22,19,06,30,03,,,,1.99,1.07,1.68*12
$GPGSV,3,1,10,01,11,043,11,03,36,056,29,04,03,109,21,06,45,266,29*70
$GPGSV,3,2,10,14,82,153,28,17,48,000,30,19,37,327,30,22,12,042,14*7B
$GPGSV,3,3,10,28,76,329,25,30,20,200,13*7D
$GNGLL,2218.11675,N,11411.32408,E,063013.00,A,A*74
$GNZDA,063013.00,21,05,2021,00,00*78
$GNVTG,248.13,T,,M,2.530,N,4.685,K,A*24
$GNGGA,063014.00,2218.11676,N,11411.32363,E,1,07,1.08,-43.8,M,-1.6,M,,*49
$GNGSA,A,3,14,17,28,22,19,06,03,,,,,,2.36,1.08,2.10*15
$GPGSV,3,1,10,01,11,043,08,03,36,056,29,04,03,109,21,06,45,266,30*70
$GPGSV,3,2,10,14,82,153,28,17,48,000,30,19,37,327,29,22,12,042,11*76
$GPGSV,3,3,10,28,76,329,25,30,20,200,07*78
$GNGLL,2218.11676,N,11411.32363,E,063014.00,A,A*7A
$GNZDA,063014.00,21,05,2021,00,00*7F
$GNVTG,248.18,T,,M,2.481,N,4.595,K,A*26
$GNGGA,063015.00,2218.11679,N,11411.32322,E,1,08,0.83,-43.8,M,-1.6,M,,*4F
$GNGSA,A,3,14,17,28,22,19,06,30,03,,,,,1.70,0.83,1.49*1A
$GPGSV,3,1,10,01,11,043,07,03,36,056,29,04,03,109,20,06,45,266,30*7E
$GPGSV,3,2,10,14,82,153,28,17,48,000,30,19,37,327,29,22,12,042,13*74
$GPGSV,3,3,10,28,76,329,25,30,20,200,11*7F
$GNGLL,2218.11679,N,11411.32322,E,063015.00,A,A*71
$GNZDA,063015.00,21,05,2021,00,00*7E
$GNVTG,248.21,T,,M,2.434,N,4.509,K,A*27
$GNGGA,063016.00,2218.11675,N,11411.32296,E,1,09,1.62,-44.3,M,-1.6,M,,*4D
$GNGSA,A,3,01,14,17,28,22,19,06,30,03,,,,3.45,1.62,3.05*1B
$GPGSV,3,1,10,01,11,043,09,03,36,056,29,04,03,109,19,06,45,266,30*7A
$GPGSV,3,2,10,14,82,153,27,17,48,000,30,19,37,327,29,22,12,042,09*70
$GPGSV,3,3,10,28,76,329,25,30,20,200,11*7F
$GNGLL,2218.11675,N,11411.32296,E,063016.00,A,A*70
$GNZDA,063016.00,21,05,2021,00,00*7D
$GNVTG,248.25,T,,M,2.388,N,4.422,K,A*2B
$GNGGA,063017.00,2218.11674,N,11411.32272,E,1,09,0.89,-44.8,M,-1.6,M,,*48
$GNGSA,A,3,01,14,17,28,22,19,06,30,03,,,,1.74,0.89,1.49*15
$GPGSV,3,1,10,01,11,043,12,03,36,056,29,04,03,109,20,06,45,266,30*7A
$GPGSV,3,2,10,14,82,153,27,17,48,000,30,19,37,327,29,22,12,042,11*79
$GPGSV,3,3,10,28,76,329,26,30,20,200,09*75
$GNGLL,2218.11674,N,11411.32272,E,063017.00,A,A*7A
$GNZDA,063017.00,21,05,2021,00,00*7C
$GNVTG,248.32,T,,M,2.339,N,4.332,K,A*21
$GNGGA,063018.00,2218.11677,N,11411.32256,E,1,08,0.89,-45.2,M,-1.6,M,,*48
$GNGSA,A,3,14,17,28,22,19,06,30,03,,,,,1.74,0.89,1.49*14
$GPGSV,3,1,10,01,11,043,07,03,36,056,29,04,03,109,20,06,45,266,31*7F
$GPGSV,3,2,10,14,82,153,27,17,48,000,30,19,37,327,29,22,12,042,12*7A
$GPGSV,3,3,10,28,76,329,26,30,20,200,09*75
$GNGLL,2218.11677,N,11411.32256,E,063018.00,A,A*70
$GNZDA,063018.00,21,05,2021,00,00*73
$GNVTG,248.38,T,,M,2.293,N,4.247,K,A*29
$GNGGA,063019.00,2218.11679,N,11411.32241,E,1,09,1.47,-45.7,M,-1.6,M,,*46
$GNGSA,A,3,01,14,17,28,22,19,06,30,03,,,,2.53,1.47,2.06*18
$GPGSV,3,1,10,01,11,043,11,03,36,056,29,04,03,109,20,06,45,266,31*78
$GPGSV,3,2,10,14,82,153,27,17,48,000,30,19,37,327,29,22,12,042,14*7C
$GPGSV,3,3,10,28,76,329,26,30,20,200,09*75
$GNGLL,2218.11679,N,11411.32241,E,063019.00,A,A*79
$GNZDA,063019.00,21,05,2021,00,00*72
$GNVTG,248.42,T,,M,2.253,N,4.173,K,A*2C
$GNGGA,063020.00,2218.11677,N,11411.32220,E,1,09,0.89,-46.2,M,-1.6,M,,*40
$GNGSA,A,3,01,14,17,28,22,19,06,30,03,,,,1.74,0.89,1.49*15
$GPGSV,3,1,10,01,11,043,10,03,36,056,29,04,03,109,20,06,45,266,30*78
$GPGSV,3,2,10,14,82,153,27,17,48,000,30,19,37,327,29,22,12,042,13*7B
$GPGSV,3,3,10,28,76,329,26,30,20,200,09*75
$GNGLL,2218.11677,N,11411.32220,E,063020.00,A,A*7A
$GNZDA,063020.00,21,05,2021,00,00*78
$GNVTG,248.45,T,,M,2.213,N,4.098,K,A*2B
$GNGGA,063021.00,2218.11677,N,11411.32202,E,1,09,0.89,-46.5,M,-1.6,M,,*46
$GNGSA,A,3,01,14,17,28,22,19,06,30,03,,,,1.74,0.89,1.49*15
$GPGSV,3,1,10,01,11,043,10,03,36,056,29,04,03,109,20,06,45,266,30*78
$GPGSV,3,2,10,14,82,153,27,17,48,000,30,19,37,327,29,22,12,042,11*79
$GPGSV,3,3,10,28,76,329,26,30,20,200,10*7D
$GNGLL,2218.11677,N,11411.32202,E,063021.00,A,A*7B
$GNZDA,063021.00,21,05,2021,00,00*79
$GNVTG,248.49,T,,M,2.173,N,4.025,K,A*24
$GNGGA,063022.00,2218.11678,N,11411.32183,E,1,08,1.47,-46.9,M,-1.6,M,,*4E
$GNGSA,A,3,01,14,17,28,22,19,06,03,,,,,2.53,1.47,2.06*1B
$GPGSV,3,1,10,01,11,043,09,03,36,056,29,04,03,109,19,06,45,266,31*7B
$GPGSV,3,2,10,14,82,153,27,17,48,000,30,19,37,327,29,22,12,042,10*78
$GPGSV,3,3,10,28,76,329,26,30,20,200,08*74
$GNGLL,2218.11678,N,11411.32183,E,063022.00,A,A*7D
$GNZDA,063022.00,21,05,2021,00,00*7A
$GNVTG,248.52,T,,M,2.135,N,3.954,K,A*24
$GNGGA,063023.00,2218.11678,N,11411.32168,E,1,09,0.89,-47.2,M,-1.6,M,,*42
$GNGSA,A,3,01,14,17,28,22,19,06,30,03,,,,1.74,0.89,1.49*15
$GPGSV,3,1,10,01,11,043,09,03,36,056,29,04,03,109,18,06,45,266,31*7A
$GPGSV,3,2,10,14,82,153,27,17,48,000,30,19,37,327,29,22,12,042,11*79
$GPGSV,3,3,10,28,76,329,26,30,20,200,09*75
$GNGLL,2218.11678,N,11411.32168,E,063023.00,A,A*79
$GNZDA,063023.00,21,05,2021,00,00*7B
$GNVTG,248.46,T,,M,2.114,N,3.915,K,A*27
$GNGGA,063024.00,2218.11662,N,11411.32135,E,1,08,2.14,-47.9,M,-1.6,M,,*4A
$GNGSA,A,3,01,14,17,28,22,19,06,03,,,,,4.58,2.14,4.05*16
$GPGSV,3,1,10,01,10,043,10,03,36,056,29,04,03,109,18,06,45,266,31*73
$GPGSV,3,2,10,14,82,153,28,17,48,000,31,19,37,327,29,22,12,042,13*75
$GPGSV,3,3,10,28,76,329,27,30,20,200,08*75
$GNGLL,2218.11662,N,11411.32135,E,063024.00,A,A*7D
$GNZDA,063024.00,21,05,2021,00,00*7C
$GNVTG,248.51,T,,M,2.093,N,3.876,K,A*2B
$GNGGA,063025.00,2218.11688,N,11411.32090,E,1,08,1.07,-46.1,M,-1.6,M,,*49
$GNGSA,A,3,01,14,17,28,22,19,06,03,,,,,1.90,1.07,1.56*15
$GPGSV,3,1,10,01,10,043,11,03,36,056,30,04,03,109,18,06,45,266,33*78
$GPGSV,3,2,10,14,82,153,30,17,48,000,30,19,37,327,29,22,12,042,16*78
$GPGSV,3,3,10,28,76,329,27,30,20,200,08*75
$GNGLL,2218.11688,N,11411.32090,E,063025.00,A,A*76
$GNZDA,063025.00,21,05,2021,00,00*7D
$GNVTG,248.14,T,,M,2.110,N,3.908,K,A*28
$GNGGA,063026.00,2218.11634,N,11411.32047,E,1,09,0.89,-44.9,M,-1.6,M,,*4B
$GNGSA,A,3,01,14,17,28,22,19,06,30,03,,,,1.74,0.89,1.49*15
$GPGSV,3,1,10,01,10,043,17,03,36,056,31,04,03,109,18,06,45,266,33*7F
$GPGSV,3,2,10,14,82,153,31,17,48,000,30,19,37,327,28,22,12,042,16*78
$GPGSV,3,3,10,28,76,329,28,30,20,200,12*71
$GNGLL,2218.11634,N,11411.32047,E,063026.00,A,A*78
$GNZDA,063026.00,21,05,2021,00,00*7E
$GNVTG,247.54,T,,M,2.172,N,4.023,K,A*20
$GNGGA,063027.00,2218.11539,N,11411.31965,E,1,08,0.95,-43.5,M,-1.6,M,,*49
$GNGSA,A,3,01,14,17,28,22,19,06,03,,,,,1.74,0.95,1.46*14
$GPGSV,3,1,10,01,10,043,10,03,36,056,30,04,03,109,16,06,45,266,32*76
$GPGSV,3,2,10,14,82,153,30,17,48,000,29,19,37,327,28,22,12,042,17*70
$GPGSV,3,3,10,28,76,329,28,30,20,200,*72
$GNGLL,2218.11539,N,11411.31965,E,063027.00,A,A*7D
$GNZDA,063027.00,21,05,2021,00,00*7F
$GNVTG,246.68,T,,M,2.243,N,4.155,K,A*2F
$GNGGA,063028.00,2218.11441,N,11411.31868,E,1,07,1.47,-41.0,M,-1.6,M,,*42
$GNGSA,A,3,14,17,28,22,19,06,03,,,,,,2.53,1.47,2.06*1A
$GPGSV,3,1,10,01,10,043,08,03,36,056,30,04,03,109,14,06,45,266,31*7E
$GPGSV,3,2,10,14,82,154,30,17,48,000,30,19,37,327,29,22,12,042,15*7C
$GPGSV,3,3,10,28,76,329,27,30,20,200,*7D
$GNGLL,2218.11441,N,11411.31868,E,063028.00,A,A*70
$GNZDA,063028.00,21,05,2021,00,00*70
$GNVTG,245.65,T,,M,2.387,N,4.420,K,A*2F
$GNGGA,063029.00,2218.11288,N,11411.31702,E,1,08,0.95,-39.7,M,-1.6,M,,*4A
$GNGSA,A,3,01,14,17,28,22,19,06,03,,,,,1.74,0.95,1.46*14
$GPGSV,3,1,10,01,10,043,10,03,36,056,30,04,03,109,10,06,45,266,31*73
$GPGSV,3,2,10,14,82,154,30,17,48,001,31,19,37,327,29,22,12,042,14*7D
$GPGSV,3,3,10,28,76,329,28,30,20,200,*72
$GNGLL,2218.11288,N,11411.31702,E,063029.00,A,A*71
$GNZDA,063029.00,21,05,2021,00,00*71
$GNVTG,244.48,T,,M,2.490,N,4.611,K,A*20
$GNGGA,063030.00,2218.11164,N,11411.31569,E,1,08,1.06,-36.3,M,-1.6,M,,*4C
$GNGSA,A,3,01,14,17,28,22,19,06,03,,,,,1.86,1.06,1.53*16
$GPGSV,3,1,10,01,10,043,10,03,36,056,29,04,03,109,07,06,45,266,32*7E
$GPGSV,3,2,10,14,82,154,30,17,48,001,31,19,37,327,30,22,12,042,13*72
$GPGSV,3,3,10,28,76,329,29,30,20,200,*73
$GNGLL,2218.11164,N,11411.31569,E,063030.00,A,A*77
$GNZDA,063030.00,21,05,2021,00,00*79
$GNVTG,243.41,T,,M,2.594,N,4.804,K,A*21
$GNGGA,063031.00,2218.11034,N,11411.31433,E,1,07,2.14,-33.1,M,-1.6,M,,*4F
$GNGSA,A,3,14,17,28,22,19,06,03,,,,,,4.58,2.14,4.05*17
$GPGSV,3,1,10,01,10,043,07,03,36,056,29,04,03,109,08,06,45,266,36*73
$GPGSV,3,2,10,14,82,154,30,17,48,001,32,19,37,327,30,22,12,042,12*70
$GPGSV,3,3,10,28,76,329,30,30,20,200,*7B
$GNGLL,2218.11034,N,11411.31433,E,063031.00,A,A*7C
$GNZDA,063031.00,21,05,2021,00,00*78
$GNVTG,242.51,T,,M,2.728,N,5.053,K,A*2F
$GNGGA,063032.00,2218.10890,N,11411.31254,E,1,07,1.62,-30.9,M,-1.6,M,,*45
$GNGSA,A,3,14,17,28,22,19,06,03,,,,,,3.46,1.62,3.06*19
$GPGSV,3,1,10,01,10,043,08,03,36,056,28,04,03,109,08,06,45,266,33*78
$GPGSV,3,2,10,14,82,154,30,17,48,001,31,19,37,327,30,22,12,042,14*75
$GPGSV,3,3,10,28,76,329,30,30,20,200,*7B
$GNGLL,2218.10890,N,11411.31254,E,063032.00,A,A*7F
$GNZDA,063032.00,21,05,2021,00,00*7B
$GNVTG,241.48,T,,M,2.844,N,5.267,K,A*24
$GNGGA,063033.00,2218.10710,N,11411.31103,E,1,08,1.01,-31.3,M,-1.6,M,,*43
$GNGSA,A,3,01,14,17,28,22,19,06,03,,,,,1.78,1.01,1.47*15
$GPGSV,3,1,10,01,10,043,10,03,36,056,28,04,03,109,08,06,45,266,36*74
$GPGSV,3,2,10,14,82,154,30,17,48,001,30,19,37,327,31,22,12,042,18*79
$GPGSV,3,3,10,28,76,329,31,30,20,199,*79
$GNGLL,2218.10710,N,11411.31103,E,063033.00,A,A*78
$GNZDA,063033.00,21,05,2021,00,00*7A
$GNVTG,240.84,T,,M,2.960,N,5.482,K,A*2F
$GNGGA,063034.00,2218.10589,N,11411.30926,E,1,07,1.47,-28.6,M,-1.6,M,,*48
$GNGSA,A,3,14,17,28,22,19,06,03,,,,,,2.53,1.47,2.06*1A
$GPGSV,3,1,10,01,10,043,08,03,36,056,27,04,03,109,08,06,45,266,28*7D
$GPGSV,3,2,10,14,82,154,30,17,48,001,29,19,37,327,31,22,12,042,19*70
$GPGSV,3,3,10,28,76,329,31,30,20,199,*79
$GNGLL,2218.10589,N,11411.30926,E,063034.00,A,A*73
$GNZDA,063034.00,21,05,2021,00,00*7D
$GNVTG,240.34,T,,M,3.069,N,5.684,K,A*21
$GNGGA,063035.00,2218.10455,N,11411.30751,E,1,08,1.01,-25.0,M,-1.6,M,,*41
$GNGSA,A,3,01,14,17,28,22,19,06,03,,,,,1.79,1.01,1.49*1A
$GPGSV,3,1,10,01,10,043,09,03,36,056,27,04,03,109,08,06,45,266,25*71
$GPGSV,3,2,10,14,82,154,32,17,48,001,33,19,37,327,35,22,12,042,17*73
$GPGSV,3,3,10,28,76,329,33,30,20,199,15*7F
$GNGLL,2218.10455,N,11411.30751,E,063035.00,A,A*7C
$GNZDA,063035.00,21,05,2021,00,00*7C
$GNVTG,239.82,T,,M,3.136,N,5.809,K,A*22
$GNGGA,063036.00,2218.10327,N,11411.30619,E,1,08,0.96,-25.9,M,-1.6,M,,*4B
$GNGSA,A,3,14,17,28,22,19,06,30,03,,,,,1.58,0.96,1.25*1E
$GPGSV,3,1,10,01,10,043,08,03,36,056,25,04,03,109,07,06,45,266,20*78
$GPGSV,3,2,10,14,82,154,29,17,48,001,29,19,37,327,32,22,12,042,13*71
$GPGSV,3,3,10,28,76,329,28,30,20,199,28*7B
$GNGLL,2218.10327,N,11411.30619,E,063036.00,A,A*70
$GNZDA,063036.00,21,05,2021,00,00*7F
$GNVTG,239.49,T,,M,3.207,N,5.940,K,A*28
$GNGGA,063037.00,2218.10216,N,11411.30466,E,1,07,1.02,-24.5,M,-1.6,M,,*4D
$GNGSA,A,3,14,17,28,19,06,30,03,,,,,,2.06,1.02,1.79*13
$GPGSV,3,1,10,01,10,043,07,03,36,056,25,04,03,109,07,06,45,266,18*7C
$GPGSV,3,2,10,14,82,154,33,17,48,001,31,19,37,327,27,22,12,042,10*74
$GPGSV,3,3,10,28,76,329,31,30,20,199,31*7B
$GNGLL,2218.10216,N,11411.30466,E,063037.00,A,A*78
$GNZDA,063037.00,21,05,2021,00,00*7E
$GNVTG,239.34,T,,M,3.277,N,6.069,K,A*24
$GNGGA,063038.00,2218.10122,N,11411.30296,E,1,07,1.07,-23.5,M,-1.6,M,,*4D
$GNGSA,A,3,14,17,28,22,19,06,03,,,,,,1.86,1.07,1.52*17
$GPGSV,3,1,10,01,10,043,06,03,36,056,28,04,03,109,,06,45,266,18*77
$GPGSV,3,2,10,14,82,154,34,17,48,001,34,19,37,327,26,22,12,042,11*76
$GPGSV,3,3,10,28,76,329,31,30,20,199,*79
$GNGLL,2218.10122,N,11411.30296,E,063038.00,A,A*7A
$GNZDA,063038.00,21,05,2021,00,00*71
$GNVTG,239.21,T,,M,3.301,N,6.114,K,A*2B
$GNGGA,063039.00,2218.10039,N,11411.30183,E,1,08,1.18,-23.6,M,-1.6,M,,*42
$GNGSA,A,3,01,14,17,28,22,19,06,03,,,,,2.03,1.18,1.66*11
$GPGSV,3,1,10,01,10,043,10,03,36,056,28,04,03,109,,06,45,266,20*7B
$GPGSV,3,2,10,14,82,154,34,17,48,001,32,19,37,327,23,22,12,042,14*70
$GPGSV,3,3,10,28,76,329,31,30,20,199,17*7F
$GNGLL,2218.10039,N,11411.30183,E,063039.00,A,A*77
$GNZDA,063039.00,21,05,2021,00,00*70
$GNVTG,239.00,T,,M,3.391,N,6.281,K,A*2E
$GNGGA,063040.00,2218.09877,N,11411.29987,E,1,08,1.25,-25.8,M,-1.6,M,,*44
$GNGSA,A,3,01,14,17,28,22,19,06,03,,,,,2.44,1.25,2.10*1E
$GPGSV,3,1,10,01,10,043,09,03,36,056,28,04,03,109,,06,45,266,34*76
$GPGSV,3,2,10,14,82,154,34,17,48,001,31,19,37,327,21,22,12,042,17*72
$GPGSV,3,3,10,28,76,329,32,30,20,199,19*72
$GNGLL,2218.09877,N,11411.29987,E,063040.00,A,A*77
$GNZDA,063040.00,21,05,2021,00,00*7E
$GNVTG,238.74,T,,M,3.520,N,6.520,K,A*2C
$GNGGA,063041.00,2218.09664,N,11411.29735,E,1,09,1.09,-29.9,M,-1.6,M,,*4C
$GNGSA,A,3,01,14,17,28,22,19,06,30,03,,,,2.25,1.09,1.97*18
$GPGSV,3,1,10,01,10,043,11,03,36,056,30,04,03,109,,06,45,266,35*77
$GPGSV,3,2,10,14,82,154,36,17,48,001,35,19,37,327,22,22,12,042,18*78
$GPGSV,3,3,10,28,76,329,33,30,20,199,24*7D
$GNGLL,2218.09664,N,11411.29735,E,063041.00,A,A*7D
$GNZDA,063041.00,21,05,2021,00,00*7F
$GNVTG,238.52,T,,M,3.693,N,6.839,K,A*26
$GNGGA,063042.00,2218.09400,N,11411.29359,E,1,09,1.03,-37.0,M,-1.6,M,,*4D
$GNGSA,A,3,01,14,17,28,22,19,06,30,03,,,,2.21,1.03,1.95*14
$GPGSV,3,1,10,01,10,043,10,03,36,056,30,04,03,109,,06,45,266,39*7A
$GPGSV,3,2,10,14,82,154,37,17,48,001,34,19,37,327,21,22,12,042,18*7B
$GPGSV,3,3,10,28,76,329,33,30,20,199,24*7D
$GNGLL,2218.09400,N,11411.29359,E,063042.00,A,A*70
$GNZDA,063042.00,21,05,2021,00,00*7C
$GNVTG,238.55,T,,M,3.781,N,7.002,K,A*22
$GNGGA,063043.00,2218.09287,N,11411.29104,E,1,09,1.25,-38.6,M,-1.6,M,,*42
$GNGSA,A,3,01,14,17,28,22,19,06,30,03,,,,2.44,1.25,2.10*1D
$GPGSV,3,1,10,01,10,043,10,03,36,056,29,04,03,109,,06,45,266,37*7C
$GPGSV,3,2,10,14,82,154,37,17,48,001,34,19,37,327,20,22,12,042,18*7A
$GPGSV,3,3,10,28,76,329,34,30,20,199,25*7B
$GNGLL,2218.09287,N,11411.29104,E,063043.00,A,A*72
$GNZDA,063043.00,21,05,2021,00,00*7D
$GNVTG,238.57,T,,M,3.855,N,7.140,K,A*21
$GNGGA,063044.00,2218.09146,N,11411.28859,E,1,09,1.06,-40.9,M,-1.6,M,,*4A
$GNGSA,A,3,01,14,17,28,22,19,06,30,03,,,,2.17,1.06,1.89*19
$GPGSV,3,1,10,01,10,043,14,03,36,056,29,04,03,109,,06,45,266,38*77
$GPGSV,3,2,10,14,82,154,34,17,48,001,34,19,37,327,18,22,12,042,19*73
$GPGSV,3,3,10,28,76,329,34,30,20,199,23*7D
$GNGLL,2218.09146,N,11411.28859,E,063044.00,A,A*7B
$GNZDA,063044.00,21,05,2021,00,00*7A
$GNVTG,238.62,T,,M,3.886,N,7.197,K,A*23
$GNGGA,063045.00,2218.09056,N,11411.28677,E,1,09,1.03,-41.5,M,-1.6,M,,*41
$GNGSA,A,3,01,14,17,28,22,19,06,30,03,,,,2.21,1.03,1.95*14
$GPGSV,3,1,10,01,10,043,15,03,36,056,30,04,03,109,,06,45,266,37*71
$GPGSV,3,2,10,14,82,154,30,17,48,001,34,19,37,327,18,22,12,042,18*76
$GPGSV,3,3,10,28,76,329,33,30,20,199,20*79
$GNGLL,2218.09056,N,11411.28677,E,063045.00,A,A*78
$GNZDA,063045.00,21,05,2021,00,00*7B
$GNVTG,238.62,T,,M,3.892,N,7.208,K,A*23
$GNGGA,063046.00,2218.08974,N,11411.28541,E,1,09,1.15,-41.9,M,-1.6,M,,*47
$GNGSA,A,3,01,14,17,28,22,19,06,30,03,,,,2.77,1.15,2.52*18
$GPGSV,3,1,10,01,10,043,20,03,36,056,31,04,03,109,,06,45,266,35*74
$GPGSV,3,2,10,14,82,154,29,17,48,001,34,19,37,327,18,22,12,042,19*7F
$GPGSV,3,3,10,28,76,329,33,30,20,199,21*78
$GNGLL,2218.08974,N,11411.28541,E,063046.00,A,A*75
$GNZDA,063046.00,21,05,2021,00,00*78
$GNVTG,238.56,T,,M,3.909,N,7.240,K,A*2B
$GNGGA,063047.00,2218.08841,N,11411.28358,E,1,09,1.10,-42.8,M,-1.6,M,,*48
$GNGSA,A,3,01,14,17,28,22,19,06,30,03,,,,2.57,1.10,2.33*18
$GPGSV,3,1,10,01,10,043,18,03,36,056,30,04,03,109,,06,45,266,38*73
$GPGSV,3,2,10,14,82,154,30,17,48,001,38,19,37,327,18,22,12,042,20*71
$GPGSV,3,3,10,28,76,329,31,30,20,199,30*7A
$GNGLL,2218.08841,N,11411.28358,E,063047.00,A,A*7D
$GNZDA,063047.00,21,05,2021,00,00*79
$GNVTG,238.56,T,,M,3.898,N,7.220,K,A*24
$GNGGA,063048.00,2218.08780,N,11411.28232,E,1,09,1.07,-41.9,M,-1.6,M,,*4C
$GNGSA,A,3,01,14,17,28,22,19,06,30,03,,,,2.02,1.07,1.71*1B
$GPGSV,3,1,10,01,10,043,10,03,36,056,33,04,03,109,,06,45,266,36*76
$GPGSV,3,2,10,14,82,154,29,17,48,001,36,19,37,327,22,22,12,042,28*76
$GPGSV,3,3,10,28,76,329,35,30,20,199,30*7E
$GNGLL,2218.08780,N,11411.28232,E,063048.00,A,A*7D
$GNZDA,063048.00,21,05,2021,00,00*76
$GNVTG,238.54,T,,M,3.892,N,7.209,K,A*27
$GNGGA,063049.00,2218.08687,N,11411.28085,E,1,09,1.13,-41.6,M,-1.6,M,,*4F
$GNGSA,A,3,01,14,17,28,22,19,06,30,03,,,,2.08,1.13,1.75*10
$GPGSV,3,1,10,01,10,043,16,03,36,056,36,04,03,109,,06,45,266,39*7A
$GPGSV,3,2,10,14,82,154,27,17,48,001,38,19,37,327,26,22,12,042,28*72
$GPGSV,3,3,10,28,76,329,36,30,20,199,30*7D
$GNGLL,2218.08687,N,11411.28085,E,063049.00,A,A*74
$GNZDA,063049.00,21,05,2021,00,00*77
$GNVTG,238.55,T,,M,3.890,N,7.204,K,A*29
$GNGGA,063050.00,2218.08606,N,11411.27933,E,1,09,1.74,-41.6,M,-1.6,M,,*44
$GNGSA,A,3,01,14,17,28,22,19,06,30,03,,,,2.70,1.74,2.07*18
$GPGSV,3,1,10,01,10,043,17,03,36,056,32,04,03,109,,06,45,266,40*71
$GPGSV,3,2,10,14,82,154,26,17,48,001,35,19,37,327,25,22,12,042,27*72
$GPGSV,3,3,10,28,76,329,35,30,20,199,34*7A
$GNGLL,2218.08606,N,11411.27933,E,063050.00,A,A*7E
$GNZDA,063050.00,21,05,2021,00,00*7F
$GNVTG,238.59,T,,M,3.864,N,7.156,K,A*2A
$GNGGA,063051.00,2218.08551,N,11411.27806,E,1,09,1.23,-40.6,M,-1.6,M,,*40
$GNGSA,A,3,01,14,17,28,22,19,06,30,03,,,,2.07,1.23,1.66*1E
$GPGSV,3,1,10,01,10,043,14,03,36,056,32,04,03,109,,06,45,266,42*70
$GPGSV,3,2,10,14,82,154,26,17,48,001,36,19,37,327,25,22,12,042,25*73
$GPGSV,3,3,10,28,76,329,35,30,20,199,32*7C
$GNGLL,2218.08551,N,11411.27806,E,063051.00,A,A*79
$GNZDA,063051.00,21,05,2021,00,00*7E
$GNVTG,238.63,T,,M,3.836,N,7.104,K,A*23
$GNGGA,063052.00,2218.08494,N,11411.27697,E,1,09,1.78,-40.8,M,-1.6,M,,*4D
$GNGSA,A,3,01,14,17,28,22,19,06,30,03,,,,3.59,1.78,3.11*18
$GPGSV,3,1,10,01,10,043,13,03,36,056,31,04,03,109,,06,45,266,40*76
$GPGSV,3,2,10,14,82,154,26,17,48,001,33,19,37,327,24,22,12,042,25*77
$GPGSV,3,3,10,28,76,329,32,30,20,199,31*78
$GNGLL,2218.08494,N,11411.27697,E,063052.00,A,A*74
$GNZDA,063052.00,21,05,2021,00,00*7D
$GNVTG,238.70,T,,M,3.805,N,7.046,K,A*26
$GNGGA,063053.00,2218.08456,N,11411.27589,E,1,08,1.23,-40.2,M,-1.6,M,,*4B
$GNGSA,A,3,14,17,28,22,19,06,30,03,,,,,2.07,1.23,1.66*1F
$GPGSV,3,1,10,01,10,043,09,03,36,056,31,04,03,109,,06,45,266,40*7D
$GPGSV,3,2,10,14,82,154,26,17,48,001,34,19,37,327,23,22,12,042,22*70
$GPGSV,3,3,10,28,76,329,33,30,20,199,31*79
$GNGLL,2218.08456,N,11411.27589,E,063053.00,A,A*77
$GNZDA,063053.00,21,05,2021,00,00*7C
$GNVTG,238.72,T,,M,3.765,N,6.972,K,A*22
$GNGGA,063054.00,2218.08405,N,11411.27504,E,1,08,1.98,-40.6,M,-1.6,M,,*4B
$GNGSA,A,3,14,17,28,22,19,06,30,03,,,,,3.69,1.98,3.11*14
$GPGSV,3,1,10,01,10,043,08,03,36,056,31,04,03,109,,06,45,266,40*7C
$GPGSV,3,2,10,14,82,154,26,17,48,001,34,19,37,327,22,22,12,042,22*71
$GPGSV,3,3,10,28,76,329,33,30,20,199,30*78
$GNGLL,2218.08405,N,11411.27504,E,063054.00,A,A*73
$GNZDA,063054.00,21,05,2021,00,00*7B
$GNVTG,238.75,T,,M,3.727,N,6.902,K,A*24
$GNGGA,063055.00,2218.08366,N,11411.27409,E,1,08,1.29,-39.8,M,-1.6,M,,*4E
$GNGSA,A,3,14,17,28,22,19,06,30,03,,,,,2.26,1.29,1.86*18
$GPGSV,3,1,10,01,10,043,08,03,36,056,31,04,03,109,,06,45,266,40*7C
$GPGSV,3,2,10,14,82,154,25,17,48,001,32,19,37,327,21,22,12,042,21*74
$GPGSV,3,3,10,28,76,329,33,30,20,199,31*79
$GNGLL,2218.08366,N,11411.27409,E,063055.00,A,A*7C
$GNZDA,063055.00,21,05,2021,00,00*7A
$µµávA=?=a?A
$GNVTG,238.76,T,,M,3.710,N,6.870,K,A*27
$GNGGA,063056.00,2218.08308,N,11411.27313,E,1,08,1.98,-39.4,M,-1.6,M,,*4F
$GNGSA,A,3,14,17,28,22,19,06,30,03,,,,,3.69,1.98,3.12*17
$GPGSV,3,1,10,01,10,043,10,03,36,056,31,04,03,109,,06,45,266,36*74
$GPGSV,3,2,10,14,82,154,26,17,48,001,35,19,37,327,29,22,12,042,19*73
$GPGSV,3,3,10,28,76,329,32,30,20,199,29*71
$GNGLL,2218.08308,N,11411.27313,E,063056.00,A,A*7B
$GNZDA,063056.00,21,05,2021,00,00*79
$GNVTG,238.79,T,,M,3.697,N,6.847,K,A*22
$GNGGA,063057.00,2218.08265,N,11411.27217,E,1,09,1.23,-39.1,M,-1.6,M,,*45
$GNGSA,A,3,01,14,17,28,22,19,06,30,03,,,,1.79,1.23,1.30*17
$GPGSV,3,1,10,01,10,043,12,03,36,056,30,04,03,109,,06,45,266,33*72
$GPGSV,3,2,10,14,82,154,26,17,48,001,35,19,37,327,25,22,12,042,20*75
$GPGSV,3,3,10,28,76,329,32,30,20,199,27*7F
$GNGLL,2218.08265,N,11411.27217,E,063057.00,A,A*75
$GNZDA,063057.00,21,05,2021,00,00*78
$GNVTG,238.83,T,,M,3.690,N,6.834,K,A*24
$GNGGA,063058.00,2218.08213,N,11411.27112,E,1,09,1.67,-38.7,M,-1.6,M,,*4A
$GNGSA,A,3,01,14,17,28,22,19,06,30,03,,,,2.59,1.67,1.98*14
$GPGSV,3,1,10,01,10,043,15,03,36,056,30,04,03,109,,06,45,266,38*7E
$GPGSV,3,2,10,14,82,154,30,17,48,001,35,19,37,327,24,22,12,042,29*7A
$GPGSV,3,3,10,28,76,329,35,30,20,199,25*7A
$GNGLL,2218.08213,N,11411.27112,E,063058.00,A,A*7D
$GNZDA,063058.00,21,05,2021,00,00*77
$GNRMC,063059.00,A,2218.08179,N,11411.27000,E,3.675,238.95,210521,,,A*71
$GNVTG,238.95,T,,M,3.675,N,6.807,K,A*28
$GNGGA,063059.00,2218.08179,N,11411.27000,E,1,09,1.67,-38.3,M,-1.6,M,,*42
$GNGSA,A,3,01,14,17,28,22,19,06,30,03,,,,2.59,1.67,1.98*14
$GPGSV,3,1,10,01,10,043,17,03,36,056,34,04,03,109,,06,45,266,36*76
$GPGSV,3,2,10,14,82,154,30,17,48,001,35,19,37,327,21,22,12,042,26*70
$GPGSV,3,3,10,28,76,329,32,30,20,199,22*7A
$GNGLL,2218.08179,N,11411.27000,E,063059.00,A,A*71
$GNZDA,063059.00,21,05,2021,00,00*76
$GNVTG,239.08,T,,M,3.630,N,6.723,K,A*25
$GNGGA,063100.00,2218.08162,N,11411.26919,E,1,09,1.67,-39.0,M,-1.6,M,,*47
$GNGSA,A,3,01,14,17,28,22,19,06,30,03,,,,2.59,1.67,1.98*14
$GPGSV,3,1,10,01,10,043,18,03,36,056,34,04,03,109,,06,45,266,35*7A
$GPGSV,3,2,10,14,82,154,35,17,48,001,34,19,37,327,20,22,12,042,24*77
$GPGSV,3,3,10,28,76,329,36,30,20,199,19*76
