     3.03           OBSERVATION DATA    M: Mixed            RINEX VERSION / TYPE
RTKCONV demo5 b33c                      20210524 111521 UTC PGM / RUN BY / DATE 
log: C:\Users\Ivan_PolyU_Dktp\Dropbox\HUAWEI Exp\20210521_  COMMENT             
format: RINEX                                               COMMENT             
Geo++                                                       MARKER NAME         
                                                            MARKER NUMBER       
                                                            MARKER TYPE         
                                                            OBSERVER / AGENCY   
unknown             samsung             SM-N9500            REC # / TYPE / VERS 
unknown             SM-N9500                                ANT # / TYPE        
 -2419234.3248  5385476.8790  2405346.2483                  APPROX POSITION XYZ 
        0.0000        0.0000        0.0000                  ANTENNA: DELTA H/E/N
G    3 C1C D1C S1C                                          SYS / # / OBS TYPES 
R    3 C1C D1C S1C                                          SYS / # / OBS TYPES 
C    3 C2I D2I S2I                                          SYS / # / OBS TYPES 
  2021     5    21     6    29    6.4306892     GPS         TIME OF FIRST OBS   
  2021     5    21     6    54   39.4305520     GPS         TIME OF LAST OBS    
G                                                           SYS / PHASE SHIFT   
R                                                           SYS / PHASE SHIFT   
C                                                           SYS / PHASE SHIFT   
  3 R01  1 R09 -2 R17  4                                    GLONASS SLOT / FRQ #
 C1C    0.000 C1P    0.000 C2C    0.000 C2P    0.000        GLONASS COD/PHS/BIS 
                                                            END OF HEADER       
> 2021  5 21  6 29  6.4306892  0 20                     
C 1  37380206.749 1      -180.900          27.250  
C 2  37061978.854 1       -43.850          25.000  
C 3  36369600.677 1      -134.200          25.250  
C 4  38309641.915 1      -110.100          24.500  
C 5  39227860.945 1      -121.050          34.500  
G 2  24253366.772 1      1720.613          34.500  
G 3  22220452.529 1     -1866.937          34.000  
G 4  25592968.685 1      1260.850          26.500  
G 6  21635160.818 1       939.797          40.500  
G 9  25204628.927 1      1499.000          28.750  
G14  20180366.951 1      -608.520          32.250  
G17  21736077.255 1       529.360          34.000  
G19  22057625.052 1      1295.293          40.250  
G30  23632153.629 1     -2822.470          38.000  
R 2  21837210.442 1      2272.150          25.250  
R 3  23707942.661 1      3418.100          27.750  
R14  20540587.675 1     -3339.611          35.500  
R15  20082349.207 1       444.948          31.250  
R17  21008107.718 1      -826.946          37.500  
R18  22358259.327 1       698.850          26.500  
> 2021  5 21  6 29  7.4306891  0 20                     
C 1  37380211.560 1      -180.900          27.250  
C 2  37061957.283 1       -43.850          25.000  
C 3  36369596.494 1      -134.200          25.250  
C 4  38309633.235 1      -110.100          24.500  
C 5  39227850.766 1      -129.600          34.750  
G 2  24253025.022 1      1722.388          32.000  
G 3  22220784.413 1     -1867.720          32.500  
G 4  25592701.283 1      1258.400          24.250  
G 6  21634952.776 1       941.142          41.750  
G 9  25204324.951 1      1500.050          28.000  
G14  20180459.001 1      -608.343          32.000  
G17  21735950.456 1       529.423          31.000  
G19  22057353.753 1      1296.770          40.500  
G30  23632674.682 1     -2821.283          39.250  
R 2  21836732.886 1      2272.450          26.000  
R 3  23707256.150 1      3419.300          30.000  
R14  20541201.964 1     -3338.934          38.250  
R15  20082270.975 1       446.271          33.500  
R17  21008231.845 1      -825.798          37.750  
R18  22358106.147 1       701.800          26.750  
> 2021  5 21  6 29  8.4306891  0 21                     
C 1  37380206.690 1      -128.800          28.500  
C 2  37062220.127 1      -139.000          26.000  
C 3  36369622.203 1      -134.200          25.250  
C 4  38309654.146 1      -110.100          24.500  
C 5  39227871.678 1      -105.450          35.500  
G 2  24252683.485 1      1724.405          36.500  
G 3  22221135.396 1     -1869.412          34.000  
G 4  25592516.837 1      1264.750          27.000  
G 6  21634773.726 1       942.551          43.000  
G 9  25204062.259 1      1500.158          31.000  
G14  20180574.647 1      -608.727          30.750  
G17  21735822.371 1       529.200          28.250  
G19  22057104.552 1      1297.851          41.750  
G30  23633207.939 1     -2819.879          38.750  
R 2  21836294.516 1      2281.700          24.500  
R 3  23706619.617 1      3420.450          25.750  
R14  20541824.559 1     -3338.710          41.500  
R15  20082147.387 1       446.572          34.000  
R16  23827797.227 1      3383.800          15.500  
R17  21008384.666 1      -825.253          38.000  
R18  22357974.464 1       701.800          26.750  
> 2021  5 21  6 29  9.4306890  0 21                     
C 1  37380201.452 1      -128.800          28.500  
C 2  37062192.105 1      -113.600          34.250  
C 3  36369530.325 1      -122.950          26.500  
C 4  38309692.679 1       -66.150          23.000  
C 5  39227860.144 1       -93.400          35.500  
G 2  24252321.794 1      1726.172          38.750  
G 3  22221463.828 1     -1870.220          34.250  
G 4  25592157.545 1      1264.600          20.750  
G 6  21634567.028 1       944.049          38.500  
G 9  25203777.315 1      1503.300          26.250  
G14  20180656.649 1      -608.912          35.250  
G17  21735696.018 1       530.853          35.500  
G19  22056830.101 1      1298.984          38.750  
G30  23633742.328 1     -2818.926          41.750  
R 2  21835836.892 1      2281.700          24.500  
R 3  23705959.333 1      3425.500          27.500  
R14  20542417.107 1     -3338.232          39.500  
R15  20082035.123 1       447.298          39.500  
R16  23827133.646 1      3383.800          15.500  
R17  21008515.534 1      -824.427          39.000  
R18  22357813.035 1       701.800          26.750  
> 2021  5 21  6 29 10.4306889  0 21                     
C 1  37380196.032 1      -128.800          28.500  
C 2  37062192.981 1      -116.650          33.500  
C 3  36369521.607 1      -101.950          32.750  
C 4  38309675.267 1       -66.150          23.000  
C 5  39227850.227 1      -102.850          34.000  
G 2  24251966.216 1      1726.399          37.000  
G 3  22221788.479 1     -1870.825          32.500  
G 4  25591886.808 1      1264.600          20.750  
G 6  21634358.348 1       944.265          39.250  
G 9  25203507.478 1      1503.600          25.250  
G14  20180744.164 1      -610.053          35.750  
G17  21735573.678 1       532.133          34.750  
G19  22056554.868 1      1301.040          36.750  
G30  23634244.156 1     -2820.428          42.000  
R 2  21835379.084 1      2281.700          24.500  
R 3  23705250.300 1      3426.800          27.000  
R14  20543018.467 1     -3340.230          38.000  
R15  20081931.971 1       447.627          40.000  
R16  23826470.181 1      3383.800          15.500  
R17  21008632.729 1      -822.634          39.000  
R18  22357651.423 1       701.800          26.750  
> 2021  5 21  6 29 11.4306888  0 20                     
C 1  37380202.962 1      -172.850          25.000  
C 2  37062185.521 1      -116.650          33.500  
C 3  36369511.150 1      -101.950          32.750  
C 4  38309658.214 1       -66.150          23.000  
C 5  39227840.070 1      -102.850          34.000  
G 2  24251613.995 1      1723.274          35.000  
G 3  22222102.097 1     -1869.637          31.000  
G 6  21634148.229 1       942.491          42.500  
G 9  25203218.214 1      1492.750          22.500  
G14  20180831.440 1      -611.863          33.250  
G17  21735443.004 1       534.300          30.750  
G19  22056275.796 1      1302.577          40.500  
G30  23634720.562 1     -2824.915          38.000  
R 2  21834921.637 1      2281.700          24.500  
R 3  23704670.836 1      3424.550          26.500  
R14  20543610.293 1     -3344.279          40.000  
R15  20081815.387 1       446.425          34.000  
R16  23825806.776 1      3383.800          15.500  
R17  21008759.877 1      -820.357          37.000  
R18  22357490.470 1       701.850          17.000  
> 2021  5 21  6 29 12.4306887  0 20                     
C 1  37380206.024 1      -172.850          25.000  
C 2  37062178.090 1      -116.650          33.500  
C 3  36369501.020 1      -101.950          32.750  
C 4  38309640.889 1       -66.150          23.000  
C 5  39227834.437 1      -114.550          31.500  
G 2  24251248.612 1      1718.655          36.750  
G 3  22222441.826 1     -1870.058          34.500  
G 6  21633939.038 1       939.054          40.000  
G 9  25202904.094 1      1492.750          22.500  
G14  20180914.246 1      -614.106          31.500  
G17  21735311.459 1       533.707          36.500  
G19  22056003.049 1      1301.420          40.000  
G30  23635251.258 1     -2827.854          36.250  
R 2  21834464.217 1      2281.700          24.500  
R 3  23703937.907 1      3421.900          28.500  
R14  20544209.342 1     -3348.464          35.500  
R15  20081697.332 1       443.508          38.250  
R16  23825143.398 1      3383.800          15.500  
R17  21008889.750 1      -820.989          42.250  
R18  22357368.518 1       703.150          24.000  
> 2021  5 21  6 29 13.4306886  0 21                     
C 1  37380209.206 1      -172.850          25.000  
C 2  37062158.788 1       -91.350          31.000  
C 3  36369501.804 1      -128.400          27.500  
C 4  38309623.386 1       -66.150          23.000  
C 5  39227826.527 1      -113.250          36.500  
G 2  24250892.343 1      1716.688          38.250  
G 3  22222767.285 1     -1872.469          35.750  
G 4  25591203.265 1      1266.550          24.500  
G 6  21633728.468 1       936.748          36.000  
G 9  25202514.549 1      1497.450          23.750  
G14  20181022.655 1      -616.180          31.250  
G17  21735194.724 1       531.543          30.750  
G19  22055725.326 1      1299.697          36.250  
G30  23635825.845 1     -2825.603          35.000  
R 2  21833991.928 1      2272.050          20.250  
R 3  23703304.630 1      3416.400          28.000  
R14  20544818.105 1     -3350.029          34.000  
R15  20081591.090 1       440.528          43.250  
R16  23824482.241 1      3381.500          20.000  
R17  21009002.956 1      -822.700          41.750  
R18  22357179.533 1       700.900          28.500  
> 2021  5 21  6 29 14.4306885  0 21                     
C 1  37380187.921 1       -89.350          27.000  
C 2  37062161.486 1      -121.250          34.000  
C 3  36369496.408 1      -128.400          27.500  
C 4  38309606.298 1       -66.150          23.000  
C 5  39227822.030 1      -122.500          34.500  
G 2  24250536.489 1      1715.593          39.750  
G 3  22223095.258 1     -1873.915          33.500  
G 4  25590926.856 1      1262.050          23.500  
G 6  21633520.712 1       935.638          38.000  
G 9  25202184.777 1      1485.650          24.250  
G14  20181099.402 1      -618.350          28.250  
G17  21735048.126 1       531.756          33.500  
G19  22055444.420 1      1299.141          37.250  
G30  23636326.198 1     -2826.473          36.500  
R 2  21833535.944 1      2272.050          20.250  
R 3  23702601.617 1      3418.450          26.500  
R14  20545425.784 1     -3352.098          34.000  
R15  20081480.167 1       438.898          43.500  
R16  23823819.100 1      3381.500          20.000  
R17  21009133.366 1      -823.236          41.500  
R18  22357049.423 1       703.150          30.000  
> 2021  5 21  6 29 15.4306884  0 21                     
C 1  37380175.000 1       -89.350          27.000  
C 2  37062150.064 1       -98.050          33.000  
C 3  36369491.282 1      -128.400          27.500  
C 4  38309588.880 1       -66.150          23.000  
C 5  39227815.405 1      -122.500          34.500  
G 2  24250183.903 1      1716.789          38.250  
G 3  22223423.201 1     -1873.099          32.250  
G 4  25590650.118 1      1260.900          21.750  
G 6  21633317.722 1       936.813          37.000  
G 9  25201847.780 1      1493.850          24.250  
G14  20181177.618 1      -616.850          29.750  
G17  21734916.787 1       533.370          34.000  
G19  22055168.281 1      1301.100          37.500  
G30  23636824.423 1     -2823.010          36.000  
R 2  21833080.230 1      2272.050          20.250  
R 3  23701959.132 1      3419.900          24.500  
R14  20546009.450 1     -3351.729          36.250  
R15  20081361.419 1       439.705          43.750  
R16  23823155.929 1      3381.500          20.000  
R17  21009251.155 1      -821.291          40.500  
R18  22356874.314 1       702.928          30.750  
> 2021  5 21  6 29 16.4306883  0 21                     
C 1  37380162.208 1       -89.350          27.000  
C 2  37062147.465 1      -110.050          34.000  
C 3  36369472.194 1       -93.300          30.250  
C 4  38309571.891 1       -66.150          23.000  
C 5  39227809.208 1      -122.500          34.500  
G 2  24249819.155 1      1716.811          38.250  
G 3  22223755.770 1     -1873.150          29.250  
G 4  25590383.702 1      1260.600          22.750  
G 6  21633108.566 1       937.320          34.500  
G 9  25201533.697 1      1493.850          24.250  
G14  20181260.760 1      -618.022          30.500  
G17  21734787.076 1       535.950          36.000  
G19  22054888.374 1      1304.144          38.250  
G30  23637311.385 1     -2829.853          33.750  
R 2  21832624.644 1      2272.050          20.250  
R 3  23701293.092 1      3419.850          27.000  
R14  20546610.333 1     -3353.981          36.500  
R15  20081258.090 1       440.651          42.500  
R16  23822418.538 1      3382.800          20.000  
R17  21009372.969 1      -818.035          39.000  
R18  22356726.016 1       704.000          28.500  
> 2021  5 21  6 29 17.4306882  0 21                     
C 1  37380174.448 1      -114.300          28.750  
C 2  37062139.319 1      -124.150          34.500  
C 3  36369460.150 1       -93.300          30.250  
C 4  38309554.451 1       -66.150          23.000  
C 5  39227791.469 1      -102.900          27.500  
G 2  24249470.745 1      1716.541          38.500  
G 3  22224045.617 1     -1878.250          25.000  
G 4  25590119.833 1      1260.600          22.000  
G 6  21632903.456 1       938.151          33.000  
G 9  25201380.451 1      1497.900          19.500  
G14  20181362.637 1      -619.054          30.500  
G17  21734659.912 1       538.771          37.750  
G19  22054607.717 1      1307.573          39.500  
G30  23637791.002 1     -2834.025          32.500  
R 2  21832110.148 1      2269.050          20.000  
R 3  23700545.358 1      3414.400          26.000  
R14  20547204.770 1     -3356.792          34.750  
R15  20081139.920 1       441.523          41.250  
R16  23821755.346 1      3382.800          20.000  
R17  21009498.231 1      -814.576          36.500  
R18  22356538.294 1       707.000          26.000  
> 2021  5 21  6 29 18.4306881  0 21                     
C 1  37380166.248 1      -114.300          28.750  
C 2  37062133.217 1      -124.150          34.500  
C 3  36369448.053 1       -93.300          30.250  
C 4  38309536.958 1       -66.150          23.000  
C 5  39227781.171 1      -102.900          27.500  
G 2  24249108.790 1      1715.522          37.500  
G 3  22224426.848 1     -1873.700          23.750  
G 4  25589846.616 1      1261.650          22.000  
G 6  21632694.695 1       937.417          30.250  
G 9  25201039.482 1      1497.550          22.750  
G14  20181443.176 1      -620.150          29.000  
G17  21734525.200 1       540.514          37.500  
G19  22054328.205 1      1309.796          39.750  
G30  23638415.364 1     -2813.250          29.250  
R 2  21831654.958 1      2269.050          20.000  
R 3  23699958.858 1      3423.100          27.250  
R14  20547810.545 1     -3360.096          32.000  
R15  20081035.487 1       441.406          39.500  
R16  23821092.099 1      3382.800          20.000  
R17  21009615.344 1      -812.135          33.500  
R18  22356357.114 1       709.050          25.750  
> 2021  5 21  6 29 19.4306881  0 20                     
C 1  37380188.359 1      -114.300          28.750  
C 2  37062148.433 1      -101.200          32.500  
C 3  36369488.452 1      -118.000          28.500  
C 4  38309550.075 1       -66.150          23.000  
C 5  39227801.183 1      -102.900          27.500  
G 2  24248784.640 1      1716.268          30.500  
G 3  22224792.521 1     -1877.050          21.000  
G 6  21632507.252 1       938.739          31.000  
G 9  25200686.852 1      1504.400          23.750  
G14  20181552.826 1      -622.150          29.250  
G17  21734423.197 1       542.991          39.000  
G19  22054081.402 1      1312.771          40.250  
G30  23638936.629 1     -2812.100          29.750  
R 2  21831309.224 1      2274.350          25.250  
R 3  23699231.488 1      3407.550          25.250  
R14  20548431.941 1     -3361.657          31.250  
R15  20080948.473 1       442.532          39.000  
R16  23820518.523 1      3379.400          21.250  
R17  21009775.360 1      -809.298          32.000  
R18  22356258.709 1       712.100          26.500  
> 2021  5 21  6 29 20.4306880  0 20                     
C 1  37380210.392 1      -147.200          29.250  
C 2  37062150.680 1      -103.800          32.750  
C 3  36369480.806 1      -118.000          28.500  
C 4  38309532.536 1       -66.150          23.000  
C 5  39227790.839 1      -102.900          27.500  
G 2  24248500.586 1      1722.650          23.750  
G 3  22225093.961 1     -1872.300          28.000  
G 6  21632305.040 1       935.900          29.500  
G 9  25200370.420 1      1504.400          23.750  
G14  20181655.504 1      -621.250          29.500  
G17  21734288.738 1       543.300          37.750  
G19  22053796.748 1      1313.589          41.000  
G30  23639428.438 1     -2807.312          31.000  
R 2  21830874.673 1      2282.900          26.500  
R 3  23698565.498 1      3397.250          27.000  
R14  20549051.461 1     -3364.503          33.000  
R15  20080835.300 1       441.383          39.500  
R16  23819855.830 1      3379.400          21.250  
R17  21009891.528 1      -808.313          33.500  
R18  22356025.619 1       711.950          24.250  
> 2021  5 21  6 29 21.4306879  0 20                     
C 1  37380208.641 1      -147.200          29.250  
C 2  37062138.436 1       -91.950          33.000  
C 3  36369473.658 1      -118.000          28.500  
C 4  38309515.195 1       -66.150          23.000  
C 5  39227780.693 1      -102.900          27.500  
G 2  24248142.681 1      1722.650          23.750  
G 3  22225401.296 1     -1873.750          27.000  
G 6  21632084.141 1       937.220          30.000  
G 9  25200035.300 1      1482.550          22.250  
G14  20181746.688 1      -624.850          26.750  
G17  21734150.881 1       543.599          38.750  
G19  22053521.286 1      1314.474          40.250  
G30  23639937.233 1     -2808.094          31.000  
R 2  21830416.938 1      2282.900          26.500  
R 3  23697887.715 1      3385.765          31.000  
R14  20549642.100 1     -3368.039          33.500  
R15  20080722.326 1       440.307          39.750  
R16  23819193.337 1      3379.400          21.250  
R17  21010009.994 1      -807.605          35.500  
R18  22355952.817 1       712.250          25.000  
> 2021  5 21  6 29 22.4306878  0 20                     
C 1  37380207.501 1      -147.200          29.250  
C 2  37062126.504 1       -91.950          33.000  
C 3  36369469.820 1      -130.750          27.750  
C 4  38309498.466 1       -66.150          23.000  
C 5  39227770.860 1      -102.900          27.500  
G 2  24247848.045 1      1713.650          23.250  
G 3  22225734.425 1     -1875.629          32.750  
G 6  21631869.249 1       938.301          30.250  
G 9  25199756.852 1      1491.950          23.500  
G14  20181821.996 1      -623.700          27.750  
G17  21734022.330 1       545.865          38.000  
G19  22053244.037 1      1317.206          39.500  
G30  23640438.246 1     -2814.007          30.750  
R 2  21829959.514 1      2282.900          26.500  
R 3  23697214.140 1      3384.676          33.500  
R14  20550247.740 1     -3369.218          34.000  
R15  20080605.467 1       441.449          39.500  
R16  23818531.154 1      3379.400          21.250  
R17  21010131.469 1      -804.830          38.000  
R18  22355733.428 1       720.100          28.000  
> 2021  5 21  6 29 23.4306877  0 20                     
C 1  37380192.049 1      -111.500          26.500  
C 2  37062125.142 1       -92.150          32.500  
C 3  36369464.861 1      -130.750          27.750  
C 4  38309480.916 1       -66.150          23.000  
C 5  39227760.504 1      -102.900          27.500  
G 2  24247524.106 1      1721.950          22.500  
G 3  22226100.308 1     -1877.800          26.500  
G 6  21631682.915 1       938.816          30.750  
G 9  25199442.806 1      1482.750          25.000  
G14  20181924.362 1      -624.800          29.250  
G17  21733884.262 1       547.443          38.000  
G19  22052960.271 1      1319.103          38.250  
G30  23640948.030 1     -2814.350          29.500  
R 2  21829501.568 1      2282.900          26.500  
R 3  23696542.143 1      3383.787          31.750  
R14  20550837.569 1     -3369.476          33.250  
R15  20080499.777 1       441.971          39.500  
R16  23817868.150 1      3379.400          21.250  
R17  21010263.515 1      -803.003          39.250  
R18  22355568.679 1       719.250          26.500  
> 2021  5 21  6 29 24.4306876  0 20                     
C 1  37380183.738 1      -111.500          26.500  
C 2  37062119.529 1      -152.200          32.500  
C 3  36369460.147 1      -130.750          27.750  
C 4  38309463.911 1       -66.150          23.000  
C 5  39227750.094 1      -102.900          27.500  
G 2  24247166.537 1      1721.950          22.500  
G 3  22226382.196 1     -1875.694          34.750  
G 6  21631461.451 1       938.699          30.500  
G 9  25199238.431 1      1507.450          23.500  
G14  20182014.383 1      -623.950          28.750  
G17  21733752.137 1       547.543          37.250  
G19  22052677.949 1      1319.239          37.250  
G30  23641445.469 1     -2806.945          32.250  
R 2  21829043.868 1      2282.900          26.500  
R 3  23695879.684 1      3392.100          29.250  
R14  20551432.740 1     -3370.190          31.000  
R15  20080387.438 1       441.131          38.750  
R16  23817205.692 1      3379.400          21.250  
R17  21010375.121 1      -803.040          39.500  
R18  22355472.229 1       726.100          24.250  
> 2021  5 21  6 29 25.4306875  0 20                     
C 1  37380175.030 1      -111.500          26.500  
C 2  37062118.616 1      -152.200          32.500  
C 3  36369455.337 1      -128.000          29.250  
C 4  38309446.509 1       -66.150          23.000  
C 5  39227739.887 1      -102.900          27.500  
G 2  24246829.855 1      1709.950          21.750  
G 3  22226717.650 1     -1875.332          34.000  
G 6  21631262.675 1       937.700          28.750  
G 9  25198966.205 1      1502.400          21.250  
G14  20182108.803 1      -622.050          28.500  
G17  21733619.315 1       547.771          37.500  
G19  22052400.327 1      1319.149          37.500  
G30  23641974.588 1     -2808.450          29.500  
R 2  21828586.071 1      2282.900          26.500  
R 3  23695204.238 1      3386.400          28.750  
R14  20552045.501 1     -3369.694          32.000  
R15  20080269.905 1       440.225          38.250  
R16  23816543.137 1      3379.400          21.250  
R17  21010491.126 1      -802.844          38.750  
R18  22355299.235 1       713.450          26.250  
> 2021  5 21  6 29 26.4306874  0 20                     
C 1  37380166.330 1      -111.500          26.500  
C 2  37062112.314 1      -106.500          31.000  
C 3  36369449.934 1      -128.000          29.250  
C 4  38309743.297 1      -157.600          23.500  
C 5  39227729.688 1      -102.900          27.500  
G 2  24246408.041 1      1718.900          22.000  
G 3  22227051.913 1     -1872.900          23.500  
G 6  21631046.818 1       932.100          27.750  
G 9  25198516.810 1      1507.500          24.750  
G14  20182197.536 1      -626.450          25.750  
G17  21733492.796 1       546.505          30.500  
G19  22052113.720 1      1318.689          37.750  
G30  23642483.030 1     -2803.798          32.250  
R 2  21828128.282 1      2282.900          26.500  
R 3  23694562.376 1      3387.727          31.750  
R14  20552663.068 1     -3368.863          32.000  
R15  20080156.277 1       439.359          38.500  
R16  23815880.589 1      3379.400          21.250  
R17  21010620.630 1      -803.561          34.500  
R18  22355095.070 1       715.850          25.250  
> 2021  5 21  6 29 27.4306873  0 20                     
C 1  37380157.789 1      -111.500          26.500  
C 2  37062102.873 1      -106.500          31.000  
C 3  36369444.391 1      -125.750          31.250  
C 4  38309743.450 1      -157.600          23.500  
C 5  39227719.348 1      -102.900          27.500  
G 2  24246050.842 1      1718.900          22.000  
G 3  22227377.940 1     -1872.900          23.500  
G 6  21630828.722 1       940.350          29.500  
G 9  25198321.498 1      1503.900          24.500  
G14  20182278.333 1      -626.700          26.750  
G17  21733367.336 1       548.050          24.750  
G19  22051828.770 1      1320.106          33.000  
G30  23642980.838 1     -2806.715          30.000  
R 2  21827670.352 1      2282.900          26.500  
R 3  23693904.185 1      3390.374          31.750  
R14  20553293.384 1     -3347.950          30.250  
R15  20080035.914 1       440.323          39.000  
R16  23815217.601 1      3379.400          21.250  
R17  21010784.170 1      -813.450          26.750  
R18  22354953.721 1       717.800          25.000  
> 2021  5 21  6 29 28.4306872  0 21                     
C 1  37380181.196 1       -78.400          25.000  
C 2  37062093.304 1      -106.500          31.000  
C 3  36369438.718 1      -125.750          31.250  
C 4  38309743.773 1      -157.600          23.500  
C 5  39227709.179 1      -102.900          27.500  
G 2  24245693.812 1      1718.900          22.000  
G 3  22227704.437 1     -1872.900          23.500  
G 6  21630629.084 1       939.321          33.250  
G 9  25197960.872 1      1507.350          25.750  
G14  20182370.692 1      -628.950          27.250  
G17  21733210.868 1       546.050          25.250  
G19  22051594.056 1      1309.050          28.000  
G30  23643428.152 1     -2825.500          32.500  
R 1  23140000.168 1     -1146.050          23.000  
R 2  21827212.592 1      2282.900          26.500  
R 3  23693258.156 1      3402.750          29.500  
R14  20553883.999 1     -3360.300          32.500  
R15  20079935.207 1       439.009          42.000  
R16  23814555.083 1      3379.400          21.250  
R17  21010905.310 1      -815.350          26.750  
R18  22354769.072 1       718.050          26.750  
> 2021  5 21  6 29 29.4306871  0 22                     
C 1  37380166.419 1       -78.400          25.000  
C 2  37062093.216 1      -138.800          30.000  
C 3  36369433.235 1      -125.750          31.250  
C 4  38309758.375 1      -227.300          25.000  
C 5  39227699.198 1      -102.900          27.500  
G 2  24245336.972 1      1718.900          22.000  
G 3  22228031.124 1     -1872.900          23.500  
G 6  21630429.635 1       942.575          38.250  
G 9  25197609.427 1      1499.600          24.500  
G14  20182434.461 1      -626.750          27.500  
G17  21733104.354 1       532.550          23.500  
G19  22051269.593 1      1314.600          29.000  
G30  23643946.406 1     -2821.623          34.750  
R 1  23140212.034 1     -1143.500          24.250  
R 2  21826755.021 1      2282.900          26.500  
R 3  23692598.225 1      3407.066          30.000  
R14  20554470.006 1     -3344.772          33.250  
R15  20079820.599 1       440.442          44.250  
R16  23813892.754 1      3379.400          21.250  
R17  21010982.269 1      -817.400          20.500  
R18  22354611.594 1       720.157          30.250  
R24  22910008.001 1     -2035.250          19.250  
> 2021  5 21  6 29 30.4306871  0 22                     
C 1  37380181.299 1       -78.400          25.000  
C 2  37062119.788 1      -138.800          30.000  
C 3  36369458.008 1      -148.050          29.500  
C 4  38309801.736 1      -227.300          25.000  
C 5  39227718.875 1      -102.900          27.500  
G 2  24245009.789 1      1718.900          22.000  
G 3  22228387.467 1     -1872.900          23.500  
G 6  21630245.153 1       945.012          41.500  
G 9  25197323.915 1      1524.800          22.000  
G14  20182568.658 1      -626.318          31.000  
G17  21733006.512 1       538.800          21.250  
G19  22051020.656 1      1317.435          34.500  
G30  23644476.030 1     -2828.432          35.750  
R 1  23140429.274 1     -1142.900          23.250  
R 2  21826327.108 1      2282.900          26.500  
R 3  23691938.872 1      3400.450          38.000  
R14  20555082.372 1     -3358.850          34.750  
R15  20079739.545 1       440.628          40.250  
R16  23813260.083 1      3379.400          21.250  
R17  21011134.754 1      -817.400          20.500  
R18  22354482.574 1       721.800          26.000  
R24  22910366.143 1     -2033.950          19.250  
> 2021  5 21  6 29 31.4306870  0 22                     
C 1  37380238.815 1      -134.400          28.000  
C 2  37062116.147 1      -138.800          30.000  
C 3  36369456.165 1      -148.050          29.500  
C 4  38309815.183 1      -227.300          25.000  
C 5  39227708.339 1      -102.900          27.500  
G 2  24244652.392 1      1718.900          22.000  
G 3  22228713.598 1     -1872.900          23.500  
G 6  21630035.254 1       945.580          43.250  
G 9  25196951.230 1      1481.861          31.250  
G14  20182659.152 1      -626.769          32.000  
G17  21732873.661 1       538.800          21.250  
G19  22050743.604 1      1313.042          41.750  
G30  23644988.931 1     -2825.334          40.000  
R 1  23140597.414 1     -1140.050          24.250  
R 2  21825868.981 1      2282.900          26.500  
R 3  23691286.180 1      3412.450          32.000  
R14  20555684.612 1     -3356.215          39.500  
R15  20079630.377 1       438.961          34.250  
R16  23812597.198 1      3379.400          21.250  
R17  21011257.325 1      -817.400          20.500  
R18  22354276.872 1       720.650          26.500  
R24  22910703.066 1     -2032.350          18.250  
> 2021  5 21  6 29 32.4306869  0 22                     
C 1  37380235.059 1      -134.400          28.000  
C 2  37062087.807 1       -75.050          30.000  
C 3  36369455.107 1      -148.050          29.500  
C 4  38309829.114 1      -227.300          25.000  
C 5  39227735.161 1      -104.250          27.750  
G 2  24244295.780 1      1718.900          22.000  
G 3  22229040.512 1     -1872.900          23.500  
G 6  21629825.840 1       946.938          40.750  
G 9  25196657.274 1      1492.396          30.000  
G14  20182748.331 1      -625.985          35.000  
G17  21732763.778 1       537.600          23.000  
G19  22050463.139 1      1309.332          39.250  
G30  23645497.520 1     -2820.188          34.750  
R 1  23140819.401 1     -1139.650          24.500  
R 2  21825411.339 1      2282.900          26.500  
R 3  23690624.679 1      3413.250          35.250  
R14  20556290.933 1     -3351.356          40.500  
R15  20079506.704 1       437.025          37.000  
R16  23811934.797 1      3379.400          21.250  
R17  21011394.171 1      -815.350          18.000  
R18  22354112.427 1       720.650          26.500  
R24  22911054.564 1     -2032.650          19.250  
> 2021  5 21  6 29 33.4306868  0 23                     
C 1  37380230.659 1      -134.400          28.000  
C 2  37062081.009 1      -100.150          36.500  
C 3  36369425.525 1      -123.500          32.500  
C 4  38309842.702 1      -227.300          25.000  
C 5  39227718.170 1       -94.000          35.250  
G 2  24243938.525 1      1718.900          22.000  
G 3  22229366.484 1     -1872.900          23.500  
G 6  21629612.785 1       945.702          40.500  
G 9  25196328.199 1      1494.200          28.500  
G14  20182843.162 1      -626.585          33.750  
G17  21732613.079 1       541.700          23.000  
G19  22050185.628 1      1304.633          38.750  
G22  24752002.199 1     -3171.800          19.500  
G30  23645993.174 1     -2814.318          41.500  
R 1  23140935.818 1     -1136.100          26.250  
R 2  21824953.353 1      2282.900          26.500  
R 3  23690007.803 1      3429.250          29.750  
R14  20556874.426 1     -3348.453          35.250  
R15  20079404.871 1       434.633          41.000  
R16  23811272.053 1      3379.400          21.250  
R17  21011466.219 1      -817.350          24.750  
R18  22353947.039 1       720.650          26.500  
R24  22911410.814 1     -2029.900          19.250  
> 2021  5 21  6 29 34.4306867  0 23                     
C 1  37380245.164 1      -167.900          28.000  
C 2  37062071.831 1       -77.150          34.750  
C 3  36369415.447 1      -112.650          37.750  
C 4  38309856.307 1      -227.300          25.000  
C 5  39227705.993 1       -94.000          35.250  
G 2  24243580.987 1      1718.900          22.000  
G 3  22229692.773 1     -1872.900          23.500  
G 6  21629403.045 1       946.388          40.500  
G 9  25196132.849 1      1508.450          22.000  
G14  20182922.123 1      -624.801          32.000  
G17  21732519.059 1       542.650          27.250  
G19  22049907.836 1      1301.969          38.750  
G22  24752569.522 1     -3174.400          19.250  
G30  23646505.634 1     -2807.339          37.750  
R 1  23141118.206 1     -1136.100          26.250  
R 2  21824495.385 1      2282.900          26.500  
R 3  23689339.980 1      3441.597          30.750  
R14  20557498.109 1     -3344.244          37.500  
R15  20079291.665 1       433.562          37.500  
R16  23810609.327 1      3379.400          21.250  
R17  21011626.723 1      -824.974          35.750  
R18  22353876.103 1       708.800          20.500  
R24  22911770.081 1     -2029.100          19.500  
> 2021  5 21  6 29 35.4306866  0 23                     
C 1  37380247.580 1      -167.900          28.000  
C 2  37062056.859 1       -77.150          34.750  
C 3  36369405.571 1      -112.400          34.500  
C 4  38309789.172 1      -185.650          24.000  
C 5  39227694.019 1       -94.000          35.250  
G 2  24243223.952 1      1718.900          22.000  
G 3  22230019.265 1     -1872.900          23.500  
G 6  21629190.810 1       945.459          40.250  
G 9  25195763.523 1      1522.400          24.500  
G14  20183009.680 1      -624.137          32.000  
G17  21732338.602 1       534.150          29.500  
G19  22049626.348 1      1298.721          38.500  
G22  24753126.254 1     -3171.700          19.000  
G30  23647006.905 1     -2803.907          35.250  
R 1  23141283.410 1     -1143.300          21.000  
R 2  21823996.548 1      2259.100          20.000  
R 3  23688641.781 1      3442.652          32.250  
R14  20558078.225 1     -3341.191          41.250  
R15  20079187.954 1       431.326          34.000  
R16  23809946.804 1      3379.400          21.250  
R17  21011746.357 1      -829.932          42.500  
R18  22353713.333 1       708.800          20.500  
R24  22912118.457 1     -2028.900          19.500  
> 2021  5 21  6 29 36.4306865  0 23                     
C 1  37380250.323 1      -167.900          28.000  
C 2  37062041.915 1       -77.150          34.750  
C 3  36369397.222 1      -109.650          36.500  
C 4  38309794.913 1      -185.650          24.000  
C 5  39227676.377 1       -80.550          29.750  
G 2  24242867.244 1      1718.900          22.000  
G 3  22230346.084 1     -1872.900          23.500  
G 6  21628986.996 1       945.126          39.250  
G 9  25195431.998 1      1511.000          24.750  
G14  20183099.663 1      -623.946          33.500  
G17  21732208.238 1       523.600          33.500  
G19  22049353.882 1      1297.404          41.250  
G22  24753692.907 1     -3173.750          19.250  
G30  23647504.605 1     -2802.027          38.750  
R 1  23141498.706 1     -1139.850          26.750  
R 2  21823543.607 1      2259.100          20.000  
R 3  23687960.399 1      3434.095          34.000  
R14  20558673.059 1     -3339.796          45.750  
R15  20079064.785 1       430.062          34.750  
R16  23809284.308 1      3379.400          21.250  
R17  21011873.815 1      -830.884          42.000  
R18  22353550.891 1       708.800          20.500  
R24  22912487.847 1     -2019.250          23.500  
> 2021  5 21  6 29 37.4306864  0 22                     
C 1  37380226.556 1      -135.100          30.250  
C 2  37062036.435 1       -78.000          29.500  
C 3  36369389.045 1      -106.050          38.500  
C 4  38309764.551 1      -177.850          31.000  
C 5  39227661.304 1       -80.550          29.750  
G 2  24242509.808 1      1718.900          22.000  
G 6  21628776.158 1       942.928          38.250  
G 9  25195111.736 1      1514.500          29.500  
G14  20183194.014 1      -626.594          35.000  
G17  21732065.453 1       521.080          36.000  
G19  22049076.491 1      1295.128          42.500  
G22  24754275.320 1     -3171.800          20.750  
G30  23648003.976 1     -2803.524          40.000  
R 1  23141612.843 1     -1149.950          22.000  
R 2  21823125.313 1      2256.750          21.750  
R 3  23687277.388 1      3430.890          33.250  
R14  20559273.460 1     -3342.488          46.500  
R15  20078962.172 1       427.168          36.000  
R16  23808621.383 1      3379.400          21.250  
R17  21011995.747 1      -833.303          40.250  
R18  22353387.720 1       708.800          20.500  
R24  22912846.915 1     -2026.600          23.250  
> 2021  5 21  6 29 38.4306863  0 22                     
C 1  37380222.800 1      -135.100          30.250  
C 2  37062025.483 1       -63.950          33.000  
C 3  36369378.393 1      -117.900          37.500  
C 4  38309769.188 1      -177.850          31.000  
C 5  39227647.354 1       -80.550          29.750  
G 2  24242153.196 1      1718.900          22.000  
G 6  21628566.744 1       939.913          37.000  
G 9  25194804.589 1      1513.150          29.500  
G14  20183282.894 1      -629.230          35.250  
G17  21731939.381 1       518.942          35.000  
G19  22048799.623 1      1292.745          41.500  
G22  24754839.970 1     -3171.600          20.750  
G30  23648508.068 1     -2805.956          38.000  
R 1  23141883.997 1     -1146.700          22.500  
R 2  21822672.768 1      2256.750          21.750  
R 3  23686600.597 1      3428.095          32.250  
R14  20559869.588 1     -3345.464          46.250  
R15  20078845.694 1       423.733          38.000  
R16  23807959.282 1      3379.400          21.250  
R17  21012123.599 1      -835.567          39.250  
R18  22353225.374 1       708.800          20.500  
R24  22913160.638 1     -2026.450          24.500  
> 2021  5 21  6 29 39.4306863  0 23                     
C 1  37380249.666 1      -114.200          31.250  
C 2  37062037.659 1       -63.950          33.000  
C 3  36369401.062 1      -105.750          37.500  
C 4  38309803.249 1      -177.850          31.000  
C 5  39227662.828 1       -80.550          29.750  
G 2  24241826.007 1      1718.900          22.000  
G 3  22231475.344 1     -1870.300          23.500  
G 6  21628387.053 1       938.514          37.500  
G 9  25194517.872 1      1505.531          30.500  
G14  20183407.492 1      -629.623          35.000  
G17  21731838.535 1       519.854          35.000  
G19  22048547.382 1      1292.743          41.000  
G22  24755444.237 1     -3171.850          21.000  
G30  23649050.577 1     -2807.106          37.000  
R 1  23142116.520 1     -1145.950          27.000  
R 2  21822154.611 1      2252.000          22.750  
R 3  23685966.121 1      3432.083          32.500  
R14  20560491.242 1     -3346.692          45.750  
R15  20078763.735 1       422.341          38.000  
R16  23807326.605 1      3379.400          21.250  
R17  21012279.975 1      -834.935          38.500  
R18  22353092.450 1       708.800          20.500  
R24  22913539.461 1     -2026.450          24.500  
> 2021  5 21  6 29 40.4306862  0 23                     
C 1  37380241.637 1      -114.200          31.250  
C 2  37062020.037 1       -63.950          33.000  
C 3  36369390.634 1      -118.200          38.000  
C 4  38309785.027 1      -152.150          29.750  
C 5  39227648.204 1       -80.550          29.750  
G 2  24241469.020 1      1718.900          22.000  
G 3  22231777.001 1     -1880.650          24.750  
G 6  21628179.362 1       939.894          37.000  
G 9  25194204.055 1      1511.550          27.000  
G14  20183489.401 1      -627.953          34.500  
G17  21731713.287 1       523.877          35.250  
G19  22048277.035 1      1295.042          41.250  
G22  24756021.402 1     -3171.950          21.500  
G30  23649545.600 1     -2805.235          37.750  
R 1  23142309.352 1     -1147.350          24.250  
R 2  21821722.675 1      2249.000          25.000  
R 3  23685297.349 1      3436.362          30.000  
R14  20561092.691 1     -3345.284          46.000  
R15  20078659.173 1       423.446          39.750  
R16  23806663.829 1      3379.400          21.250  
R17  21012402.056 1      -832.436          39.000  
R18  22352930.028 1       708.800          20.500  
R24  22913868.998 1     -2027.500          24.500  
> 2021  5 21  6 29 41.4306861  0 24                     
C 1  37380247.055 1      -138.450          31.750  
C 2  37062002.371 1       -63.950          33.000  
C 3  36369385.859 1      -117.200          38.000  
C 4  38309784.149 1      -152.150          29.750  
C 5  39227633.835 1       -80.550          29.750  
G 1  24287358.872 1     -3296.200          24.500  
G 2  24241137.171 1      1689.550          20.500  
G 3  22232064.523 1     -1895.200          30.000  
G 6  21627966.531 1       938.792          36.500  
G 9  25193865.011 1      1513.900          24.750  
G14  20183582.957 1      -628.176          34.750  
G17  21731588.595 1       529.450          35.500  
G19  22048003.046 1      1295.309          41.000  
G22  24756583.535 1     -3171.750          21.500  
G30  23650042.977 1     -2806.317          31.000  
R 1  23142497.344 1     -1149.650          25.000  
R 2  21821271.209 1      2249.000          25.000  
R 3  23684649.220 1      3431.000          29.500  
R14  20561688.400 1     -3346.301          45.500  
R15  20078546.772 1       422.269          41.000  
R16  23806001.309 1      3379.400          21.250  
R17  21012523.194 1      -831.611          37.000  
R18  22352767.262 1       708.800          20.500  
R24  22914301.021 1     -2028.650          28.500  
> 2021  5 21  6 29 42.4306860  0 24                     
C 1  37380240.747 1      -136.550          32.750  
C 2  37061984.671 1       -63.950          33.000  
C 3  36369370.258 1      -108.950          38.250  
C 4  38309783.538 1      -152.150          29.750  
C 5  39227619.133 1       -80.550          29.750  
G 1  24287947.053 1     -3294.500          23.750  
G 2  24240795.395 1      1696.250          20.750  
G 3  22232394.582 1     -1900.944          31.250  
G 6  21627759.063 1       936.963          35.500  
G 9  25193530.131 1      1509.450          24.750  
G14  20183677.080 1      -629.504          35.000  
G17  21731466.568 1       533.757          36.250  
G19  22047725.426 1      1294.245          42.500  
G22  24757167.219 1     -3173.100          25.750  
G30  23650566.702 1     -2807.046          31.750  
R 1  23142622.045 1     -1155.800          28.000  
R 2  21820740.265 1      2256.200          22.500  
R 3  23683973.475 1      3431.526          32.500  
R14  20562296.367 1     -3347.763          44.500  
R15  20078441.833 1       420.263          41.250  
R16  23805338.756 1      3379.400          21.250  
R17  21012652.992 1      -832.481          38.500  
R18  22352604.463 1       708.800          20.500  
R24  22914552.235 1     -2029.850          26.250  
> 2021  5 21  6 29 43.4306859  0 23                     
C 1  37380245.188 1      -137.050          32.500  
C 2  37061966.927 1       -63.950          33.000  
C 3  36369361.808 1       -99.450          37.750  
C 4  38309800.870 1      -195.250          29.000  
C 5  39227604.688 1       -80.550          29.750  
G 1  24288538.788 1     -3293.550          23.500  
G 2  24240466.168 1      1695.900          22.000  
G 3  22232721.001 1     -1903.268          33.250  
G 6  21627553.350 1       936.622          35.500  
G 9  25193212.595 1      1507.500          27.000  
G14  20183763.664 1      -630.621          32.500  
G17  21731333.404 1       522.955          35.000  
G19  22047447.163 1      1293.551          42.000  
G22  24757757.754 1     -3180.200          29.250  
G30  23651063.703 1     -2806.796          33.250  
R 1  23142845.035 1     -1155.550          22.000  
R 2  21820325.896 1      2249.250          24.750  
R 3  23683265.310 1      3431.263          34.000  
R14  20562884.205 1     -3348.268          43.500  
R15  20078337.749 1       419.042          41.000  
R17  21012780.048 1      -833.333          38.750  
R18  22352419.135 1       699.650          15.500  
R24  22914893.043 1     -2028.350          26.250  
> 2021  5 21  6 29 44.4306858  0 23                     
C 1  37380241.253 1      -137.050          32.500  
C 2  37061948.902 1       -63.950          33.000  
C 3  36369350.978 1      -101.100          38.000  
C 4  38309808.027 1      -195.250          29.000  
C 5  39227589.960 1       -80.550          29.750  
G 1  24289126.343 1     -3292.000          23.250  
G 2  24240112.974 1      1695.900          22.000  
G 3  22233054.332 1     -1902.944          32.250  
G 6  21627348.553 1       939.826          32.250  
G 9  25192896.876 1      1507.700          31.500  
G14  20183852.665 1      -628.636          31.750  
G17  21731208.053 1       535.760          37.000  
G19  22047171.316 1      1296.390          41.750  
G22  24758282.653 1     -3173.400          23.500  
G30  23651564.918 1     -2803.116          35.500  
R 1  23142934.635 1     -1161.050          21.500  
R 2  21819915.742 1      2251.750          25.500  
R 3  23682680.377 1      3429.150          28.500  
R14  20563489.148 1     -3345.548          44.000  
R15  20078222.591 1       421.568          40.500  
R17  21012914.617 1      -829.568          38.250  
R18  22352257.509 1       699.650          15.500  
R24  22915310.616 1     -2027.022          33.500  
> 2021  5 21  6 29 45.4306857  0 23                     
C 1  37380230.597 1      -137.600          32.500  
C 2  37061931.351 1       -63.950          33.000  
C 3  36369341.821 1      -101.600          39.500  
C 4  38309815.659 1      -195.250          29.000  
C 5  39227575.407 1       -80.550          29.750  
G 1  24289723.067 1     -3292.800          22.500  
G 2  24239760.555 1      1695.900          22.000  
G 3  22233398.631 1     -1906.345          34.250  
G 6  21627158.622 1       938.400          28.500  
G 9  25192574.136 1      1509.650          27.000  
G14  20183942.440 1      -630.441          35.000  
G17  21731079.579 1       534.500          38.500  
G19  22046895.644 1      1296.463          43.000  
G22  24758856.592 1     -3173.400          23.500  
G30  23652069.905 1     -2802.986          34.750  
R 1  23143121.842 1     -1161.050          21.500  
R 2  21819463.792 1      2251.750          25.500  
R 3  23682055.147 1      3423.900          26.250  
R14  20564083.773 1     -3346.292          43.250  
R15  20078123.497 1       421.369          38.500  
R17  21013036.170 1      -824.978          41.500  
R18  22352044.194 1       709.100          23.500  
R24  22915653.116 1     -2024.270          31.250  
> 2021  5 21  6 29 46.4306856  0 23                     
C 1  37380229.552 1      -139.600          35.000  
C 2  37061913.818 1       -63.950          33.000  
C 3  36369332.082 1      -109.150          37.750  
C 4  38309780.738 1      -161.300          30.000  
C 5  39227561.171 1       -80.550          29.750  
G 1  24290321.008 1     -3291.150          22.500  
G 2  24239407.854 1      1695.900          22.000  
G 3  22233722.861 1     -1908.756          32.250  
G 6  21626935.431 1       940.350          27.000  
G 9  25192278.995 1      1508.750          25.500  
G14  20184028.934 1      -630.947          33.250  
G17  21730944.227 1       536.413          40.250  
G19  22046620.289 1      1299.192          41.750  
G22  24759458.431 1     -3171.200          21.750  
G30  23652551.826 1     -2803.158          31.500  
R 1  23143309.367 1     -1161.050          21.500  
R 2  21819085.308 1      2250.550          22.500  
R 3  23681368.776 1      3438.850          25.500  
R14  20564677.817 1     -3346.267          43.750  
R15  20078013.627 1       423.457          34.500  
R17  21013162.237 1      -829.861          44.000  
R18  22351887.257 1       713.332          30.250  
R24  22915919.486 1     -2020.633          32.750  
> 2021  5 21  6 29 47.4306855  0 21                     
C 1  37380226.280 1      -139.600          35.000  
C 2  37061895.856 1       -63.950          33.000  
C 3  36369328.211 1      -108.500          37.000  
C 4  38309781.363 1      -161.300          30.000  
C 5  39227546.207 1       -80.550          29.750  
G 1  24290908.626 1     -3287.550          23.250  
G 2  24239055.024 1      1695.900          22.000  
G 3  22234061.052 1     -1909.374          30.250  
G14  20184106.606 1      -631.962          33.500  
G17  21730803.650 1       526.347          44.500  
G19  22046339.409 1      1303.210          40.000  
G22  24760041.552 1     -3163.550          24.500  
G30  23653101.671 1     -2810.350          24.250  
R 1  23143496.164 1     -1161.050          21.500  
R 2  21818614.060 1      2242.300          23.000  
R 3  23680759.324 1      3427.750          30.250  
R14  20565276.228 1     -3348.092          39.750  
R15  20077892.237 1       424.972          36.750  
R17  21013284.878 1      -826.080          44.000  
R18  22351704.709 1       712.500          24.000  
R24  22916225.600 1     -2033.200          25.000  
> 2021  5 21  6 29 48.4306855  0 22                     
C 1  37380260.097 1      -141.450          32.250  
C 2  37061908.387 1       -63.950          33.000  
C 3  36369344.040 1      -100.900          38.250  
C 4  38309812.481 1      -161.300          30.000  
C 5  39227562.037 1       -80.550          29.750  
G 1  24291529.437 1     -3286.000          23.250  
G 2  24238714.999 1      1733.700          17.500  
G 3  22234416.247 1     -1908.519          34.250  
G 9  25191646.998 1      1499.750          28.500  
G14  20184241.453 1      -631.226          32.250  
G17  21730697.764 1       530.566          47.000  
G19  22046096.218 1      1308.123          40.500  
G22  24760643.776 1     -3162.150          22.000  
G30  23653636.741 1     -2810.350          24.250  
R 1  23143721.248 1     -1155.300          17.000  
R 2  21818194.291 1      2242.300          23.000  
R 3  23680179.166 1      3431.200          23.500  
R14  20565914.127 1     -3350.628          38.250  
R15  20077822.325 1       427.204          38.750  
R17  21013440.411 1      -821.062          41.750  
R18  22351571.242 1       712.500          24.000  
R24  22916652.145 1     -2021.750          24.000  
> 2021  5 21  6 29 49.4306854  0 21                     
C 1  37380257.153 1      -141.450          32.250  
C 2  37061890.753 1       -63.950          33.000  
C 3  36369335.399 1      -112.600          38.250  
C 4  38309818.830 1      -170.700          26.250  
C 5  39227547.700 1       -80.550          29.750  
G 1  24292131.174 1     -3285.600          22.500  
G 2  24238393.076 1      1733.700          20.750  
G 3  22234757.464 1     -1907.680          33.000  
G14  20184333.243 1      -634.772          33.250  
G17  21730565.309 1       534.004          44.500  
G19  22045808.770 1      1311.786          40.750  
G22  24761215.533 1     -3162.150          22.000  
G30  23654141.345 1     -2810.350          24.250  
R 1  23143907.472 1     -1155.300          17.000  
R 2  21817744.056 1      2242.300          23.000  
R 3  23679481.602 1      3437.200          24.000  
R14  20566494.278 1     -3352.756          35.250  
R15  20077715.053 1       427.492          39.750  
R17  21013563.379 1      -816.070          40.000  
R18  22351407.908 1       712.500          24.000  
R24  22916908.820 1     -2041.600          23.500  
> 2021  5 21  6 29 50.4306853  0 23                     
C 1  37380254.448 1      -141.450          32.250  
C 2  37061873.059 1       -63.950          33.000  
C 3  36369324.600 1      -122.200          35.500  
C 4  38309821.522 1      -170.700          26.250  
C 5  39227533.004 1       -80.550          29.750  
G 1  24292734.650 1     -3285.100          22.000  
G 2  24238060.600 1      1705.650          24.500  
G 3  22235088.129 1     -1901.577          35.000  
G 6  21626151.786 1       948.000          28.000  
G 9  25191029.473 1      1494.850          28.000  
G14  20184426.772 1      -635.857          38.250  
G17  21730438.191 1       541.512          38.500  
G19  22045532.655 1      1316.210          41.500  
G22  24761787.531 1     -3162.150          22.000  
G30  23654798.484 1     -2827.600          26.750  
R 1  23144093.637 1     -1155.300          17.000  
R 2  21817293.762 1      2242.300          23.000  
R 3  23678802.566 1      3437.500          24.000  
R14  20567099.853 1     -3359.000          29.500  
R15  20077606.222 1       427.562          38.500  
R17  21013678.793 1      -808.257          40.500  
R18  22351244.515 1       712.500          24.000  
R24  22917319.829 1     -2046.150          23.250  
> 2021  5 21  6 29 51.4306852  0 23                     
C 1  37380252.524 1      -140.000          30.500  
C 2  37061855.246 1       -63.950          33.000  
C 3  36369317.880 1      -122.200          35.500  
C 4  38309824.395 1      -170.700          26.250  
C 5  39227518.489 1       -80.550          29.750  
G 1  24293329.612 1     -3284.750          22.000  
G 2  24237706.120 1      1705.650          24.500  
G 3  22235428.867 1     -1900.636          38.000  
G 6  21625909.429 1       940.000          42.000  
G 9  25190716.964 1      1495.650          26.500  
G14  20184514.786 1      -637.586          37.250  
G17  21730305.557 1       545.658          37.000  
G19  22045252.224 1      1318.703          44.750  
G22  24762359.110 1     -3162.150          22.000  
G30  23655278.626 1     -2825.650          22.500  
R 1  23144279.683 1     -1155.300          17.000  
R 2  21816843.648 1      2242.300          23.000  
R 3  23678130.306 1      3437.500          24.000  
R14  20567699.612 1     -3359.000          29.500  
R15  20077484.981 1       428.065          32.250  
R17  21013796.486 1      -806.187          39.250  
R18  22351081.003 1       712.500          24.000  
R24  22917740.613 1     -2031.850          24.750  
> 2021  5 21  6 29 52.4306851  0 24                     
C 1  37380249.435 1      -140.000          30.500  
C 2  37061837.767 1       -63.950          33.000  
C 3  36369311.792 1      -122.200          35.500  
C 4  38309822.804 1      -179.500          26.000  
C 5  39227504.007 1       -80.550          29.750  
G 1  24293923.410 1     -3284.450          21.750  
G 2  24237229.658 1      1701.250          20.000  
G 3  22235757.348 1     -1899.485          37.500  
G 4  25580706.688 1      1230.250          24.250  
G 6  21625694.986 1       943.137          38.250  
G 9  25190412.883 1      1500.600          24.000  
G14  20184607.630 1      -637.986          36.250  
G17  21730168.760 1       543.483          37.750  
G19  22044971.227 1      1320.727          41.250  
G22  24762931.023 1     -3162.150          22.000  
G30  23655762.699 1     -2814.050          23.500  
R 1  23144509.532 1     -1154.450          18.000  
R 2  21816393.568 1      2242.300          23.000  
R 3  23677467.074 1      3425.100          22.500  
R14  20568300.005 1     -3359.000          29.500  
R15  20077367.970 1       426.572          31.500  
R17  21013928.903 1      -807.250          39.000  
R18  22350917.825 1       712.500          24.000  
R24  22918075.389 1     -2019.000          26.250  
> 2021  5 21  6 29 53.4306850  0 24                     
C 1  37380246.149 1      -140.000          30.500  
C 2  37061819.791 1       -63.950          33.000  
C 3  36369304.909 1      -122.200          35.500  
C 4  38309827.013 1      -179.500          26.000  
C 5  39227489.329 1       -80.550          29.750  
G 1  24294518.210 1     -3284.450          21.750  
G 2  24236898.399 1      1700.200          23.250  
G 3  22236087.432 1     -1895.700          36.000  
G 4  25580442.583 1      1227.500          24.250  
G 6  21625487.241 1       945.792          42.000  
G 9  25190097.213 1      1500.600          24.000  
G14  20184694.881 1      -634.362          35.250  
G17  21730029.968 1       547.806          37.000  
G19  22044687.035 1      1324.444          40.750  
G22  24763452.673 1     -3163.350          18.000  
G30  23656311.931 1     -2807.200          22.750  
R 1  23144671.432 1     -1154.250          21.000  
R 2  21815942.992 1      2242.300          23.000  
R 3  23676840.819 1      3442.150          25.250  
R14  20568899.901 1     -3359.000          29.500  
R15  20077267.252 1       429.265          32.500  
R17  21014041.936 1      -801.767          37.500  
R18  22350753.850 1       712.500          24.000  
R24  22918402.475 1     -2017.750          28.000  
> 2021  5 21  6 29 54.4306849  0 24                     
C 1  37380253.730 1      -176.300          27.750  
C 2  37061801.890 1       -63.950          33.000  
C 3  36369298.100 1      -122.200          35.500  
C 4  38309831.297 1      -179.500          26.000  
