     3.03           OBSERVATION DATA    M: Mixed            RINEX VERSION / TYPE
RTKCONV demo5 b33c                      20210524 111410 UTC PGM / RUN BY / DATE 
log: C:\Users\Ivan_PolyU_Dktp\Dropbox\HUAWEI Exp\20210521_  COMMENT             
format: RINEX                                               COMMENT             
Geo++                                                       MARKER NAME         
                                                            MARKER NUMBER       
                                                            MARKER TYPE         
                                                            OBSERVER / AGENCY   
unknown             Xiaomi              MI 8                REC # / TYPE / VERS 
unknown             MI 8                                    ANT # / TYPE        
 -2419236.7827  5385476.5952  2405350.2078                  APPROX POSITION XYZ 
        0.0000        0.0000        0.0000                  ANTENNA: DELTA H/E/N
G    8 C1C L1C D1C S1C C5Q L5Q D5Q S5Q                      SYS / # / OBS TYPES 
R    4 C1C L1C D1C S1C                                      SYS / # / OBS TYPES 
J    8 C1C L1C D1C S1C C5Q L5Q D5Q S5Q                      SYS / # / OBS TYPES 
  2021     5    21     6    29    5.9999036     GPS         TIME OF FIRST OBS   
  2021     5    21     6    54   39.9999567     GPS         TIME OF LAST OBS    
G                                                           SYS / PHASE SHIFT   
R                                                           SYS / PHASE SHIFT   
J                                                           SYS / PHASE SHIFT   
  3 R01  1 R09 -2 R17  4                                    GLONASS SLOT / FRQ #
 C1C    0.000 C1P    0.000 C2C    0.000 C2P    0.000        GLONASS COD/PHS/BIS 
                                                            END OF HEADER       
> 2021  5 21  6 29  5.9999036  0 15                     
G 2  24253513.242 1                      1911.797          22.500                                                                  
G 3  22220306.102 1 116768441.48011     -1676.803          24.500    22220313.597 1  87197279.717 1     -1252.104          31.000  
G 6  21635239.535 1                      1129.150          25.000    21635253.626 1  84901399.256 1       843.534          34.500  
G14  20180327.550 1                      -412.758          20.250                                                                  
G17  21736117.599 1 114224099.673 1       718.898          23.500                                                                  
G19  22057739.145 1 115914237.891 1      1484.868          35.000                                                                  
G28  20534919.971 1 107911734.600 1      1160.195          31.500                                                                  
G30  23631931.354 1 124186606.668 1     -2633.057          28.750    23631938.849 1  92736788.793 1     -1966.129          24.750  
J 1  37415353.690 1                        70.716          21.000                                                                  
J 2  35953222.102 1 188935413.764 1       255.986          25.750                                                                  
R 2  21835939.494 1 116520615.821 1      2467.666          26.250  
R14  20538961.473 1                     -3147.930          15.250  
R15  20080929.262 1 107306359.705 1       638.925          32.000  
R17  21006560.061 1                      -634.153          25.750  
R18  22356886.450 1 119342418.058 1       892.742          29.250  
> 2021  5 21  6 29  6.9999037  0 14                     
G 2  24253173.577 1 127451316.48311      1909.974          23.750                                                                  
G 3  22220655.360 1 116770275.887 1     -1676.865          27.250    22220664.354 1  87198650.029 1     -1252.667          31.000  
G 6  21635058.461 1 113692960.67711      1129.235          26.500    21635068.654 1  84900673.594 1       843.307          35.000  
G17  21736014.171 1                       719.585          26.000                                                                  
G19  22057489.718 1 115912910.550 1      1484.884          37.250                                                                  
G28  20534726.305 1 107910732.424 1      1159.718          32.750                                                                  
G30  23632460.188 1 124189397.164 1     -2632.954          28.750    23632468.283 1                     -1965.645          25.500  
J 1  37415365.382 1                        71.068          23.750                                                                  
J 2  35953206.213 1 188935315.411 1       255.894          27.250                                                                  
R 2  21835499.398 1                      2467.404          26.250  
R14  20539539.473 1                     -3146.358          18.000  
R15  20080836.326 1 107305881.838 1       638.067          32.500  
R17  21006705.760 1 112411317.78911      -633.964          26.500  
R18  22356741.950 1 119341685.326 1       892.764          30.000  
> 2021  5 21  6 29  7.9999037  0 15                     
G 2  24252814.126 1                      1912.409          23.500                                                                  
G 3  22220971.342 1 116771954.841 1     -1678.954          25.750    22220981.834 1                     -1254.608          29.750  
G 6  21634845.008 1 113691830.627 1      1130.050          28.000    21634853.702 1  84899829.716 1       843.878          34.000  
G14  20180526.912 1 106049235.92411      -419.595          23.500                                                                  
G17  21735870.570 1                       720.562          23.250                                                                  
G19  22057206.714 1 115911424.773 1      1485.776          35.250                                                                  
G28  20534504.159 1 107909572.934 1      1159.490          31.500                                                                  
G30  23632957.244 1 124192029.967 1     -2632.802          29.250    23632967.437 1  92740838.69711     -1966.071          28.250  
J 1  37415351.291 1                        70.788          24.500                                                                  
J 2  35953151.051 1 188935060.301 1       255.111          26.500                                                                  
R 2  21835027.225 1                      2471.385          25.750  
R14  20540151.349 1                     -3145.907          19.500  
R15  20080711.912 1 107305243.781 1       638.057          32.000  
R17  21006835.870 1 112411951.321 1      -633.531          29.500  
R18  22356583.060 1 119340791.170 1       894.156          30.250  
> 2021  5 21  6 29  8.9999037  0 15                     
G 2  24252450.778 1 127447492.20611      1913.080          31.250                                                                  
G 3  22221289.721 1                     -1676.059          23.750    22221302.013 1  87201158.82011     -1255.043          28.000  
G 6  21634630.357 1 113690699.213 1      1131.414          34.500    21634639.051 1                       846.145          33.500  
G14  20180594.365 1                      -420.198          27.000                                                                  
G17  21735728.468 1                       720.304          25.250                                                                  
G19  22056921.611 1 115909938.084 1      1486.690          33.000                                                                  
G28  20534284.411 1 107908413.495 1      1159.439          31.750                                                                  
G30  23633462.095 1                     -2630.606          31.000    23633468.990 1  92742803.601 1     -1964.904          27.500  
J 1  37415334.803 1                        72.818          22.250                                                                  
J 2  35953103.384 1 188934805.007 1       255.294          26.250                                                                  
R 2  21834562.247 1                      2468.318          22.250  
R14  20540743.439 1                     -3147.874          21.500  
R15  20080596.492 1 107304605.355 1       638.426          31.750  
R17  21006953.089 1 112412584.152 1      -632.831          31.500  
R18  22356409.780 1                       896.582          28.000  
> 2021  5 21  6 29  9.9999038  0 14                     
G 2  24252111.413 1 127445735.379 1      1914.370          34.500                                                                  
G 3  22221648.573 1                     -1682.807          24.000    22221656.967 1                     -1256.856          24.250  
G 6                                                                  21634452.580 1  84898257.05311       845.441          35.500  
G14  20180698.993 1 106050234.46511      -420.944          28.500                                                                  
G17  21735628.338 1                       718.032          26.250                                                                  
G19  22056670.385 1 115908608.034 1      1487.592          33.750                                                                  
G28  20534091.045 1 107907411.974 1      1159.063          31.500                                                                  
G30  23633988.830 1 124197449.70111     -2630.995          32.250    23633997.524 1                     -1963.601          24.000  
J 1  37415354.889 1                        68.110          19.250                                                                  
J 2  35953085.996 1                       253.316          23.750                                                                  
R 2  21834156.028 1                      2468.376          21.250  
R14  20541296.257 1 109496667.02711     -3147.619          28.000  
R17  21007107.182 1 112413377.036 1      -632.459          31.250  
R18  22356312.947 1                       898.237          24.500  
> 2021  5 21  6 29 10.9999038  0 15                     
G 2  24251746.565 1 127443820.926 1      1914.452          33.750                                                                  
G 3  22221963.954 1                     -1686.123          23.750    22221977.445 1                     -1254.940          23.250  
G 6                                                                  21634238.229 1  84897411.357 1       845.695          35.000  
G14  20180780.536 1 106050656.508 1      -422.044          28.500                                                                  
G17  21735494.930 1                       721.195          25.250                                                                  
G19  22056384.383 1 115907118.638 1      1489.396          34.000                                                                  
G28  20533874.295 1 107906252.712 1      1159.262          31.000                                                                  
G30  23634489.783 1 124200082.157 1     -2632.456          30.500    23634502.075 1                     -1966.696          22.750  
J 1  37415338.400 1                        68.481          17.000                                                                  
J 2  35953035.631 1                       249.561          19.250                                                                  
R 2  21833615.802 1                      2471.104          20.250  
R14  20541888.646 1 109499816.505 1     -3149.478          29.000  
R15  20080397.430 1                       638.390          26.250  
R17  21007226.800 1                      -631.052          30.250  
R18  22356141.765 1                       901.474          21.250  
> 2021  5 21  6 29 11.9999038  0 14                     
G 2  24251385.315 1 127441909.102 1      1911.824          33.500                                                                  
G 3  22222291.328 1                     -1678.451          24.250    22222292.227 1                     -1254.869          24.250  
G 6  21634011.885 1 113687461.27611      1130.811          30.250    21634021.778 1                       842.394          34.250  
G14  20180860.581 1 106051079.690 1      -423.182          27.500                                                                  
G17  21735356.726 1                       723.201          24.250                                                                  
G19  22056100.479 1 115905627.646 1      1490.992          34.000                                                                  
G28  20533654.547 1 107905093.475 1      1159.238          31.750                                                                  
G30  23634992.535 1                     -2639.076          30.000    23635000.929 1                     -1968.928          27.000  
J 1  37415331.505 1                        63.793          21.250                                                                  
R 3  23702757.323 1                      3621.571          22.750  
R14  20542472.342 1                     -3151.457          24.750  
R15  20080275.115 1                       637.968          30.750  
R17  21007345.817 1 112414636.35111      -628.466          30.250  
R18  22355969.984 1                       899.613          23.500  
> 2021  5 21  6 29 12.9999039  0 16                     
G 2  24251049.848 1 127440156.930 1      1909.713          32.500                                                                  
G 3  22222636.989 1                     -1677.952          26.500    22222642.085 1  87206417.78511     -1254.605          30.500  
G 6  21633826.913 1 113686489.176 1      1129.643          31.750    21633837.406 1  84895841.03911       843.410          37.750  
G14  20180971.804 1 106051660.217 1      -422.986          26.000                                                                  
G17  21735247.901 1                       725.516          28.250                                                                  
G19  22055846.255 1 115904293.473 1      1491.716          34.500                                                                  
G28  20533465.378 1 107904091.928 1      1159.089          30.250                                                                  
G30  23635524.367 1                     -2641.718          27.500    23635533.061 1                     -1970.220          29.250  
J 1  37415349.493 1                        64.688          21.250                                                                  
J 2  35952973.874 1                       250.439          25.000                                                                  
R 2  21832648.072 1                      2458.941          21.750  
R 3  23702149.343 1                      3617.751          24.000  
R14  20543102.506 1                     -3152.767          25.500  
R15  20080181.879 1                       635.850          30.750  
R17  21007499.311 1 112415424.003 1      -627.226          34.750  
R18  22355809.595 1 119336976.59311       897.927          28.000  
> 2021  5 21  6 29 13.9999039  0 16                     
G 2  24250688.298 1                      1907.245          28.000                                                                  
G 3  22222949.972 1 116782336.59911     -1680.645          27.750    22222959.865 1  87207672.741 1     -1254.956          28.500  
G 6  21633611.662 1 113685360.117 1      1129.059          33.250    21633622.755 1  84894997.860 1       843.179          35.750  
G14  20181056.945 1 106052084.472 1      -424.255          26.250                                                                  
G17  21735107.598 1 114218784.26511       724.334          29.750                                                                  
G19  22055563.251 1 115902801.628 1      1491.844          32.000                                                                  
G28  20533241.433 1 107902933.455 1      1158.473          27.000                                                                  
G30                                                                  23636037.911 1                     -1970.383          28.750  
J 1  37415336.601 1                        68.164          23.750                                                                  
J 2  35952932.803 1                       254.528          21.750                                                                  
R 2  21832196.285 1                      2465.854          21.500  
R 3  23701434.338 1                      3614.739          23.500  
R14  20543692.797 1                     -3155.693          28.000  
R15  20080058.964 1 107301732.41011       635.944          34.750  
R17  21007613.232 1 112416051.078 1      -627.076          38.000  
R18  22355625.522 1                       895.947          26.500  
> 2021  5 21  6 29 14.9999039  0 15                     
G 2  24250321.352 1                      1907.936          27.750                                                                  
G 3  22223272.249 1 116784017.101 1     -1680.503          28.250    22223280.643 1                     -1255.197          26.750  
G 6  21633398.210 1 113684230.825 1      1129.292          35.500    21633407.504 1  84894154.614 1       843.246          34.500  
G14  20181133.092 1 106052508.755 1      -424.283          26.750                                                                  
G17  21734968.494 1 114218059.019 1       725.246          31.500                                                                  
G19  22055279.947 1 115901308.876 1      1492.752          33.250                                                                  
G28  20533025.582 1 107901774.531 1      1158.924          25.500                                                                  
G30                                                                  23636538.565 1  92754838.58411     -1969.896          28.250  
J 1  37415321.612 1                        73.278          22.500                                                                  
J 2  35952894.429 1                       252.576          19.500                                                                  
R 3  23700771.797 1                      3621.008          25.250  
R14  20544289.384 1                     -3154.940          27.000  
R15  20079944.744 1 107301096.714 1       635.696          34.750  
R17  21007730.451 1 112416677.113 1      -626.035          37.250  
R18  22355448.945 1 119334904.41111       898.273          28.500  
> 2021  5 21  6 29 15.9999039  0 16                     
G 2  24249959.802 1 127434428.18511      1908.789          28.500                                                                  
G 3  22223593.326 1 116785698.241 1     -1681.139          27.500    22223599.622 1  87210183.21511     -1255.512          25.500  
G 6  21633179.062 1 113683101.926 1      1128.900          33.250    21633192.852 1  84893311.525 1       843.089          33.500  
G14  20181212.837 1 106052934.102 1      -425.347          26.750                                                                  
G17  21734831.189 1 114217333.408 1       725.611          31.750                                                                  
G19  22054991.847 1 115899815.520 1      1493.357          34.000                                                                  
G28  20532802.237 1                      1158.528          23.750                                                                  
G30                                                                  23637040.717 1  92756809.295 1     -1970.711          28.000  
J 1  37415301.526 1                        69.264          21.500                                                                  
J 2  35952844.364 1                       249.905          19.000                                                                  
R 2  21831247.742 1                      2466.078          21.250  
R 3  23700139.835 1                      3621.220          25.750  
R14  20544887.171 1                     -3154.599          26.500  
R15  20079834.420 1 107300461.678 1       635.036          34.500  
R17  21007848.269 1 112417302.609 1      -625.495          38.250  
R18  22355286.457 1 119334005.476 1       898.935          27.750  
> 2021  5 21  6 29 16.9999040  0 16                     
G 2  24249629.731 1 127432677.173 1      1908.554          31.000                                                                  
G 3  22223946.482 1 116787537.217 1     -1681.435          25.500    22223951.279 1  87211556.343 1     -1255.483          22.000  
G 6  21632997.388 1 113682130.142 1      1129.326          32.250    21633006.381 1  84892585.907 1       843.263          31.500  
G14  20181318.664 1 106053518.173 1      -426.529          27.500                                                                  
G17  21734721.166 1 114216762.976 1       727.974          32.250                                                                  
G19  22054740.921 1 115898476.749 1      1496.313          35.000                                                                  
G28  20532607.372 1 107899614.85911      1158.872          23.250                                                                  
G30                                                                  23637574.348 1                     -1973.910          26.000  
J 1  37415326.409 1                        61.539          22.250                                                                  
J 2  35952820.980 1                       245.149          18.250                                                                  
R 2  21830809.745 1                      2471.112          19.000  
R 3  23699480.591 1                      3625.041          24.000  
R14  20545523.630 1                     -3154.697          25.250  
R15  20079736.987 1 107299986.203 1       635.675          33.750  
R17  21007982.277 1 112418085.464 1      -622.430          36.000  
R18  22355135.362 1                       899.913          26.000  
> 2021  5 21  6 29 17.9999040  0 16                     
G 2  24249266.082 1 127430769.067 1      1908.106          32.000                                                                  
G 3  22224256.168 1                     -1680.899          22.250    22224270.558 1  87212810.978 1     -1254.636          22.250  
G 6                                                                  21632792.629 1  84891742.389 1       843.518          30.000  
G14  20181403.805 1 106053945.946 1      -427.773          26.500                                                                  
G17  21734582.362 1 114216032.380 1       730.596          31.250                                                                  
G19  22054454.319 1 115896977.291 1      1499.458          33.750                                                                  
G28  20532391.821 1                      1159.915          21.750                                                                  
G30                                                                  23638077.699 1  92760874.59011     -1974.846          25.250  
J 1  37415318.314 1                        55.496          20.750                                                                  
J 2  35952762.820 1                       241.474          19.000                                                                  
R 2  21830324.381 1                      2450.737          21.750  
R 3  23698833.339 1                      3621.064          23.750  
R14  20546099.231 1                     -3162.033          26.000  
R15  20079613.473 1 107299349.796 1       636.407          36.000  
R17  21008105.191 1 112418704.662 1      -619.198          35.500  
R18  22354978.271 1                       905.204          25.500  
> 2021  5 21  6 29 18.9999040  0 15                     
G 2  24248902.434 1 127428860.937 1      1908.130          31.500                                                                  
G 3  22224576.646 1                     -1676.876          20.250    22224592.235 1  87214065.475 1     -1254.497          21.250  
G 6  21632565.686 1                      1129.067          26.750    21632577.079 1  84890898.704 1       843.686          28.750  
G14  20181488.346 1 106054374.680 1      -428.734          26.500                                                                  
G17  21734445.357 1 114215299.549 1       732.831          30.250                                                                  
G19  22054167.717 1 115895475.098 1      1502.193          34.750                                                                  
G28  20532163.679 1                      1156.447          20.250                                                                  
G30                                                                  23638580.151 1  92762851.629 1     -1977.039          27.250  
J 1  37415312.318 1                        54.741          21.500                                                                  
J 2  35952726.545 1                       239.433          20.250                                                                  
R 2  21829926.856 1                      2459.230          25.000  
R 3  23698149.213 1                      3613.203          21.750  
R14  20546685.626 1 109525393.07011     -3165.395          26.000  
R15  20079504.948 1 107298713.069 1       636.727          35.750  
R17  21008220.911 1 112419321.044 1      -616.382          34.250  
> 2021  5 21  6 29 19.9999041  0 15                     
G 2  24248567.866 1 127427111.202 1      1907.276          29.000                                                                  
G 3  22224921.707 1                     -1685.895          19.500    22224942.093 1  87215437.857 1     -1254.737          23.000  
G 6  21632380.415 1                      1129.538          24.750    21632393.006 1  84890172.495 1       843.854          29.000  
G14  20181599.270 1 106054961.948 1      -429.726          27.250                                                                  
G17  21734336.232 1 114214722.675 1       734.416          31.250                                                                  
G19  22053913.793 1 115894128.424 1      1504.216          35.250                                                                  
G28  20531973.610 1                      1163.280          20.500                                                                  
G30                                                                  23639114.382 1                     -1978.752          27.250  
J 1  37415332.404 1                        59.402          19.750                                                                  
J 2  35952710.956 1                       234.394          20.500                                                                  
R 3  23697447.399 1                      3616.171          23.250  
R14  20547319.986 1                     -3169.003          26.500  
R15  20079407.815 1 107298236.324 1       636.945          36.500  
R17  21008369.608 1 112420095.730 1      -614.261          35.250  
R18  22354665.887 1                       906.665          27.250  
> 2021  5 21  6 29 20.9999041  0 15                     
G 2  24248209.314 1                      1911.610          24.500                                                                  
G 3                                                                  22225259.873 1  87216693.087 1     -1255.230          24.000  
G 6  21632163.365 1                      1131.500          24.500    21632176.256 1  84889328.407 1       844.088          27.500  
G14  20181686.209 1 106055392.468 1      -430.519          27.250                                                                  
G17  21734195.330 1 114213986.333 1       736.342          31.500                                                                  
G19  22053624.793 1 115892621.751 1      1506.673          35.000                                                                  
G28  20531758.359 1                      1161.889          20.750                                                                  
G30                                                                  23639618.633 1  92766926.85411     -1979.414          27.750  
J 1  37415327.608 1                        54.646          19.250                                                                  
J 2  35952669.885 1                       235.348          20.250                                                                  
R 3  23696774.065 1                      3622.998          23.750  
R14  20547904.282 1 109531889.29411     -3169.049          27.500  
R15  20079292.995 1 107297598.753 1       637.571          36.500  
R17  21008490.125 1 112420707.520 1      -611.790          34.250  
R18  22354498.003 1 119329800.66511       908.636          28.000  
> 2021  5 21  6 29 21.9999041  0 16                     
G 2  24247841.768 1                      1913.553          20.250                                                                  
G 3  22225572.856 1                     -1681.631          25.000    22225579.452 1                     -1255.890          23.500  
G 6  21631949.013 1 113676636.66311      1131.032          26.500    21631961.005 1  84888483.632 1       844.775          27.250  
G14  20181763.256 1 106055823.975 1      -431.507          27.000                                                                  
G17  21734053.528 1 114213248.227 1       738.105          31.750                                                                  
G19  22053338.491 1 115891112.729 1      1509.022          35.000                                                                  
G28  20531541.310 1                      1163.920          20.750                                                                  
G30                                                                  23640124.682 1  92768907.633 1     -1980.779          27.000  
J 1  37415288.934 1                        46.501          20.750                                                                  
J 2  35952620.119 1                       236.951          20.750                                                                  
R 2  21828630.554 1                      2478.140          23.750  
R 3  23696205.658 1                      3611.792          23.750  
R14  20548504.766 1                     -3168.722          26.750  
R15  20079169.480 1 107296960.737 1       638.017          36.250  
R17  21008595.352 1 112421317.066 1      -609.546          34.750  
R18  22354322.325 1 119328889.933 1       910.731          28.000  
> 2021  5 21  6 29 22.9999042  0 16                     
G 2  24247508.999 1                      1915.132          15.000                                                                  
G 3  22225920.016 1 116797941.61911     -1682.609          28.000    22225929.309 1  87219323.03511     -1256.465          23.750  
G 6  21631768.238 1 113675663.167 1      1131.038          28.000    21631776.633 1                       844.835          25.250  
G14  20181875.978 1 106056414.212 1      -432.695          27.000                                                                  
G17  21733944.104 1 114212666.549 1       739.221          31.750                                                                  
G19  22053083.668 1 115889759.691 1      1510.580          34.500                                                                  
G28  20531352.440 1                      1154.223          21.750                                                                  
G30                                                                  23640658.613 1                     -1982.751          25.500  
J 1  37415305.723 1                        42.168          19.250                                                                  
J 2  35952597.035 1                       235.993          20.750                                                                  
R 2  21828128.101 1                      2473.290          20.500  
R 3  23695467.569 1                      3638.363          24.250  
R14  20549139.427 1                     -3172.648          27.250  
R15  20079089.436 1 107296483.079 1       637.858          35.500  
R17  21008744.649 1 112422085.557 1      -608.066          34.500  
R18  22354194.014 1 119328138.068 1       911.896          27.250  
> 2021  5 21  6 29 23.9999042  0 14                     
G 3  22226245.890 1                     -1680.520          24.750    22226251.886 1                     -1254.583          21.500  
G 6  21631550.889 1 113674532.042 1      1131.125          29.000    21631561.082 1                       844.583          24.250  
G14  20181954.823 1 106056847.748 1      -433.536          27.000                                                                  
G17  21733799.903 1 114211926.545 1       740.003          31.750                                                                  
G19  22052796.167 1 115888247.877 1      1511.815          34.000                                                                  
G28  20531123.699 1                      1160.474          22.000                                                                  
G30                                                                  23641166.161 1  92772989.71211     -1982.588          23.750  
J 1  37415310.520 1                        45.232          18.000                                                                  
J 2  35952553.865 1                       231.580          19.750                                                                  
R 2  21827636.742 1                      2420.026          19.250  
R14  20549730.018 1                     -3175.096          26.250  
R15  20078964.422 1 107295845.362 1       637.717          35.750  
R17  21008856.771 1 112422692.415 1      -606.858          35.750  
R18  22354034.524 1                       917.683          25.500  
> 2021  5 21  6 29 24.9999042  0 14                     
G 3  22226559.773 1 116801307.34411     -1683.070          30.000    22226570.266 1                     -1256.876          24.750  
G 6  21631334.739 1 113673401.105 1      1130.938          30.000    21631345.831 1  84886067.53711       844.496          25.000  
G14  20182038.765 1                      -433.927          26.750                                                                  
G17  21733660.800 1 114211186.446 1       740.099          31.750                                                                  
G19  22052509.865 1 115886735.956 1      1511.920          34.000                                                                  
G28  20530901.253 1                      1167.853          22.000                                                                  
G30                                                                  23641669.213 1                     -1981.695          23.750  
J 1  37415295.830 1                        48.802          18.750                                                                  
J 2  35952524.185 1                       231.803          19.250                                                                  
R 2  21827159.772 1                      2417.044          17.750  
R14  20550329.303 1                     -3174.639          25.000  
R15  20078843.906 1 107295208.395 1       636.967          36.500  
R17  21008973.091 1 112423299.228 1      -606.812          37.250  
R18  22353851.051 1                       913.554          26.500  
> 2021  5 21  6 29 25.9999043  0 13                     
G 3  22226913.528 1 116803148.923 1     -1684.038          29.000    22226919.524 1  87223211.54211     -1257.431          23.500  
G 6  21631152.765 1 113672428.487 1      1130.160          30.500    21631161.758 1                       842.973          24.000  
G14  20182152.087 1 106057873.71311      -434.466          26.500                                                                  
G17  21733553.474 1 114210604.121 1       739.867          31.500                                                                  
G19  22052244.549 1 115885382.503 1      1510.995          33.500                                                                  
G28  20530715.381 1                      1158.091          23.250                                                                  
G30                                                                  23642207.940 1                     -1994.409          20.250  
J 2  35952494.506 1                       234.769          20.000                                                                  
R 2  21826732.268 1                      2433.596          20.250  
R14  20550942.978 1                     -3174.058          26.000  
R15  20078756.366 1 107294733.070 1       635.525          37.000  
R17  21009105.599 1 112424067.050 1      -607.397          36.250  
R18  22353708.949 1                       908.058          26.750  
> 2021  5 21  6 29 26.9999043  0 14                     
G 3  22227241.501 1                     -1691.136          24.000    22227239.702 1                     -1208.018          18.000  
G 6  21630937.514 1 113671299.071 1      1129.416          30.500    21630944.409 1                       842.300          23.000  
G14  20182238.727 1 106058308.863 1      -435.151          26.250                                                                  
G17  21733413.771 1 114209865.691 1       738.430          29.250                                                                  
G19  22051955.849 1 115883872.280 1      1510.223          34.000                                                                  
G28  20530486.940 1                      1157.460          24.000                                                                  
G30                                                                  23642710.992 1                     -1983.471          21.000  
J 1  37415309.320 1                        49.965          19.750                                                                  
J 2  35952446.539 1                       241.312          19.750                                                                  
R 2  21826258.596 1                      2445.713          21.500  
R14  20551539.265 1                     -3171.245          25.750  
R15  20078634.650 1 107294099.011 1       634.059          37.000  
R17  21009229.113 1                      -610.449          33.000  
R18  22353560.252 1                       906.809          24.750  
> 2021  5 21  6 29 27.9999043  0 13                     
G 3  22227564.078 1                     -1697.467          19.250                                                                  
G 6  21630721.063 1 113670170.021 1      1129.050          30.250    21630731.856 1                       842.506          23.250  
G14  20182320.570 1 106058744.679 1      -435.815          25.000                                                                  
G17  21733272.568 1                       733.174          26.000                                                                  
G19  22051672.545 1 115882362.893 1      1509.387          31.250                                                                  
G28  20530269.290 1                      1154.517          22.000                                                                  
G30                                                                  23643215.842 1                     -1982.739          21.750  
J 1  37415306.922 1                        49.064          17.250                                                                  
J 2  35952413.562 1                       244.070          18.250                                                                  
R 2  21825784.324 1                      2443.662          20.750  
R14  20552133.454 1                     -3169.090          25.250  
R15  20078517.132 1 107293466.123 1       632.888          36.250  
R18  22353382.775 1                       909.838          24.500  
> 2021  5 21  6 29 28.9999044  0 13                     
G 6  21630539.089 1 113669197.792 1      1129.771          31.500    21630546.884 1  84882928.64911       843.709          27.000  
G14  20182438.688 1                      -436.014          25.500                                                                  
G17  21733159.847 1                       736.066          23.000                                                                  
G19  22051419.220 1                      1508.452          27.250                                                                  
G28  20530092.713 1                      1154.968          22.750                                                                  
G30  23643738.081 1                     -2650.653          23.750    23643749.173 1                     -1977.592          24.000  
J 1  37415317.415 1                        48.933          13.750                                                                  
J 2  35952402.769 1                       245.188          18.500                                                                  
R 2  21825361.017 1                      2435.233          19.000  
R14  20552764.217 1                     -3163.235          24.250  
R15  20078437.687 1 107292993.775 1       632.548          35.250  
R17  21009552.589 1                      -627.732          23.750  
R18  22353234.378 1                       912.893          28.500  
> 2021  5 21  6 29 29.9999044  0 12                     
G 6  21630321.440 1 113668065.611 1      1132.181          33.750    21630332.532 1  84882083.202 1       845.447          35.500  
G14  20182516.934 1 106059775.33111      -436.403          27.000                                                                  
G17  21733025.839 1                       730.891          19.750                                                                  
G19  22051134.118 1                      1510.979          23.750                                                                  
G28  20529867.269 1 107885174.78711      1156.162          26.500                                                                  
G30  23644243.831 1                     -2648.012          23.750    23644251.325 1  92785100.94111     -1976.336          29.000  
J 2  35952355.702 1                       241.391          20.500                                                                  
R 2  21824914.026 1                      2431.506          19.250  
R14  20553391.083 1                     -3156.029          26.500  
R15  20078301.581 1 107292360.639 1       633.135          33.250  
R17  21009686.597 1                      -630.120          19.750  
R18  22353064.396 1 119322076.45211       912.977          28.250  
> 2021  5 21  6 29 30.9999044  0 11                     
G 6                                                                  21630116.682 1  84881236.038 1       847.164          37.250  
G14  20182602.375 1 106060211.058 1      -435.727          26.250                                                                  
G17  21732887.935 1                       722.156          16.250                                                                  
G28  20529646.322 1 107884019.557 1      1155.230          27.500                                                                  
G30  23644752.878 1                     -2632.752          25.750    23644753.778 1  92787073.041 1     -1972.100          31.500  
J 1  37415297.928 1                        54.191          16.750                                                                  
J 2  35952309.534 1                       235.031          22.500                                                                  
R 2  21824467.635 1                      2430.783          18.000  
R14  20553970.582 1                     -3157.249          25.250  
R15  20078184.062 1 107291727.533 1       633.106          30.500  
R18  22352882.122 1 119321162.057 1       914.395          28.250  
> 2021  5 21  6 29 31.9999044  0 11                     
G 6  21629887.341 1 113665795.15611      1136.110          29.500    21629899.332 1  84880387.662 1       848.376          34.750  
G14  20182672.227 1 106060647.579 1      -436.521          25.500                                                                  
G19  22050554.019 1                      1502.156          33.500                                                                  
G28  20529422.377 1 107882866.016 1      1153.541          28.250                                                                  
G30  23645242.139 1 124256411.14011     -2634.982          28.500    23645257.129 1  92789040.753 1     -1967.712          29.500  
J 1  37415294.031 1                        48.906          20.250                                                                  
J 2  35952265.465 1                       239.275          23.000                                                                  
R 2  21824015.548 1                      2441.973          18.750  
R14  20554562.373 1                     -3153.678          22.750  
R15  20078068.942 1 107291095.429 1       632.104          33.500  
R18  22352713.638 1                       914.673          27.250  
> 2021  5 21  6 29 32.9999045  0 11                     
G 6  21629703.868 1 113664815.886 1      1136.811          28.500    21629714.360 1  84879656.319 1       848.988          36.000  
G14  20182792.444 1 106061240.967 1      -435.845          25.500                                                                  
G19  22050297.697 1                      1497.216          32.250                                                                  
G28  20529234.407 1 107881871.499 1      1152.059          28.500                                                                  
G30  23645778.768 1                     -2624.094          25.500    23645788.062 1  92791121.146 1     -1962.748          26.250  
J 1  37415325.509 1                        42.527          18.000                                                                  
J 2  35952246.278 1                       250.807          21.750                                                                  
R 2  21823588.344 1                      2446.503          14.250  
R14  20555173.649 1                     -3153.678          25.500  
R15  20077967.612 1 107290624.394 1       631.234          31.000  
R18  22352553.849 1                       912.968          23.000  
> 2021  5 21  6 29 33.9999045  0 11                     
G 6  21629488.317 1                      1135.576          25.250    21629496.711 1  84878807.684 1       848.635          36.500  
G14  20182876.086 1 106061676.918 1      -435.951          28.500                                                                  
G19  22050015.892 1 115873641.99711      1494.964          32.000                                                                  
G28  20529017.057 1 107880721.286 1      1150.213          30.750                                                                  
G30  23646271.627 1                     -2618.713          28.000    23646284.218 1  92793079.710 1     -1958.564          32.750  
J 1  37415308.421 1                        56.263          18.750                                                                  
J 2  35952198.011 1                       250.134          23.500                                                                  
R 2  21823124.565 1                      2444.517          19.000  
R14  20555762.142 1                     -3150.788          28.250  
R15  20077853.991 1 107289996.137 1       628.257          30.750  
R18  22352394.959 1                       910.711          23.500  
> 2021  5 21  6 29 34.9999045  0 13                     
G 6  21629272.766 1                      1131.974          23.000    21629280.860 1                       845.746          37.500  
G14  20182961.826 1 106062112.955 1      -436.037          28.750                                                                  
G17  21732380.986 1                       717.538           9.250                                                                  
G19  22049734.387 1 115872151.161 1      1490.836          31.750                                                                  
G28  20528797.909 1 107879572.917 1      1148.369          31.750                                                                  
G30  23646772.580 1                     -2615.918          26.250    23646782.773 1  92795035.281 1     -1955.572          32.750  
J 1  37415280.240 1                        68.187          21.750                                                                  
J 2  35952155.740 1                       252.149          23.000                                                                  
R 2  21822657.189 1                      2447.596          16.750  
R14  20556343.140 1 109576877.26111     -3152.328          30.000  
R15  20077751.162 1 107289370.534 1       625.603          31.750  
R17  21010210.634 1                      -632.769          26.500  
R18  22352264.549 1                       895.112          19.000  
> 2021  5 21  6 29 35.9999046  0 12                     
G 6                                                                  21629094.989 1  84877230.84611       846.654          37.500  
G14  20183073.049 1                      -437.087          26.500                                                                  
G19  22049478.963 1 115870821.838 1      1486.865          34.250                                                                  
G28  20528613.237 1 107878583.871 1      1146.588          30.000                                                                  
G30  23647298.116 1 124267208.37911     -2614.522          29.500    23647309.208 1  92797106.070 1     -1953.144          33.000  
J 1  37415308.121 1                        65.038          22.250                                                                  
J 2  35952130.858 1                       255.009          21.750                                                                  
R 2  21822199.106 1                      2444.928          19.750  
R14  20556987.993 1 109580187.596 1     -3150.529          32.000  
R15  20077666.021 1 107288908.041 1       622.693          30.750  
R17  21010356.033 1                      -641.267          29.000  
R18  22352134.739 1                       881.712          17.000  
> 2021  5 21  6 29 36.9999046  0 12                     
G 6  21628868.646 1 113660433.93411      1132.913          30.500    21628880.038 1  84876384.785 1       846.061          38.000  
G14  20183162.088 1                      -438.554          22.750                                                                  
G19  22049198.058 1 115869336.025 1      1485.813          35.000                                                                  
G28  20528392.590 1 107877438.007 1      1145.864          28.500                                                                  
G30  23647790.076 1 124269822.059 1     -2613.680          34.750    23647808.963 1  92799058.285 1     -1952.215          34.000  
J 1  37415307.222 1                        62.836          21.000                                                                  
J 2  35952084.090 1                       263.269          22.000                                                                  
R 3  23686105.051 1                      3622.739          26.750  
R14  20557554.601 1                     -3152.688          29.000  
R15  20077541.008 1                       618.906          26.500  
R17  21010473.852 1                      -641.315          26.000  
R18  22351964.757 1                       871.590          13.000  
> 2021  5 21  6 29 37.9999046  0 12                     
G 6  21628653.695 1 113659300.932 1      1133.003          29.750    21628663.888 1  84875538.679 1       846.107          37.000  
G14  20183244.231 1                      -436.919          23.250                                                                  
G19  22048914.454 1 115867850.739 1      1485.286          34.750                                                                  
G28  20528174.640 1 107876292.332 1      1145.675          27.250                                                                  
G30  23648289.830 1 124272435.346 1     -2613.288          33.750    23648305.119 1  92801009.739 1     -1951.454          33.000  
J 1  37415304.524 1                        60.761          17.750                                                                  
J 2  35952036.723 1                       259.534          22.500                                                                  
R 2  21821333.905 1                      2441.944          22.250  
R 3  23685447.006 1                      3626.141          26.250  
R14  20558143.393 1 109586486.88511     -3149.616          27.250  
R15  20077431.583 1                       618.036          23.750  
R17  21010595.268 1                      -636.843          23.750  
> 2021  5 21  6 29 38.9999047  0 12                     
G 6  21628469.022 1 113658326.436 1      1132.038          29.250    21628478.916 1  84874810.989 1       845.334          37.250  
G14  20183355.454 1                      -439.285          22.750                                                                  
G19  22048662.329 1 115866523.192 1      1485.089          34.500                                                                  
G28  20527989.369 1 107875304.877 1      1144.997          27.000                                                                  
G30  23648819.263 1 124275206.721 1     -2613.832          33.500    23648831.854 1  92803079.253 1     -1951.869          33.000  
J 1  37415310.520 1                        67.882          18.750                                                                  
J 2  35952015.737 1 188929079.65411       256.541          24.750                                                                  
R 2  21820892.910 1                      2445.112          21.750  
R 3  23684771.274 1                      3625.427          25.750  
R14  20558768.461 1                     -3145.859          27.000  
R15  20077321.260 1                       623.080          20.000  
R17  21010734.071 1                      -625.629          20.500  
> 2021  5 21  6 29 39.9999047  0 12                     
G 6  21628251.673 1 113657195.951 1      1130.485          30.250    21628263.065 1  84873966.770 1       844.219          36.500  
G14  20183434.599 1                      -438.101          24.000                                                                  
G17  21731747.224 1                       715.736          23.750                                                                  
G19  22048381.423 1 115865038.343 1      1484.849          34.000                                                                  
G28  20527766.923 1 107874160.381 1      1144.496          27.250                                                                  
G30  23649314.220 1 124277821.798 1     -2615.077          32.250    23649331.009 1  92805032.042 1     -1952.789          32.000  
J 2  35951959.676 1                       256.649          25.000                                                                  
R 2  21820425.834 1                      2445.968          22.750  
R 3  23684094.942 1                      3621.214          25.000  
R14  20559353.955 1                     -3153.187          26.500  
R15  20077191.749 1                       624.008          19.000  
R17  21010877.972 1                      -621.822          20.000  
> 2021  5 21  6 29 40.9999047  0 13                     
G 6  21628039.420 1 113656066.613 1      1129.338          30.000    21628048.414 1  84873123.462 1       843.308          37.000  
G14  20183519.440 1                      -433.226          22.000                                                                  
G17  21731620.112 1                       717.741          22.500                                                                  
G19  22048096.920 1 115863553.643 1      1484.700          34.500                                                                  
G28  20527553.770 1 107873016.426 1      1143.955          27.250                                                                  
G30  23649813.675 1 124280437.580 1     -2615.782          32.750    23649827.465 1  92806985.437 1     -1953.395          33.000  
J 1  37415284.737 1                        66.911          22.500                                                                  
J 2  35951914.707 1 188928567.15611       256.134          27.000                                                                  
R 2  21819980.642 1                      2444.016          22.750  
R 3  23683427.304 1                      3626.221          23.500  
R14  20559943.048 1 109596102.15711     -3153.096          27.250  
R15  20077091.918 1                       621.138          17.750  
R17  21011008.681 1                      -622.351          23.000  
> 2021  5 21  6 29 41.9999048  0 14                     
G 3  22232286.408 1                     -1705.188          18.250                                                                  
G 6  21627856.247 1 113655096.287 1      1127.868          31.500    21627863.741 1  84872398.840 1       842.268          37.500  
G14  20183629.164 1                      -437.105          21.250                                                                  
G17  21731513.986 1                       720.895          22.000                                                                  
G19  22047846.893 1 115862226.624 1      1484.561          34.500                                                                  
G28  20527368.199 1 107872030.516 1      1143.452          27.500                                                                  
G30                                                                  23650357.198 1  92809057.307 1     -1954.225          31.500  
J 1  37415303.324 1                        65.783          22.250                                                                  
J 2  35951897.919 1 188928468.810 1       255.888          27.500                                                                  
R 2  21819537.848 1                      2443.269          22.750  
R 3  23682802.537 1                      3627.166          24.250  
R14  20560584.304 1                     -3158.030          27.500  
