$GPGSV,3,1,12,02,14,247,32,03,36,056,36,04,02,108,26,06,44,264,34,1*68,1621578425974
$GPGSV,3,2,12,09,06,140,26,14,82,149,36,17,47,358,29,19,35,324,38,1*6E,1621578425974
$GPGSV,3,3,12,30,20,199,33,01,11,040,,07,00,000,,22,12,042,,1*60,1621578425974
$GPGSV,1,1,04,03,36,056,35,06,44,264,38,14,82,149,31,30,20,199,29,8*6D,1621578425974
$GLGSV,3,1,09,78,45,196,32,66,26,115,24,82,21,288,26,79,52,291,34,1*7E,1621578425974
$GLGSV,3,2,09,81,37,343,42,67,07,163,22,77,01,165,,65,14,052,,1*7F,1621578425974
$GLGSV,3,3,09,88,16,039,,1*4C,1621578425974
$GAGSV,2,1,08,01,42,313,30,13,35,028,40,21,73,206,34,26,54,307,30,7*71,1621578425974
$GAGSV,2,2,08,07,14,132,,08,09,082,,27,26,154,,33,19,258,,7*74,1621578425974
$GAGSV,1,1,04,01,42,313,33,13,35,028,27,21,73,206,32,26,54,307,33,1*7F,1621578425974
$GQGSV,1,1,03,-191,33,123,27,-190,48,158,32,-189,56,046,40,1*4B,1621578425974
$GQGSV,1,1,03,-191,33,123,15,-190,48,158,29,-189,56,046,19,8*45,1621578425974
$GBGSV,4,1,16,25,45,257,33,24,29,184,19,23,18,307,33,13,60,253,27,1*73,1621578425974
$GBGSV,4,2,16,12,35,037,36,11,43,327,35,10,74,327,22,08,73,310,27,1*7B,1621578425974
$GBGSV,4,3,16,01,47,122,,02,46,234,,03,63,188,,04,33,108,,1*7A,1621578425974
$GBGSV,4,4,16,05,23,254,,06,04,172,,07,74,120,,09,04,198,,1*7A,1621578425974
$GNGSA,A,3,02,03,06,14,17,19,30,,,,,,0.9,0.6,0.7,1*36,1621578425988
$GNGSA,A,3,66,67,78,79,81,82,,,,,,,0.9,0.6,0.7,2*39,1621578425988
$GNGSA,A,3,01,13,21,26,,,,,,,,,0.9,0.6,0.7,3*3F,1621578425988
$GNGSA,A,3,08,10,11,12,13,23,25,,,,,,0.9,0.6,0.7,4*32,1621578425988
$GNGSA,A,3,01,02,03,,,,,,,,,,0.9,0.6,0.7,5*3D,1621578425988
$GNVTG,,T,,M,0.0,N,0.0,K,A*3D,1621578425988
$GNDTM,P90,,0000.000018,S,00000.000001,W,0.993,W84*47,1621578425988
$GNRMC,062844.00,A,2218.095173,N,11411.418532,E,0.0,,210521,2.2,W,A,V*69,1621578425988
$GNGNS,062844.00,2218.095173,N,11411.418532,E,AAAAAN,27,0.6,9.6,-1.2,,,V*3E,1621578425988
$GNGGA,062844.00,2218.095173,N,11411.418532,E,1,12,0.6,9.6,M,-1.2,M,,*67,1621578425988
$GPGSV,3,1,12,02,14,247,30,03,36,056,37,04,02,108,25,06,44,264,35,1*69,1621578426975
$GPGSV,3,2,12,09,06,140,25,14,82,149,36,17,47,358,31,19,35,324,38,1*64,1621578426975
$GPGSV,3,3,12,30,20,199,34,01,11,040,,07,00,000,,22,12,042,,1*67,1621578426975
$GPGSV,1,1,04,03,36,056,34,06,44,264,37,14,82,149,31,30,20,199,27,8*6D,1621578426975
$GLGSV,3,1,10,78,45,196,30,66,26,115,23,82,21,288,25,79,52,291,32,1*76,1621578426975
$GLGSV,3,2,10,81,37,343,40,67,07,163,23,77,01,165,,80,07,329,,1*72,1621578426975
$GLGSV,3,3,10,65,14,052,,88,16,039,,1*75,1621578426975
$GAGSV,2,1,08,01,42,313,32,13,35,028,40,21,73,206,34,26,54,307,31,7*72,1621578426975
$GAGSV,2,2,08,07,14,132,,08,09,082,,27,26,154,,33,19,258,,7*74,1621578426975
$GAGSV,1,1,04,01,42,313,34,13,35,028,25,21,73,206,31,26,54,307,34,1*7E,1621578426975
$GQGSV,1,1,03,-191,33,123,28,-190,48,158,34,-189,56,046,40,1*42,1621578426975
$GQGSV,1,1,03,-191,33,123,15,-190,48,158,27,-189,56,046,19,8*4B,1621578426975
$GBGSV,4,1,16,25,45,257,32,24,29,184,19,23,18,307,33,13,60,253,29,1*7C,1621578426975
$GBGSV,4,2,16,12,35,037,35,11,43,327,34,10,74,327,23,08,73,310,27,1*78,1621578426975
$GBGSV,4,3,16,01,47,122,,02,46,234,,03,63,188,,04,33,108,,1*7A,1621578426975
$GBGSV,4,4,16,05,23,254,,06,04,172,,07,74,120,,09,04,198,,1*7A,1621578426975
$GNGSA,A,3,02,03,06,14,17,19,30,,,,,,0.9,0.6,0.7,1*36,1621578426985
$GNGSA,A,3,66,67,78,79,81,82,,,,,,,0.9,0.6,0.7,2*39,1621578426985
$GNGSA,A,3,01,13,21,26,,,,,,,,,0.9,0.6,0.7,3*3F,1621578426985
$GNGSA,A,3,08,10,11,12,13,23,25,,,,,,0.9,0.6,0.7,4*32,1621578426985
$GNGSA,A,3,01,02,03,,,,,,,,,,0.9,0.6,0.7,5*3D,1621578426985
$GNVTG,,T,,M,0.0,N,0.0,K,A*3D,1621578426985
$GNDTM,P90,,0000.000018,S,00000.000001,W,0.993,W84*47,1621578426985
$GNRMC,062845.00,A,2218.095171,N,11411.418533,E,0.0,,210521,2.2,W,A,V*6B,1621578426985
$GNGNS,062845.00,2218.095171,N,11411.418533,E,AAAAAN,27,0.6,9.6,-1.2,,,V*3C,1621578426985
$GNGGA,062845.00,2218.095171,N,11411.418533,E,1,12,0.6,9.6,M,-1.2,M,,*65,1621578426985
$GPGSV,3,1,12,02,14,247,31,03,36,056,36,04,02,108,22,06,44,264,34,1*6F,1621578427973
$GPGSV,3,2,12,09,06,140,25,14,82,149,36,17,47,358,30,19,35,324,37,1*6A,1621578427973
$GPGSV,3,3,12,30,20,199,34,01,11,040,,07,00,000,,22,12,042,,1*67,1621578427973
$GPGSV,1,1,04,03,36,056,36,06,44,264,38,14,82,149,33,30,20,199,28,8*6D,1621578427973
$GLGSV,3,1,10,78,45,196,30,66,26,115,25,82,21,288,25,79,52,291,32,1*70,1621578427973
$GLGSV,3,2,10,81,37,343,40,67,07,163,22,77,01,165,,80,07,329,,1*73,1621578427973
$GLGSV,3,3,10,65,14,052,,88,16,039,,1*75,1621578427973
$GAGSV,2,1,08,01,42,313,33,13,35,028,40,21,73,206,34,26,54,307,32,7*70,1621578427973
$GAGSV,2,2,08,07,14,132,,08,09,082,,27,26,154,,33,19,258,,7*74,1621578427973
$GAGSV,1,1,04,01,42,313,34,13,35,028,26,21,73,206,32,26,54,307,34,1*7E,1621578427973
$GQGSV,1,1,03,-191,33,123,29,-190,48,158,34,-189,56,046,40,1*43,1621578427973
$GQGSV,1,1,03,-191,33,123,15,-190,48,158,29,-189,56,046,19,8*45,1621578427973
$GBGSV,4,1,16,25,45,257,32,24,29,184,19,23,18,307,34,13,60,253,29,1*7B,1621578427973
$GBGSV,4,2,16,12,35,037,36,11,43,327,35,10,74,327,23,08,73,310,26,1*7B,1621578427973
$GBGSV,4,3,16,01,47,122,,02,46,234,,03,63,188,,04,33,108,,1*7A,1621578427973
$GBGSV,4,4,16,05,23,254,,06,04,172,,07,74,120,,09,04,198,,1*7A,1621578427973
$GNGSA,A,3,02,03,06,14,17,19,30,,,,,,0.9,0.6,0.7,1*36,1621578427983
$GNGSA,A,3,66,78,79,81,82,,,,,,,,0.9,0.6,0.7,2*38,1621578427983
$GNGSA,A,3,01,13,21,26,,,,,,,,,0.9,0.6,0.7,3*3F,1621578427983
$GNGSA,A,3,08,10,11,12,13,23,25,,,,,,0.9,0.6,0.7,4*32,1621578427983
$GNGSA,A,3,01,02,03,,,,,,,,,,0.9,0.6,0.7,5*3D,1621578427983
$GNVTG,,T,,M,0.0,N,0.0,K,A*3D,1621578427983
$GNDTM,P90,,0000.000018,S,00000.000001,W,0.993,W84*47,1621578427983
$GNRMC,062846.00,A,2218.095166,N,11411.418535,E,0.0,,210521,2.2,W,A,V*68,1621578427983
$GNGNS,062846.00,2218.095166,N,11411.418535,E,AAAAAN,26,0.6,9.6,-1.2,,,V*3E,1621578427983
$GNGGA,062846.00,2218.095166,N,11411.418535,E,1,12,0.6,9.6,M,-1.2,M,,*66,1621578427983
$GPGSV,3,1,12,02,14,247,31,03,36,056,36,04,02,108,22,06,44,264,34,1*6F,1621578428968
$GPGSV,3,2,12,09,06,140,27,14,82,149,36,17,47,358,32,19,35,324,38,1*65,1621578428968
$GPGSV,3,3,12,30,20,199,33,01,11,040,,07,00,000,,22,12,042,,1*60,1621578428968
$GPGSV,1,1,04,03,36,056,35,06,44,264,36,14,82,149,33,30,20,199,29,8*61,1621578428968
$GLGSV,3,1,10,78,45,196,31,66,26,115,24,82,21,288,24,79,52,291,33,1*70,1621578428968
$GLGSV,3,2,10,81,37,343,41,67,07,163,24,77,01,165,,80,07,329,,1*74,1621578428968
$GLGSV,3,3,10,65,14,052,,88,16,039,,1*75,1621578428968
$GAGSV,2,1,08,01,42,313,31,13,35,028,40,21,73,206,34,26,54,307,32,7*72,1621578428968
$GAGSV,2,2,08,07,14,132,,08,09,082,,27,26,154,,33,19,258,,7*74,1621578428968
$GAGSV,1,1,04,01,42,313,32,13,35,028,27,21,73,206,31,26,54,307,33,1*7D,1621578428968
$GQGSV,1,1,03,-191,33,123,28,-190,48,158,35,-189,56,046,41,1*42,1621578428968
$GQGSV,1,1,03,-191,33,123,15,-190,48,158,29,-189,56,046,18,8*44,1621578428968
$GBGSV,4,1,16,25,45,257,33,24,29,184,19,23,18,307,34,13,60,253,29,1*7A,1621578428968
$GBGSV,4,2,16,12,35,037,36,11,43,327,35,10,74,327,25,08,73,310,27,1*7C,1621578428968
$GBGSV,4,3,16,01,47,122,,02,46,234,,03,63,188,,04,33,108,,1*7A,1621578428968
$GBGSV,4,4,16,05,23,254,,06,04,172,,07,74,120,,09,04,198,,1*7A,1621578428968
$GNGSA,A,3,02,03,06,14,17,19,30,,,,,,0.9,0.6,0.7,1*36,1621578428980
$GNGSA,A,3,66,67,78,79,81,82,,,,,,,0.9,0.6,0.7,2*39,1621578428980
$GNGSA,A,3,01,13,21,26,,,,,,,,,0.9,0.6,0.7,3*3F,1621578428980
$GNGSA,A,3,08,10,11,12,13,23,25,,,,,,0.9,0.6,0.7,4*32,1621578428980
$GNGSA,A,3,01,02,03,,,,,,,,,,0.9,0.6,0.7,5*3D,1621578428980
$GNVTG,,T,,M,0.0,N,0.0,K,A*3D,1621578428980
$GNDTM,P90,,0000.000018,S,00000.000001,W,0.993,W84*47,1621578428980
$GNRMC,062847.00,A,2218.095163,N,11411.418536,E,0.0,,210521,2.2,W,A,V*6F,1621578428980
$GNGNS,062847.00,2218.095163,N,11411.418536,E,AAAAAN,27,0.6,9.6,-1.2,,,V*38,1621578428980
$GNGGA,062847.00,2218.095163,N,11411.418536,E,1,12,0.6,9.6,M,-1.2,M,,*61,1621578428980
$GPGSV,3,1,12,02,14,247,32,03,36,056,37,04,02,108,25,06,44,264,34,1*6A,1621578429972
$GPGSV,3,2,12,09,06,140,29,14,82,149,37,17,47,358,31,19,35,324,38,1*69,1621578429972
$GPGSV,3,3,12,30,20,199,33,01,11,040,,07,00,000,,22,12,042,,1*60,1621578429972
$GPGSV,1,1,04,03,36,056,34,06,44,264,35,14,82,149,30,30,20,199,27,8*6E,1621578429972
$GLGSV,3,1,10,78,45,196,30,66,26,115,24,82,21,288,24,79,52,291,33,1*71,1621578429972
$GLGSV,3,2,10,81,37,343,42,67,07,163,22,77,01,165,,80,07,329,,1*71,1621578429972
$GLGSV,3,3,10,65,14,052,,88,16,039,,1*75,1621578429972
$GAGSV,2,1,08,01,42,313,33,13,35,028,41,21,73,206,34,26,54,307,32,7*71,1621578429972
$GAGSV,2,2,08,07,14,132,,08,09,082,,27,26,154,,33,19,258,,7*74,1621578429972
$GAGSV,1,1,04,01,42,313,32,13,35,028,27,21,73,206,29,26,54,307,33,1*74,1621578429972
$GQGSV,1,1,03,-191,33,123,29,-190,48,158,34,-189,56,046,41,1*42,1621578429972
$GQGSV,1,1,03,-191,33,123,15,-190,48,158,27,-189,56,046,18,8*4A,1621578429972
$GBGSV,4,1,16,25,45,257,33,24,29,184,22,23,18,307,33,13,60,253,28,1*74,1621578429972
$GBGSV,4,2,16,12,35,037,37,11,43,327,35,10,74,327,24,08,73,310,27,1*7C,1621578429972
$GBGSV,4,3,16,01,47,122,,02,46,234,,03,63,188,,04,33,108,,1*7A,1621578429972
$GBGSV,4,4,16,05,23,254,,06,04,172,,07,74,120,,09,04,198,,1*7A,1621578429972
$GNGSA,A,3,02,03,06,14,17,19,30,,,,,,0.9,0.6,0.7,1*36,1621578429984
$GNGSA,A,3,66,67,78,79,81,82,,,,,,,0.9,0.6,0.7,2*39,1621578429984
$GNGSA,A,3,01,13,21,26,,,,,,,,,0.9,0.6,0.7,3*3F,1621578429984
$GNGSA,A,3,08,10,11,12,13,23,25,,,,,,0.9,0.6,0.7,4*32,1621578429984
$GNGSA,A,3,01,02,03,,,,,,,,,,0.9,0.6,0.7,5*3D,1621578429984
$GNVTG,,T,,M,0.0,N,0.0,K,A*3D,1621578429984
$GNDTM,P90,,0000.000018,S,00000.000001,W,0.993,W84*47,1621578429984
$GNRMC,062848.00,A,2218.095158,N,11411.418537,E,0.0,,210521,2.2,W,A,V*69,1621578429984
$GNGNS,062848.00,2218.095158,N,11411.418537,E,AAAAAN,27,0.6,9.6,-1.2,,,V*3E,1621578429984
$GNGGA,062848.00,2218.095158,N,11411.418537,E,1,12,0.6,9.6,M,-1.2,M,,*67,1621578429984
$GPGSV,3,1,12,02,14,247,34,03,36,056,37,04,02,108,25,06,44,264,35,1*6D,1621578430972
$GPGSV,3,2,12,09,06,140,28,14,82,149,36,17,47,358,32,19,35,324,39,1*6B,1621578430972
$GPGSV,3,3,12,30,20,199,34,01,11,040,,07,00,000,,22,12,042,,1*67,1621578430972
$GPGSV,1,1,04,03,36,056,34,06,44,264,36,14,82,149,30,30,20,199,28,8*62,1621578430972
$GLGSV,3,1,10,78,45,196,29,66,26,115,21,82,21,288,24,79,52,291,32,1*7D,1621578430972
$GLGSV,3,2,10,81,37,343,41,67,07,163,22,77,01,165,,80,07,329,,1*72,1621578430972
$GLGSV,3,3,10,65,14,052,,88,16,039,,1*75,1621578430972
$GAGSV,2,1,08,01,42,313,31,13,35,028,41,21,73,206,36,26,54,307,32,7*71,1621578430972
$GAGSV,2,2,08,07,14,132,,08,09,082,,27,26,154,,33,19,258,,7*74,1621578430972
$GAGSV,1,1,04,01,42,313,32,13,35,028,25,21,73,206,31,26,54,307,33,1*7F,1621578430972
$GQGSV,1,1,03,-191,33,123,29,-190,48,158,35,-189,56,046,41,1*43,1621578430972
$GQGSV,1,1,03,-191,33,123,17,-190,48,158,27,-189,56,046,20,8*43,1621578430972
$GBGSV,4,1,16,25,45,257,34,24,29,184,22,23,18,307,33,13,60,253,29,1*72,1621578430972
$GBGSV,4,2,16,12,35,037,36,11,43,327,35,10,74,327,25,08,73,310,27,1*7C,1621578430972
$GBGSV,4,3,16,01,47,122,,02,46,234,,03,63,188,,04,33,108,,1*7A,1621578430972
$GBGSV,4,4,16,05,23,254,,06,04,172,,07,74,120,,09,04,198,,1*7A,1621578430972
$GNGSA,A,3,02,03,06,14,17,19,30,,,,,,0.9,0.6,0.7,1*36,1621578430984
$GNGSA,A,3,66,67,78,79,81,82,,,,,,,0.9,0.6,0.7,2*39,1621578430984
$GNGSA,A,3,01,13,21,26,,,,,,,,,0.9,0.6,0.7,3*3F,1621578430984
$GNGSA,A,3,08,10,11,12,13,23,25,,,,,,0.9,0.6,0.7,4*32,1621578430984
$GNGSA,A,3,01,02,03,,,,,,,,,,0.9,0.6,0.7,5*3D,1621578430984
$GNVTG,,T,,M,0.0,N,0.0,K,A*3D,1621578430984
$GNDTM,P90,,0000.000018,S,00000.000001,W,0.993,W84*47,1621578430984
$GNRMC,062849.00,A,2218.095152,N,11411.418538,E,0.0,,210521,2.2,W,A,V*6D,1621578430984
$GNGNS,062849.00,2218.095152,N,11411.418538,E,AAAAAN,27,0.6,9.5,-1.2,,,V*39,1621578430984
$GNGGA,062849.00,2218.095152,N,11411.418538,E,1,12,0.6,9.5,M,-1.2,M,,*60,1621578430984
$GPGSV,3,1,12,02,14,247,35,03,36,056,35,04,02,108,27,06,44,264,36,1*6F,1621578431976
$GPGSV,3,2,12,09,06,140,27,14,82,149,35,17,47,358,32,19,35,324,38,1*66,1621578431976
$GPGSV,3,3,12,30,20,199,35,01,11,040,,07,00,000,,22,12,042,,1*66,1621578431976
$GPGSV,1,1,04,03,36,056,36,06,44,264,35,14,82,149,30,30,20,199,25,8*6E,1621578431976
$GLGSV,3,1,10,78,45,196,34,66,26,115,24,82,21,288,24,79,52,291,29,1*7E,1621578431976
$GLGSV,3,2,10,81,37,343,40,67,07,163,22,77,01,165,,80,07,329,,1*73,1621578431976
$GLGSV,3,3,10,65,14,052,,88,16,039,,1*75,1621578431976
$GAGSV,2,1,08,01,42,313,28,13,35,028,40,21,73,206,36,26,54,307,32,7*78,1621578431976
$GAGSV,2,2,08,07,14,132,,08,09,082,,27,26,154,,33,19,258,,7*74,1621578431976
$GAGSV,1,1,04,01,42,313,34,13,35,028,27,21,73,206,30,26,54,307,35,1*7C,1621578431976
$GQGSV,1,1,03,-191,33,123,26,-190,48,158,36,-189,56,046,40,1*4E,1621578431976
$GQGSV,1,1,03,-191,33,123,17,-190,48,158,30,-189,56,046,20,8*45,1621578431976
$GBGSV,4,1,16,25,45,257,33,24,29,184,22,23,18,307,31,13,60,253,30,1*7F,1621578431976
$GBGSV,4,2,16,12,35,037,36,11,43,327,34,10,74,327,25,08,73,310,28,1*72,1621578431976
$GBGSV,4,3,16,01,47,122,,02,46,234,,03,63,188,,04,33,108,,1*7A,1621578431976
$GBGSV,4,4,16,05,23,254,,06,04,172,,07,74,120,,09,04,198,,1*7A,1621578431976
$GNGSA,A,3,02,03,06,14,17,19,30,,,,,,0.9,0.6,0.7,1*36,1621578431986
$GNGSA,A,3,66,67,78,79,81,82,,,,,,,0.9,0.6,0.7,2*39,1621578431986
$GNGSA,A,3,01,13,21,26,,,,,,,,,0.9,0.6,0.7,3*3F,1621578431986
$GNGSA,A,3,08,10,11,12,13,23,25,,,,,,0.9,0.6,0.7,4*32,1621578431986
$GNGSA,A,3,01,02,03,,,,,,,,,,0.9,0.6,0.7,5*3D,1621578431986
$GNVTG,304.0,T,304.0,M,0.6,N,1.0,K,A*3A,1621578431986
$GNDTM,P90,,0000.000018,S,00000.000001,W,0.993,W84*47,1621578431986
$GNRMC,062850.00,A,2218.095183,N,11411.418476,E,0.6,304.0,210521,2.2,W,A,V*4D,1621578431986
$GNGNS,062850.00,2218.095183,N,11411.418476,E,AAAAAN,27,0.6,9.7,-1.2,,,V*34,1621578431986
$GNGGA,062850.00,2218.095183,N,11411.418476,E,1,12,0.6,9.7,M,-1.2,M,,*6D,1621578431986
$GPGSV,3,1,12,02,14,247,33,03,36,056,28,04,02,108,27,06,44,264,34,1*67,1621578432972
$GPGSV,3,2,12,09,06,140,26,14,82,149,35,17,47,358,29,19,35,324,38,1*6D,1621578432972
$GPGSV,3,3,12,30,20,199,31,01,11,040,,07,00,000,,22,12,042,,1*62,1621578432972
$GPGSV,1,1,04,03,36,056,37,06,44,264,33,14,82,149,24,30,20,199,29,8*60,1621578432972
$GLGSV,3,1,10,78,45,196,36,66,26,115,27,82,21,288,24,79,52,291,24,1*72,1621578432972
$GLGSV,3,2,10,81,37,343,37,67,07,163,22,77,01,165,,80,07,329,,1*73,1621578432972
$GLGSV,3,3,10,65,14,052,,88,16,039,,1*75,1621578432972
$GAGSV,2,1,08,01,42,313,27,13,35,028,37,21,73,206,33,26,54,307,23,7*72,1621578432972
$GAGSV,2,2,08,07,14,132,,08,09,082,,27,26,154,,33,19,258,,7*74,1621578432972
$GAGSV,1,1,04,01,42,313,38,13,35,028,30,21,73,206,30,26,54,307,38,1*7B,1621578432972
$GQGSV,1,1,03,-191,33,123,26,-190,48,158,31,-189,56,046,36,1*48,1621578432972
$GQGSV,1,1,03,-191,33,123,17,-190,48,158,30,-189,56,046,30,8*44,1621578432972
$GBGSV,4,1,16,25,45,257,32,24,29,184,23,23,18,307,26,13,60,253,28,1*70,1621578432972
$GBGSV,4,2,16,12,35,037,33,11,43,327,35,10,74,327,25,08,73,310,26,1*78,1621578432972
$GBGSV,4,3,16,01,47,122,,02,46,234,,03,63,188,,04,33,108,,1*7A,1621578432972
$GBGSV,4,4,16,05,23,254,,06,04,172,,07,74,120,,09,04,198,,1*7A,1621578432972
$GNGSA,A,3,02,03,06,14,17,19,30,,,,,,0.9,0.5,0.7,1*35,1621578432985
$GNGSA,A,3,66,67,78,79,81,82,,,,,,,0.9,0.5,0.7,2*3A,1621578432985
$GNGSA,A,3,01,13,21,26,,,,,,,,,0.9,0.5,0.7,3*3C,1621578432985
$GNGSA,A,3,08,10,11,12,13,23,24,25,,,,,0.9,0.5,0.7,4*37,1621578432985
$GNGSA,A,3,01,02,03,,,,,,,,,,0.9,0.5,0.7,5*3E,1621578432985
$GNVTG,265.2,T,265.2,M,1.4,N,2.5,K,A*3F,1621578432985
$GNDTM,P90,,0000.000018,S,00000.000001,W,0.993,W84*47,1621578432985
$GNRMC,062851.00,A,2218.095218,N,11411.418183,E,1.4,265.2,210521,2.2,W,A,V*45,1621578432985
$GNGNS,062851.00,2218.095218,N,11411.418183,E,AAAAAN,28,0.5,9.7,-1.2,,,V*37,1621578432985
$GNGGA,062851.00,2218.095218,N,11411.418183,E,1,12,0.5,9.7,M,-1.2,M,,*61,1621578432985
$GPGSV,3,1,12,02,14,247,30,03,36,056,36,04,02,108,27,06,44,264,37,1*68,1621578433970
$GPGSV,3,2,12,09,06,140,28,14,82,149,37,17,47,358,38,19,35,324,40,1*6E,1621578433970
$GPGSV,3,3,12,30,20,199,34,01,11,040,,07,00,000,,22,12,042,,1*67,1621578433970
$GPGSV,1,1,04,03,36,056,34,06,44,264,37,14,82,149,24,30,20,199,27,8*69,1621578433970
$GLGSV,3,1,10,78,45,196,36,66,26,115,28,82,21,288,23,79,52,291,25,1*7B,1621578433970
$GLGSV,3,2,10,81,37,343,36,67,07,163,23,77,01,165,,80,07,329,,1*73,1621578433970
$GLGSV,3,3,10,65,14,052,,88,16,039,,1*75,1621578433970
$GAGSV,2,1,08,01,42,313,32,13,35,028,36,21,73,206,32,26,54,307,23,7*76,1621578433970
$GAGSV,2,2,08,07,14,132,,08,09,082,,27,26,154,,33,19,258,,7*74,1621578433970
$GAGSV,1,1,04,01,42,313,38,13,35,028,31,21,73,206,30,26,54,307,39,1*7B,1621578433970
$GQGSV,1,1,03,-191,33,123,22,-190,48,158,27,-189,56,046,29,1*45,1621578433970
$GQGSV,1,1,03,-191,33,123,19,-190,48,158,30,-189,56,046,37,8*4D,1621578433970
$GBGSV,4,1,16,25,45,257,34,24,29,184,30,23,18,307,31,13,60,253,30,1*7B,1621578433970
$GBGSV,4,2,16,12,35,037,30,11,43,327,36,10,74,327,25,08,73,310,23,1*7D,1621578433970
$GBGSV,4,3,16,01,47,122,,02,46,234,,03,63,188,,04,33,108,,1*7A,1621578433970
$GBGSV,4,4,16,05,23,254,,06,04,172,,07,74,120,,09,04,198,,1*7A,1621578433970
$GNGSA,A,3,02,03,06,14,17,19,30,,,,,,0.9,0.5,0.7,1*35,1621578433982
$GNGSA,A,3,66,67,78,79,81,82,,,,,,,0.9,0.5,0.7,2*3A,1621578433982
$GNGSA,A,3,01,13,21,26,,,,,,,,,0.9,0.5,0.7,3*3C,1621578433982
$GNGSA,A,3,08,10,11,12,13,23,24,25,,,,,0.9,0.5,0.7,4*37,1621578433982
$GNGSA,A,3,01,02,03,,,,,,,,,,0.9,0.5,0.7,5*3E,1621578433982
$GNVTG,266.7,T,266.7,M,2.4,N,4.4,K,A*3B,1621578433982
$GNDTM,P90,,0000.000018,S,00000.000001,W,0.993,W84*47,1621578433982
$GNRMC,062852.00,A,2218.095170,N,11411.417615,E,2.4,266.7,210521,2.2,W,A,V*49,1621578433982
$GNGNS,062852.00,2218.095170,N,11411.417615,E,AAAAAN,28,0.5,9.3,-1.2,,,V*3A,1621578433982
$GNGGA,062852.00,2218.095170,N,11411.417615,E,1,12,0.5,9.3,M,-1.2,M,,*6C,1621578433982
$GPGSV,3,1,12,02,14,247,34,03,36,056,39,06,44,264,38,09,06,140,27,1*69,1621578434971
$GPGSV,3,2,12,14,82,149,39,17,47,358,41,19,35,324,41,30,20,199,35,1*69,1621578434971
$GPGSV,3,3,12,01,11,040,,04,02,108,,07,00,000,,22,12,042,,1*6F,1621578434971
$GPGSV,1,1,04,03,36,056,32,06,44,264,36,14,82,149,24,30,20,199,27,8*6E,1621578434971
$GLGSV,3,1,10,78,45,196,37,66,26,115,25,82,21,288,23,79,52,291,30,1*73,1621578434971
$GLGSV,3,2,10,81,37,343,38,67,07,163,24,77,01,165,,80,07,329,,1*7A,1621578434971
$GLGSV,3,3,10,65,14,052,,88,16,039,,1*75,1621578434971
$GAGSV,2,1,08,01,42,313,34,13,35,028,34,21,73,206,30,26,54,307,25,7*76,1621578434971
$GAGSV,2,2,08,07,14,132,,08,09,082,,27,26,154,,33,19,258,,7*74,1621578434971
$GAGSV,1,1,04,01,42,313,37,13,35,028,32,21,73,206,31,26,54,307,38,1*77,1621578434971
$GQGSV,1,1,03,-191,33,123,27,-190,48,158,29,-189,56,046,30,1*46,1621578434971
$GQGSV,1,1,03,-191,33,123,22,-190,48,158,28,-189,56,046,37,8*4C,1621578434971
$GBGSV,4,1,16,25,45,257,34,24,29,184,30,23,18,307,33,13,60,253,33,1*7A,1621578434971
$GBGSV,4,2,16,12,35,037,27,11,43,327,34,10,74,327,19,08,73,310,23,1*76,1621578434971
$GBGSV,4,3,16,01,47,122,,02,46,234,,03,63,188,,04,33,108,,1*7A,1621578434971
$GBGSV,4,4,16,05,23,254,,06,04,172,,07,74,120,,09,04,198,,1*7A,1621578434971
$GNGSA,A,3,02,03,06,14,17,19,30,,,,,,0.9,0.5,0.7,1*35,1621578434983
$GNGSA,A,3,66,67,78,79,81,82,,,,,,,0.9,0.5,0.7,2*3A,1621578434983
$GNGSA,A,3,01,13,21,26,,,,,,,,,0.9,0.5,0.7,3*3C,1621578434983
$GNGSA,A,3,08,10,11,12,13,23,24,25,,,,,0.9,0.5,0.7,4*37,1621578434983
$GNGSA,A,3,01,02,03,,,,,,,,,,0.9,0.5,0.7,5*3E,1621578434983
$GNVTG,277.3,T,277.3,M,3.0,N,5.5,K,A*3E,1621578434983
$GNDTM,P90,,0000.000018,S,00000.000001,W,0.993,W84*47,1621578434983
$GNRMC,062853.00,A,2218.095192,N,11411.416832,E,3.0,277.3,210521,2.2,W,A,V*4F,1621578434983
$GNGNS,062853.00,2218.095192,N,11411.416832,E,AAAAAN,28,0.5,9.0,-1.2,,,V*3E,1621578434983
$GNGGA,062853.00,2218.095192,N,11411.416832,E,1,12,0.5,9.0,M,-1.2,M,,*68,1621578434983
$GPGSV,3,1,12,02,14,247,33,03,36,056,32,06,44,264,37,09,06,140,23,1*6E,1621578435975
$GPGSV,3,2,12,14,82,149,38,17,47,358,36,19,35,324,41,30,20,199,30,1*6D,1621578435975
$GPGSV,3,3,12,01,11,040,,04,02,108,,07,00,000,,22,12,042,,1*6F,1621578435975
$GPGSV,1,1,04,03,36,056,33,06,44,264,35,14,82,149,27,30,20,199,25,8*6D,1621578435975
$GLGSV,3,1,10,78,45,196,37,66,26,115,24,82,21,288,22,79,52,291,28,1*7A,1621578435975
$GLGSV,3,2,10,81,37,343,37,67,07,163,24,77,01,165,,80,07,329,,1*75,1621578435975
$GLGSV,3,3,10,65,14,052,,88,16,039,,1*75,1621578435975
$GAGSV,2,1,08,01,42,313,30,13,35,028,39,21,73,206,34,26,54,307,28,7*76,1621578435975
$GAGSV,2,2,08,07,14,132,,08,09,082,,27,26,154,,33,19,258,,7*74,1621578435975
$GAGSV,1,1,04,01,42,313,37,13,35,028,31,21,73,206,32,26,54,307,38,1*77,1621578435975
$GQGSV,1,1,03,-191,33,123,29,-190,48,158,33,-189,56,046,37,1*44,1621578435975
$GQGSV,1,1,03,-191,33,123,23,-190,48,158,30,-189,56,046,33,8*40,1621578435975
$GBGSV,4,1,16,25,45,257,34,24,29,184,27,23,18,307,32,13,60,253,30,1*7E,1621578435975
$GBGSV,4,2,16,12,35,037,34,11,43,327,37,10,74,327,24,08,73,310,27,1*7D,1621578435975
$GBGSV,4,3,16,01,47,122,,02,46,234,,03,63,188,,04,33,108,,1*7A,1621578435975
$GBGSV,4,4,16,05,23,254,,06,04,172,,07,74,120,,09,04,198,,1*7A,1621578435975
$GNGSA,A,3,02,03,06,14,17,19,30,,,,,,0.9,0.5,0.7,1*35,1621578435986
$GNGSA,A,3,66,67,78,79,81,82,,,,,,,0.9,0.5,0.7,2*3A,1621578435986
$GNGSA,A,3,01,13,21,26,,,,,,,,,0.9,0.5,0.7,3*3C,1621578435986
$GNGSA,A,3,08,10,11,12,13,23,24,25,,,,,0.9,0.5,0.7,4*37,1621578435986
$GNGSA,A,3,01,02,03,,,,,,,,,,0.9,0.5,0.7,5*3E,1621578435986
$GNVTG,299.3,T,299.3,M,3.7,N,6.8,K,A*37,1621578435986
$GNDTM,P90,,0000.000018,S,00000.000001,W,0.993,W84*47,1621578435986
$GNRMC,062854.00,A,2218.095562,N,11411.415999,E,3.7,299.3,210521,2.2,W,A,V*47,1621578435986
$GNGNS,062854.00,2218.095562,N,11411.415999,E,AAAAAN,28,0.5,8.8,-1.2,,,V*38,1621578435986
$GNGGA,062854.00,2218.095562,N,11411.415999,E,1,12,0.5,8.8,M,-1.2,M,,*6E,1621578435986
$GPGSV,3,1,12,02,14,247,33,03,36,056,36,06,44,264,36,09,06,140,23,1*6B,1621578436975
$GPGSV,3,2,12,14,82,149,36,17,47,358,37,19,35,324,39,30,20,199,36,1*6B,1621578436975
$GPGSV,3,3,12,01,11,040,,04,02,108,,07,00,000,,22,12,042,,1*6F,1621578436975
$GPGSV,1,1,04,03,36,056,30,06,44,264,37,14,82,149,32,30,20,199,24,8*69,1621578436975
$GLGSV,3,1,10,78,45,196,28,66,26,115,24,82,21,288,23,79,52,291,34,1*78,1621578436975
$GLGSV,3,2,10,81,37,343,37,67,07,163,23,77,01,165,,80,07,329,,1*72,1621578436975
$GLGSV,3,3,10,65,14,052,,88,16,039,,1*75,1621578436975
$GAGSV,2,1,08,01,42,313,35,13,35,028,39,21,73,206,35,26,54,307,31,7*7A,1621578436975
$GAGSV,2,2,08,07,14,132,,08,09,082,,27,26,154,,33,19,258,,7*74,1621578436975
$GAGSV,1,1,04,01,42,313,36,13,35,028,35,21,73,206,27,26,54,307,35,1*7B,1621578436975
$GQGSV,1,1,03,-191,33,123,24,-190,48,158,30,-189,56,046,38,1*45,1621578436975
$GQGSV,1,1,03,-191,33,123,25,-190,48,158,32,-189,56,046,31,8*46,1621578436975
$GBGSV,4,1,16,25,45,257,34,24,29,184,27,23,18,307,32,13,60,253,27,1*78,1621578436975
$GBGSV,4,2,16,12,35,037,35,11,43,327,27,10,74,327,26,08,73,310,25,1*7D,1621578436975
$GBGSV,4,3,16,01,47,122,,02,46,234,,03,63,188,,04,33,108,,1*7A,1621578436975
$GBGSV,4,4,16,05,23,254,,06,04,172,,07,74,120,,09,04,198,,1*7A,1621578436975
$GNGSA,A,3,02,03,06,14,17,19,30,,,,,,0.9,0.5,0.7,1*35,1621578436987
$GNGSA,A,3,66,67,78,79,81,82,,,,,,,0.9,0.5,0.7,2*3A,1621578436987
$GNGSA,A,3,01,13,21,26,,,,,,,,,0.9,0.5,0.7,3*3C,1621578436987
$GNGSA,A,3,08,10,11,12,13,23,24,25,,,,,0.9,0.5,0.7,4*37,1621578436987
$GNGSA,A,3,01,02,03,,,,,,,,,,0.9,0.5,0.7,5*3E,1621578436987
$GNVTG,321.7,T,321.7,M,3.4,N,6.3,K,A*3F,1621578436987
$GNDTM,P90,,0000.000018,S,00000.000001,W,0.993,W84*47,1621578436987
$GNRMC,062855.00,A,2218.096299,N,11411.415344,E,3.4,321.7,210521,2.2,W,A,V*49,1621578436987
$GNGNS,062855.00,2218.096299,N,11411.415344,E,AAAAAN,28,0.5,8.7,-1.2,,,V*3C,1621578436987
$GNGGA,062855.00,2218.096299,N,11411.415344,E,1,12,0.5,8.7,M,-1.2,M,,*6A,1621578436987
$GPGSV,3,1,12,02,14,247,34,03,36,056,36,06,44,264,37,09,06,140,23,1*6D,1621578437975
$GPGSV,3,2,12,14,82,149,38,17,47,358,36,19,35,324,37,30,20,199,37,1*6B,1621578437975
$GPGSV,3,3,12,01,11,040,,04,02,108,,07,00,000,,22,12,042,,1*6F,1621578437975
$GPGSV,1,1,04,03,36,056,31,06,44,264,37,14,82,149,34,30,20,199,28,8*62,1621578437975
$GLGSV,3,1,10,78,45,196,28,66,26,115,23,82,21,288,24,79,52,291,31,1*7D,1621578437975
$GLGSV,3,2,10,81,37,343,39,67,07,163,23,77,01,165,,80,07,329,,1*7C,1621578437975
$GLGSV,3,3,10,65,14,052,,88,16,039,,1*75,1621578437975
$GAGSV,2,1,08,01,42,313,36,13,35,028,36,21,73,206,31,26,54,307,36,7*75,1621578437975
$GAGSV,2,2,08,07,14,132,,08,09,082,,27,26,154,,33,19,258,,7*74,1621578437975
$GAGSV,1,1,04,01,42,313,37,13,35,028,39,21,73,206,28,26,54,307,35,1*79,1621578437975
$GQGSV,1,1,03,-191,33,123,27,-190,48,158,24,-189,56,046,31,1*4A,1621578437975
$GQGSV,1,1,03,-191,33,123,28,-190,48,158,33,-189,56,046,36,8*4D,1621578437975
$GBGSV,4,1,16,25,45,257,28,24,29,184,28,23,18,307,29,13,60,253,22,1*75,1621578437975
$GBGSV,4,2,16,12,35,037,35,11,43,327,29,10,74,327,26,08,73,310,26,1*70,1621578437975
$GBGSV,4,3,16,01,47,122,,02,46,234,,03,63,188,,04,33,108,,1*7A,1621578437975
$GBGSV,4,4,16,05,23,254,,06,04,172,,07,74,120,,09,04,198,,1*7A,1621578437975
$GNGSA,A,3,02,03,06,14,17,19,30,,,,,,0.9,0.5,0.7,1*35,1621578437984
$GNGSA,A,3,66,67,78,79,81,82,,,,,,,0.9,0.5,0.7,2*3A,1621578437984
$GNGSA,A,3,01,13,21,26,,,,,,,,,0.9,0.5,0.7,3*3C,1621578437984
$GNGSA,A,3,08,10,11,12,13,23,24,25,,,,,0.9,0.5,0.7,4*37,1621578437984
$GNGSA,A,3,01,02,03,,,,,,,,,,0.9,0.5,0.7,5*3E,1621578437984
$GNVTG,334.0,T,334.0,M,3.3,N,6.0,K,A*3B,1621578437984
$GNDTM,P90,,0000.000018,S,00000.000001,W,0.993,W84*47,1621578437984
$GNRMC,062856.00,A,2218.097204,N,11411.414948,E,3.3,334.0,210521,2.2,W,A,V*4C,1621578437984
$GNGNS,062856.00,2218.097204,N,11411.414948,E,AAAAAN,28,0.5,8.8,-1.2,,,V*32,1621578437984
$GNGGA,062856.00,2218.097204,N,11411.414948,E,1,12,0.5,8.8,M,-1.2,M,,*64,1621578437984
$GPGSV,3,1,12,02,14,247,33,03,36,056,36,06,44,264,33,09,06,140,20,1*6D,1621578438978
$GPGSV,3,2,12,14,82,149,38,17,47,358,35,19,35,324,38,30,20,199,37,1*67,1621578438978
$GPGSV,3,3,12,01,11,040,,04,02,108,,07,00,000,,22,12,042,,1*6F,1621578438978
$GPGSV,1,1,04,03,36,056,28,06,44,264,37,14,82,149,33,30,20,199,27,8*62,1621578438978
$GLGSV,3,1,10,78,45,196,30,66,26,115,23,82,21,288,27,79,52,291,34,1*72,1621578438978
$GLGSV,3,2,10,81,37,343,38,67,07,163,24,77,01,165,,80,07,329,,1*7A,1621578438978
$GLGSV,3,3,10,65,14,052,,88,16,039,,1*75,1621578438978
$GAGSV,2,1,08,01,42,313,38,13,35,028,35,21,73,206,31,26,54,307,38,7*76,1621578438978
$GAGSV,2,2,08,07,14,132,,08,09,082,,27,26,154,,33,19,258,,7*74,1621578438978
$GAGSV,1,1,04,01,42,313,37,13,35,028,39,21,73,206,28,26,54,307,36,1*7A,1621578438978
$GQGSV,1,1,03,-191,33,123,25,-190,48,158,27,-189,56,046,28,1*43,1621578438978
$GQGSV,1,1,03,-191,33,123,29,-190,48,158,33,-189,56,046,36,8*4C,1621578438978
$GBGSV,4,1,16,25,45,257,29,24,29,184,29,23,18,307,29,13,60,253,23,1*74,1621578438978
$GBGSV,4,2,16,12,35,037,31,11,43,327,32,10,74,327,20,08,73,310,25,1*7B,1621578438978
$GBGSV,4,3,16,01,47,122,,02,46,234,,03,63,188,,04,33,108,,1*7A,1621578438978
$GBGSV,4,4,16,05,23,254,,06,04,172,,07,74,120,,09,04,198,,1*7A,1621578438978
$GNGSA,A,3,02,03,06,14,17,19,30,,,,,,0.9,0.6,0.7,1*36,1621578438990
$GNGSA,A,3,66,78,79,81,82,,,,,,,,0.9,0.6,0.7,2*38,1621578438990
$GNGSA,A,3,01,13,21,26,,,,,,,,,0.9,0.6,0.7,3*3F,1621578438990
$GNGSA,A,3,08,10,11,12,13,23,24,25,,,,,0.9,0.6,0.7,4*34,1621578438990
$GNGSA,A,3,01,02,03,,,,,,,,,,0.9,0.6,0.7,5*3D,1621578438990
$GNVTG,336.4,T,336.4,M,3.4,N,6.3,K,A*3F,1621578438990
$GNDTM,P90,,0000.000018,S,00000.000001,W,0.993,W84*47,1621578438990
$GNRMC,062857.00,A,2218.098182,N,11411.414621,E,3.4,336.4,210521,2.2,W,A,V*4E,1621578438990
$GNGNS,062857.00,2218.098182,N,11411.414621,E,AAAAAN,27,0.6,8.8,-1.2,,,V*3D,1621578438990
$GNGGA,062857.00,2218.098182,N,11411.414621,E,1,12,0.6,8.8,M,-1.2,M,,*64,1621578438990
$GPGSV,3,1,12,02,14,247,34,03,36,056,36,06,44,264,34,09,06,140,23,1*6E,1621578439973
$GPGSV,3,2,12,14,82,149,40,17,47,358,33,19,35,324,40,30,20,199,37,1*61,1621578439973
$GPGSV,3,3,12,01,11,040,,04,02,108,,07,00,000,,22,12,042,,1*6F,1621578439973
$GPGSV,1,1,04,03,36,056,27,06,44,264,35,14,82,149,31,30,20,199,28,8*62,1621578439973
$GLGSV,3,1,10,78,45,196,31,66,26,115,23,82,21,288,30,79,52,291,35,1*74,1621578439973
$GLGSV,3,2,10,81,37,343,36,67,07,163,26,77,01,165,,80,07,329,,1*76,1621578439973
$GLGSV,3,3,10,65,14,052,,88,16,039,,1*75,1621578439973
$GAGSV,2,1,08,01,42,313,42,13,35,028,36,21,73,206,36,26,54,307,39,7*7E,1621578439973
$GAGSV,2,2,08,07,14,132,,08,09,082,,27,26,154,,33,19,258,,7*74,1621578439973
$GAGSV,1,1,04,01,42,313,35,13,35,028,38,21,73,206,23,26,54,307,35,1*71,1621578439973
$GQGSV,1,1,03,-191,33,123,25,-190,48,158,29,-189,56,046,29,1*4C,1621578439973
$GQGSV,1,1,03,-191,33,123,28,-190,48,158,27,-189,56,046,34,8*4A,1621578439973
$GBGSV,4,1,16,25,45,257,34,24,29,184,32,23,18,307,32,13,60,253,21,1*7A,1621578439973
$GBGSV,4,2,16,12,35,037,33,11,43,327,36,10,74,327,24,08,73,310,25,1*79,1621578439973
$GBGSV,4,3,16,01,47,122,,02,46,234,,03,63,188,,04,33,108,,1*7A,1621578439973
$GBGSV,4,4,16,05,23,254,,06,04,172,,07,74,120,,09,04,198,,1*7A,1621578439973
$GNGSA,A,3,02,03,06,14,17,19,30,,,,,,0.9,0.5,0.7,1*35,1621578439985
$GNGSA,A,3,66,67,78,79,81,82,,,,,,,0.9,0.5,0.7,2*3A,1621578439985
$GNGSA,A,3,01,13,21,26,,,,,,,,,0.9,0.5,0.7,3*3C,1621578439985
$GNGSA,A,3,08,10,11,12,13,23,24,25,,,,,0.9,0.5,0.7,4*37,1621578439985
$GNGSA,A,3,01,02,03,,,,,,,,,,0.9,0.5,0.7,5*3E,1621578439985
$GNVTG,333.1,T,333.1,M,3.8,N,7.0,K,A*31,1621578439985
$GNDTM,P90,,0000.000018,S,00000.000001,W,0.993,W84*47,1621578439985
$GNRMC,062858.00,A,2218.099185,N,11411.414251,E,3.8,333.1,210521,2.2,W,A,V*48,1621578439985
$GNGNS,062858.00,2218.099185,N,11411.414251,E,AAAAAN,28,0.5,8.6,-1.2,,,V*35,1621578439985
$GNGGA,062858.00,2218.099185,N,11411.414251,E,1,12,0.5,8.6,M,-1.2,M,,*63,1621578439985
$GPGSV,3,1,12,02,14,247,33,03,36,056,32,06,44,264,34,09,06,140,23,1*6D,1621578440971
$GPGSV,3,2,12,14,82,149,40,17,47,358,31,19,35,324,40,30,20,199,35,1*61,1621578440971
$GPGSV,3,3,12,01,11,040,,04,02,108,,07,00,000,,22,12,042,,1*6F,1621578440971
$GPGSV,1,1,04,03,36,056,26,06,44,264,36,14,82,149,32,30,20,199,27,8*6C,1621578440971
$GLGSV,3,1,10,78,45,196,30,66,26,115,25,82,21,288,28,79,52,291,35,1*7A,1621578440971
$GLGSV,3,2,10,81,37,343,34,67,07,163,25,77,01,165,,80,07,329,,1*77,1621578440971
$GLGSV,3,3,10,65,14,052,,88,16,039,,1*75,1621578440971
$GAGSV,2,1,08,01,42,313,41,13,35,028,37,21,73,206,35,26,54,307,39,7*7F,1621578440971
$GAGSV,2,2,08,07,14,132,,08,09,082,,27,26,154,,33,19,258,,7*74,1621578440971
$GAGSV,1,1,04,01,42,313,35,13,35,028,40,21,73,206,23,26,54,307,36,1*7D,1621578440971
$GQGSV,1,1,03,-191,33,123,21,-190,48,158,28,-189,56,046,32,1*43,1621578440971
$GQGSV,1,1,03,-191,33,123,30,-190,48,158,29,-189,56,046,36,8*4F,1621578440971
$GBGSV,4,1,16,25,45,257,34,24,29,184,32,23,18,307,29,13,60,253,23,1*72,1621578440971
$GBGSV,4,2,16,12,35,037,28,11,43,327,36,10,74,327,24,08,73,310,23,1*75,1621578440971
$GBGSV,4,3,16,01,47,122,,02,46,234,,03,63,188,,04,33,108,,1*7A,1621578440971
$GBGSV,4,4,16,05,23,254,,06,04,172,,07,74,120,,09,04,198,,1*7A,1621578440971
$GNGSA,A,3,02,03,06,14,17,19,30,,,,,,0.9,0.5,0.7,1*35,1621578440983
$GNGSA,A,3,66,67,78,79,81,82,,,,,,,0.9,0.5,0.7,2*3A,1621578440983
$GNGSA,A,3,01,13,21,26,,,,,,,,,0.9,0.5,0.7,3*3C,1621578440983
$GNGSA,A,3,08,10,11,12,13,23,24,25,,,,,0.9,0.5,0.7,4*37,1621578440983
$GNGSA,A,3,01,02,03,,,,,,,,,,0.9,0.5,0.7,5*3E,1621578440983
$GNVTG,334.0,T,334.0,M,5.8,N,10.7,K,A*06,1621578440983
$GNDTM,P90,,0000.000018,S,00000.000001,W,0.993,W84*47,1621578440983
$GNRMC,062859.00,A,2218.100498,N,11411.413690,E,5.8,334.0,210521,2.2,W,A,V*4F,1621578440983
$GNGNS,062859.00,2218.100498,N,11411.413690,E,AAAAAN,28,0.5,8.5,-1.2,,,V*31,1621578440983
$GNGGA,062859.00,2218.100498,N,11411.413690,E,1,12,0.5,8.5,M,-1.2,M,,*67,1621578440983
$GPGSV,3,1,12,02,14,247,34,03,36,056,27,06,44,264,33,09,06,140,22,1*68,1621578441972
$GPGSV,3,2,12,14,82,149,40,17,47,358,27,19,35,324,41,30,20,199,35,1*67,1621578441972
$GPGSV,3,3,12,01,11,040,,04,02,108,,07,00,000,,22,12,042,,1*6F,1621578441972
$GPGSV,1,1,04,03,36,056,26,06,44,264,34,14,82,149,31,30,20,199,25,8*6F,1621578441972
$GLGSV,3,1,10,78,45,196,29,66,26,115,25,82,21,288,26,79,53,289,33,1*72,1621578441972
$GLGSV,3,2,10,81,37,344,34,67,07,163,25,77,00,000,,80,07,329,,1*73,1621578441972
$GLGSV,3,3,10,65,14,050,,88,16,039,,1*77,1621578441972
$GAGSV,2,1,08,01,42,313,41,13,35,028,37,21,73,206,37,26,54,307,39,7*7D,1621578441972
$GAGSV,2,2,08,07,14,132,,08,09,082,,27,26,154,,33,19,258,,7*74,1621578441972
$GAGSV,1,1,04,01,42,313,34,13,35,028,40,21,73,206,23,26,54,307,35,1*7F,1621578441972
$GQGSV,1,1,03,-191,33,123,23,-190,48,158,29,-189,56,046,35,1*47,1621578441972
$GQGSV,1,1,03,-191,33,123,29,-190,48,158,29,-189,56,046,34,8*45,1621578441972
$GBGSV,4,1,16,25,45,257,35,24,29,184,32,23,18,307,31,13,60,253,23,1*7A,1621578441972
$GBGSV,4,2,16,12,35,037,30,11,43,327,37,10,74,327,26,08,73,310,24,1*78,1621578441972
$GBGSV,4,3,16,01,47,122,,02,46,234,,03,63,188,,04,33,108,,1*7A,1621578441972
$GBGSV,4,4,16,05,23,254,,06,04,172,,07,74,120,,09,04,198,,1*7A,1621578441972
$GNGSA,A,3,02,03,06,14,17,19,,,,,,,0.9,0.6,0.7,1*35,1621578441992
$GNGSA,A,3,66,67,78,79,81,82,,,,,,,0.9,0.6,0.7,2*39,1621578441992
$GNGSA,A,3,01,13,21,26,,,,,,,,,0.9,0.6,0.7,3*3F,1621578441992
$GNGSA,A,3,08,10,11,12,13,23,24,25,,,,,0.9,0.6,0.7,4*34,1621578441992
$GNGSA,A,3,01,02,03,,,,,,,,,,0.9,0.6,0.7,5*3D,1621578441992
$GNVTG,335.2,T,335.2,M,7.5,N,13.9,K,A*04,1621578441992
$GNDTM,P90,,0000.000018,S,00000.000001,W,0.993,W84*47,1621578441992
$GNRMC,062900.00,A,2218.102282,N,11411.412899,E,7.5,335.2,210521,2.2,W,A,V*47,1621578441992
$GNGNS,062900.00,2218.102282,N,11411.412899,E,AAAAAN,27,0.6,8.2,-1.2,,,V*3E,1621578441992
$GNGGA,062900.00,2218.102282,N,11411.412899,E,1,12,0.6,8.2,M,-1.2,M,,*67,1621578441992
$GPGSV,3,1,12,02,14,247,35,03,36,056,26,04,02,108,24,06,44,264,35,1*6D,1621578442972
$GPGSV,3,2,12,09,06,140,24,14,82,149,40,17,47,358,26,19,35,324,40,1*6D,1621578442972
$GPGSV,3,3,12,30,20,199,33,01,11,040,,07,00,000,,22,12,042,,1*60,1621578442972
$GPGSV,1,1,04,03,36,056,23,06,44,264,34,14,82,149,32,30,20,199,27,8*6B,1621578442972
$GLGSV,3,1,10,78,45,196,28,66,26,115,25,82,21,288,29,79,53,289,30,1*7F,1621578442972
$GLGSV,3,2,10,81,37,344,34,67,07,163,24,77,00,000,,80,07,329,,1*72,1621578442972
$GLGSV,3,3,10,65,14,050,,88,16,039,,1*77,1621578442972
$GAGSV,2,1,08,01,42,313,39,13,35,028,35,21,73,206,38,26,54,307,39,7*7F,1621578442972
$GAGSV,2,2,08,07,14,132,,08,09,082,,27,26,154,,33,19,258,,7*74,1621578442972
$GAGSV,1,1,04,01,42,313,34,13,35,028,39,21,73,206,21,26,54,307,35,1*73,1621578442972
$GQGSV,1,1,03,-191,33,123,26,-190,48,158,28,-189,56,046,36,1*40,1621578442972
$GQGSV,1,1,03,-191,33,123,29,-190,48,158,32,-189,56,046,35,8*4E,1621578442972
$GBGSV,4,1,16,25,45,257,35,24,29,184,32,23,18,307,31,13,60,253,23,1*7A,1621578442972
$GBGSV,4,2,16,12,35,037,30,11,43,327,37,10,74,327,25,08,73,310,22,1*7D,1621578442972
$GBGSV,4,3,16,01,47,122,,02,46,234,,03,63,188,,04,33,108,,1*7A,1621578442972
$GBGSV,4,4,16,05,23,254,,06,04,172,,07,74,120,,09,04,198,,1*7A,1621578442972
$GNGSA,A,3,02,03,06,14,17,19,30,,,,,,0.9,0.6,0.7,1*36,1621578442984
$GNGSA,A,3,66,67,78,79,81,82,,,,,,,0.9,0.6,0.7,2*39,1621578442984
$GNGSA,A,3,01,13,21,26,,,,,,,,,0.9,0.6,0.7,3*3F,1621578442984
$GNGSA,A,3,08,10,11,12,23,24,25,,,,,,0.9,0.6,0.7,4*36,1621578442984
$GNGSA,A,3,01,02,03,,,,,,,,,,0.9,0.6,0.7,5*3D,1621578442984
$GNVTG,336.4,T,336.4,M,8.7,N,16.1,K,A*04,1621578442984
$GNDTM,P90,,0000.000018,S,00000.000001,W,0.993,W84*47,1621578442984
$GNRMC,062901.00,A,2218.104458,N,11411.411992,E,8.7,336.4,210521,2.2,W,A,V*40,1621578442984
$GNGNS,062901.00,2218.104458,N,11411.411992,E,AAAAAN,27,0.6,8.3,-1.2,,,V*30,1621578442984
$GNGGA,062901.00,2218.104458,N,11411.411992,E,1,12,0.6,8.3,M,-1.2,M,,*69,1621578442984
$GPGSV,3,1,12,02,14,247,29,03,36,056,26,04,02,108,21,06,44,264,36,1*66,1621578443969
$GPGSV,3,2,12,09,06,140,23,14,82,149,41,17,47,358,27,19,35,324,40,1*6A,1621578443969
$GPGSV,3,3,12,30,20,199,35,01,11,040,,07,00,000,,22,12,042,,1*66,1621578443969
$GPGSV,1,1,04,03,36,056,27,06,44,264,33,14,82,149,32,30,20,199,27,8*68,1621578443969
$GLGSV,3,1,10,78,45,196,27,66,26,115,27,82,21,288,30,79,53,289,30,1*7A,1621578443969
$GLGSV,3,2,10,81,37,344,34,67,07,163,26,77,00,000,,80,07,329,,1*70,1621578443969
$GLGSV,3,3,10,65,14,050,,88,16,039,,1*77,1621578443969
$GAGSV,2,1,08,01,42,313,40,13,35,028,34,21,73,206,39,26,54,307,39,7*71,1621578443969
$GAGSV,2,2,08,07,14,132,,08,09,082,,27,26,154,,33,19,258,,7*74,1621578443969
$GAGSV,1,1,04,01,42,313,33,13,35,028,40,21,73,206,22,26,54,307,35,1*79,1621578443969
$GQGSV,1,1,03,-191,33,123,28,-190,48,158,28,-189,56,046,37,1*4F,1621578443969
$GQGSV,1,1,03,-191,33,123,32,-190,48,158,31,-189,56,046,36,8*44,1621578443969
$GBGSV,4,1,16,25,45,257,35,24,29,184,33,23,18,307,32,13,60,253,19,1*71,1621578443969
$GBGSV,4,2,16,12,35,037,28,11,43,327,38,10,74,327,26,08,73,310,22,1*78,1621578443969
$GBGSV,4,3,16,01,47,122,,02,46,234,,03,63,188,,04,33,108,,1*7A,1621578443969
$GBGSV,4,4,16,05,23,254,,06,04,172,,07,74,120,,09,04,198,,1*7A,1621578443969
$GNGSA,A,3,02,03,06,14,17,19,30,,,,,,0.9,0.6,0.7,1*36,1621578443989
$GNGSA,A,3,66,67,78,79,81,82,,,,,,,0.9,0.6,0.7,2*39,1621578443989
$GNGSA,A,3,01,13,21,26,,,,,,,,,0.9,0.6,0.7,3*3F,1621578443989
$GNGSA,A,3,08,10,11,12,23,24,25,,,,,,0.9,0.6,0.7,4*36,1621578443989
$GNGSA,A,3,01,02,03,,,,,,,,,,0.9,0.6,0.7,5*3D,1621578443989
$GNVTG,336.8,T,336.8,M,9.5,N,17.6,K,A*01,1621578443989
$GNDTM,P90,,0000.000018,S,00000.000001,W,0.993,W84*47,1621578443989
$GNRMC,062902.00,A,2218.106880,N,11411.410959,E,9.5,336.8,210521,2.2,W,A,V*41,1621578443989
$GNGNS,062902.00,2218.106880,N,11411.410959,E,AAAAAN,27,0.6,8.1,-1.2,,,V*3C,1621578443989
$GNGGA,062902.00,2218.106880,N,11411.410959,E,1,12,0.6,8.1,M,-1.2,M,,*65,1621578443989
$GPGSV,3,1,12,02,14,247,23,03,36,056,32,04,02,108,24,06,44,264,33,1*69,1621578444972
$GPGSV,3,2,12,09,06,140,23,14,82,149,40,17,47,358,26,19,35,324,40,1*6A,1621578444972
$GPGSV,3,3,12,30,20,199,36,01,11,040,,07,00,000,,22,12,042,,1*65,1621578444972
$GPGSV,1,1,04,03,36,056,28,06,44,264,34,14,82,149,32,30,20,199,28,8*6F,1621578444972
$GLGSV,3,1,10,78,45,196,26,66,26,115,29,82,21,288,29,79,53,289,30,1*7D,1621578444972
$GLGSV,3,2,10,81,37,344,34,67,07,163,26,77,00,000,,80,07,329,,1*70,1621578444972
$GLGSV,3,3,10,65,14,050,,88,16,039,,1*77,1621578444972
$GAGSV,2,1,08,01,42,313,38,13,35,028,34,21,73,206,36,26,54,307,39,7*71,1621578444972
$GAGSV,2,2,08,07,14,132,,08,09,082,,27,26,154,,33,19,258,,7*74,1621578444972
$GAGSV,1,1,04,01,42,313,33,13,35,028,41,21,73,206,25,26,54,307,35,1*7F,1621578444972
$GQGSV,1,1,03,-191,33,123,26,-190,48,158,27,-189,56,046,35,1*4C,1621578444972
$GQGSV,1,1,03,-191,33,123,32,-190,48,158,32,-189,56,046,36,8*47,1621578444972
$GBGSV,4,1,16,25,45,257,34,24,29,184,31,23,18,307,32,13,60,253,19,1*72,1621578444972
$GBGSV,4,2,16,12,35,037,27,11,43,327,37,10,74,327,26,08,73,310,24,1*7E,1621578444972
$GBGSV,4,3,16,01,47,122,,02,46,234,,03,63,188,,04,33,108,,1*7A,1621578444972
$GBGSV,4,4,16,05,23,254,,06,04,172,,07,74,120,,09,04,198,,1*7A,1621578444972
$GNGSA,A,3,02,03,06,14,17,19,30,,,,,,0.9,0.6,0.7,1*36,1621578444984
$GNGSA,A,3,66,67,78,79,81,82,,,,,,,0.9,0.6,0.7,2*39,1621578444984
$GNGSA,A,3,01,13,21,26,,,,,,,,,0.9,0.6,0.7,3*3F,1621578444984
$GNGSA,A,3,08,10,11,12,23,24,25,,,,,,0.9,0.6,0.7,4*36,1621578444984
$GNGSA,A,3,01,02,03,,,,,,,,,,0.9,0.6,0.7,5*3D,1621578444984
$GNVTG,336.9,T,336.9,M,10.6,N,19.6,K,A*34,1621578444984
$GNDTM,P90,,0000.000018,S,00000.000001,W,0.993,W84*47,1621578444984
$GNRMC,062903.00,A,2218.109906,N,11411.409926,E,10.6,336.9,210521,2.2,W,A,V*7A,1621578444984
$GNGNS,062903.00,2218.109906,N,11411.409926,E,AAAAAN,27,0.6,7.9,-1.2,,,V*3A,1621578444984
$GNGGA,062903.00,2218.109906,N,11411.409926,E,1,12,0.6,7.9,M,-1.2,M,,*63,1621578444984
$GPGSV,3,1,12,02,14,247,23,03,36,056,30,04,02,108,24,06,44,264,32,1*6A,1621578445971
$GPGSV,3,2,12,09,06,140,22,14,82,149,40,17,47,358,22,19,35,324,39,1*61,1621578445971
$GPGSV,3,3,12,30,20,199,35,01,11,040,,07,00,000,,22,12,042,,1*66,1621578445971
$GPGSV,1,1,04,03,36,056,28,06,44,264,34,14,82,149,32,30,20,199,28,8*6F,1621578445971
$GLGSV,3,1,10,78,45,196,23,66,26,115,25,82,21,288,28,79,53,289,29,1*7D,1621578445971
$GLGSV,3,2,10,81,37,344,33,67,07,163,26,77,00,000,,80,07,329,,1*77,1621578445971
$GLGSV,3,3,10,65,14,050,,88,16,039,,1*77,1621578445971
$GAGSV,2,1,08,01,42,313,38,13,35,028,33,21,73,206,36,26,54,307,39,7*76,1621578445971
$GAGSV,2,2,08,07,14,132,,08,09,082,,27,26,154,,33,19,258,,7*74,1621578445971
$GAGSV,1,1,04,01,42,313,34,13,35,028,38,21,73,206,25,26,54,307,36,1*75,1621578445971
$GQGSV,1,1,03,-191,33,123,25,-190,48,158,26,-189,56,046,33,1*48,1621578445971
$GQGSV,1,1,03,-191,33,123,31,-190,48,158,33,-189,56,046,36,8*45,1621578445971
$GBGSV,4,1,16,25,45,257,34,24,29,184,30,23,18,307,30,13,60,253,21,1*7A,1621578445971
$GBGSV,4,2,16,12,35,037,32,11,43,327,36,10,74,327,25,08,73,310,23,1*7F,1621578445971
$GBGSV,4,3,16,01,47,122,,02,46,234,,03,63,188,,04,33,108,,1*7A,1621578445971
$GBGSV,4,4,16,05,23,254,,06,04,172,,07,74,120,,09,04,198,,1*7A,1621578445971
$GNGSA,A,3,02,03,06,14,17,19,30,,,,,,0.9,0.6,0.7,1*36,1621578445983
$GNGSA,A,3,66,67,78,79,81,82,,,,,,,0.9,0.6,0.7,2*39,1621578445983
$GNGSA,A,3,01,13,21,26,,,,,,,,,0.9,0.6,0.7,3*3F,1621578445983
$GNGSA,A,3,08,10,11,12,23,24,25,,,,,,0.9,0.6,0.7,4*36,1621578445983
$GNGSA,A,3,01,02,03,,,,,,,,,,0.9,0.6,0.7,5*3D,1621578445983
$GNVTG,335.7,T,335.7,M,11.5,N,21.3,K,A*38,1621578445983
$GNDTM,P90,,0000.000018,S,00000.000001,W,0.993,W84*47,1621578445983
$GNRMC,062904.00,A,2218.112686,N,11411.408569,E,11.5,335.7,210521,2.2,W,A,V*79,1621578445983
$GNGNS,062904.00,2218.112686,N,11411.408569,E,AAAAAN,27,0.6,7.8,-1.2,,,V*37,1621578445983
$GNGGA,062904.00,2218.112686,N,11411.408569,E,1,12,0.6,7.8,M,-1.2,M,,*6E,1621578445983
$GPGSV,3,1,12,02,14,247,23,03,36,056,35,04,02,108,20,06,44,264,32,1*6B,1621578446975
$GPGSV,3,2,12,09,06,140,22,14,82,149,39,17,47,358,27,19,35,324,39,1*6A,1621578446975
$GPGSV,3,3,12,30,20,199,32,01,11,040,,07,00,000,,22,12,042,,1*61,1621578446975
$GPGSV,1,1,04,03,36,056,28,06,44,264,34,14,82,149,32,30,20,199,28,8*6F,1621578446975
$GLGSV,3,1,10,78,45,196,24,66,26,115,26,82,21,288,29,79,53,289,31,1*71,1621578446975
$GLGSV,3,2,10,81,37,344,34,67,07,163,28,77,00,000,,80,07,329,,1*7E,1621578446975
$GLGSV,3,3,10,65,14,050,,88,16,039,,1*77,1621578446975
$GAGSV,2,1,08,01,42,313,39,13,35,028,23,21,73,206,36,26,54,307,38,7*77,1621578446975
$GAGSV,2,2,08,07,14,132,,08,09,082,,27,26,154,,33,19,258,,7*74,1621578446975
$GAGSV,1,1,04,01,42,313,34,13,35,028,24,21,73,206,23,26,54,307,35,1*7D,1621578446975
$GQGSV,1,1,03,-191,33,123,22,-190,48,158,25,-189,56,046,33,1*4C,1621578446975
$GQGSV,1,1,03,-191,33,123,30,-190,48,158,32,-189,56,046,35,8*46,1621578446975
$GBGSV,4,1,16,25,45,257,34,24,29,184,30,23,18,307,31,13,60,253,23,1*79,1621578446975
$GBGSV,4,2,16,12,35,037,26,11,43,327,36,10,74,327,25,08,73,310,22,1*7B,1621578446975
$GBGSV,4,3,16,01,47,122,,02,46,234,,03,63,188,,04,33,108,,1*7A,1621578446975
$GBGSV,4,4,16,05,23,254,,06,04,172,,07,74,120,,09,04,198,,1*7A,1621578446975
$GNGSA,A,3,02,03,06,14,17,19,30,,,,,,0.9,0.6,0.7,1*36,1621578446986
$GNGSA,A,3,66,67,78,79,81,82,,,,,,,0.9,0.6,0.7,2*39,1621578446986
$GNGSA,A,3,01,13,21,26,,,,,,,,,0.9,0.6,0.7,3*3F,1621578446986
$GNGSA,A,3,08,10,11,12,23,24,25,,,,,,0.9,0.6,0.7,4*36,1621578446986
$GNGSA,A,3,01,02,03,,,,,,,,,,0.9,0.6,0.7,5*3D,1621578446986
$GNVTG,335.1,T,335.1,M,12.4,N,23.0,K,A*3B,1621578446986
$GNDTM,P90,,0000.000018,S,00000.000001,W,0.993,W84*47,1621578446986
$GNRMC,062905.00,A,2218.115724,N,11411.406954,E,12.4,335.1,210521,2.2,W,A,V*7E,1621578446986
$GNGNS,062905.00,2218.115724,N,11411.406954,E,AAAAAN,27,0.6,7.7,-1.2,,,V*3B,1621578446986
$GNGGA,062905.00,2218.115724,N,11411.406954,E,1,12,0.6,7.7,M,-1.2,M,,*62,1621578446986
$GPGSV,3,1,12,02,14,247,21,03,36,056,28,04,02,108,20,06,44,264,31,1*66,1621578447975
$GPGSV,3,2,12,09,06,140,20,14,82,149,39,17,47,358,29,19,35,324,40,1*68,1621578447975
$GPGSV,3,3,12,30,20,199,32,01,11,040,,07,00,000,,22,12,042,,1*61,1621578447975
$GPGSV,1,1,04,03,36,056,24,06,44,264,35,14,82,149,32,30,20,199,25,8*6F,1621578447975
$GLGSV,3,1,10,78,45,196,24,66,26,115,26,82,21,288,29,79,53,289,33,1*73,1621578447975
$GLGSV,3,2,10,81,37,344,36,67,07,163,28,77,00,000,,80,07,329,,1*7C,1621578447975
$GLGSV,3,3,10,65,14,050,,88,16,039,,1*77,1621578447975
$GAGSV,2,1,08,01,42,313,39,13,35,028,23,21,73,206,37,26,54,307,38,7*76,1621578447975
$GAGSV,2,2,08,07,14,132,,08,09,082,,27,26,154,,33,19,258,,7*74,1621578447975
$GAGSV,1,1,04,01,42,313,35,13,35,028,24,21,73,206,23,26,54,307,35,1*7C,1621578447975
$GQGSV,1,1,03,-191,33,123,23,-190,48,158,26,-189,56,046,33,1*4E,1621578447975
$GQGSV,1,1,03,-191,33,123,30,-190,48,158,32,-189,56,046,34,8*47,1621578447975
$GBGSV,4,1,16,25,45,257,33,24,29,184,30,23,18,307,32,13,60,253,23,1*7D,1621578447975
$GBGSV,4,2,16,12,35,037,26,11,43,327,35,10,74,327,24,08,73,310,21,1*7A,1621578447975
$GBGSV,4,3,16,01,47,122,,02,46,234,,03,63,188,,04,33,108,,1*7A,1621578447975
$GBGSV,4,4,16,05,23,254,,06,04,172,,07,74,120,,09,04,198,,1*7A,1621578447975
$GNGSA,A,3,02,03,06,14,17,19,30,,,,,,0.9,0.6,0.7,1*36,1621578447985
$GNGSA,A,3,66,67,78,79,81,82,,,,,,,0.9,0.6,0.7,2*39,1621578447985
$GNGSA,A,3,01,13,21,26,,,,,,,,,0.9,0.6,0.7,3*3F,1621578447985
$GNGSA,A,3,08,10,11,12,23,24,25,,,,,,0.9,0.6,0.7,4*36,1621578447985
$GNGSA,A,3,01,02,03,,,,,,,,,,0.9,0.6,0.7,5*3D,1621578447985
$GNVTG,334.9,T,334.9,M,12.9,N,23.9,K,A*3F,1621578447985
$GNDTM,P90,,0000.000018,S,00000.000001,W,0.993,W84*47,1621578447985
$GNRMC,062906.00,A,2218.118958,N,11411.405466,E,12.9,334.9,210521,2.2,W,A,V*7E,1621578447985
$GNGNS,062906.00,2218.118958,N,11411.405466,E,AAAAAN,27,0.6,7.6,-1.2,,,V*3E,1621578447985
$GNGGA,062906.00,2218.118958,N,11411.405466,E,1,12,0.6,7.6,M,-1.2,M,,*67,1621578447985
$GPGSV,3,1,12,02,14,247,21,03,36,056,37,04,02,108,20,06,44,264,32,1*6B,1621578448975
$GPGSV,3,2,12,09,06,140,24,14,82,149,40,17,47,358,30,19,35,324,41,1*6B,1621578448975
$GPGSV,3,3,12,30,20,199,36,01,11,040,,07,00,000,,22,12,042,,1*65,1621578448975
$GPGSV,1,1,04,03,36,056,29,06,44,264,35,14,82,149,32,30,20,199,24,8*63,1621578448975
$GLGSV,3,1,10,78,45,196,27,66,26,115,24,82,21,288,29,79,53,289,34,1*75,1621578448975
$GLGSV,3,2,10,81,37,344,37,67,07,163,26,77,00,000,,80,07,329,,1*73,1621578448975
$GLGSV,3,3,10,65,14,050,,88,16,039,,1*77,1621578448975
$GAGSV,2,1,08,01,42,313,39,13,35,028,23,21,73,206,37,26,54,307,39,7*77,1621578448975
$GAGSV,2,2,08,07,14,132,,08,09,082,,27,26,154,,33,19,258,,7*74,1621578448975
$GAGSV,1,1,04,01,42,313,34,13,35,028,24,21,73,206,20,26,54,307,35,1*7E,1621578448975
$GQGSV,1,1,03,-191,33,123,23,-190,48,158,27,-189,56,046,32,1*4E,1621578448975
$GQGSV,1,1,03,-191,33,123,29,-190,48,158,32,-189,56,046,33,8*48,1621578448975
$GBGSV,4,1,16,25,45,257,33,24,29,184,31,23,18,307,31,13,60,253,23,1*7F,1621578448975
$GBGSV,4,2,16,12,35,037,26,11,43,327,36,10,74,327,24,08,73,310,24,1*7C,1621578448975
$GBGSV,4,3,16,01,47,122,,02,46,234,,03,63,188,,04,33,108,,1*7A,1621578448975
$GBGSV,4,4,16,05,23,254,,06,04,172,,07,74,120,,09,04,198,,1*7A,1621578448975
$GNGSA,A,3,02,03,06,14,17,19,30,,,,,,0.9,0.6,0.7,1*36,1621578448987
$GNGSA,A,3,66,67,78,79,81,82,,,,,,,0.9,0.6,0.7,2*39,1621578448987
$GNGSA,A,3,01,13,21,26,,,,,,,,,0.9,0.6,0.7,3*3F,1621578448987
$GNGSA,A,3,08,10,11,12,23,24,25,,,,,,0.9,0.6,0.7,4*36,1621578448987
$GNGSA,A,3,01,02,03,,,,,,,,,,0.9,0.6,0.7,5*3D,1621578448987
$GNVTG,334.6,T,334.6,M,12.5,N,23.1,K,A*3B,1621578448987
$GNDTM,P90,,0000.000018,S,00000.000001,W,0.993,W84*47,1621578448987
$GNRMC,062907.00,A,2218.122068,N,11411.403919,E,12.5,334.6,210521,2.2,W,A,V*7C,1621578448987
$GNGNS,062907.00,2218.122068,N,11411.403919,E,AAAAAN,27,0.6,7.4,-1.2,,,V*3D,1621578448987
$GNGGA,062907.00,2218.122068,N,11411.403919,E,1,12,0.6,7.4,M,-1.2,M,,*64,1621578448987
$GPGSV,3,1,12,02,14,247,21,03,36,056,33,04,02,108,21,06,44,264,33,1*6F,1621578449972
$GPGSV,3,2,12,09,06,140,22,14,82,149,39,17,47,358,29,19,35,324,41,1*6B,1621578449972
$GPGSV,3,3,12,30,20,199,32,01,11,040,,07,00,000,,22,12,042,,1*61,1621578449972
$GPGSV,1,1,04,03,36,056,29,06,44,264,36,14,82,149,32,30,20,199,25,8*61,1621578449972
$GLGSV,3,1,10,78,45,196,28,66,26,115,23,82,21,288,28,79,53,289,34,1*7C,1621578449972
$GLGSV,3,2,10,81,37,344,35,67,07,163,24,77,00,000,,80,07,329,,1*73,1621578449972
$GLGSV,3,3,10,65,14,050,,88,16,039,,1*77,1621578449972
$GAGSV,2,1,08,01,42,313,39,13,35,028,23,21,73,206,37,26,54,307,39,7*77,1621578449972
$GAGSV,2,2,08,07,14,132,,08,09,082,,27,26,154,,33,19,258,,7*74,1621578449972
$GAGSV,1,1,04,01,42,313,35,13,35,028,24,21,73,206,22,26,54,307,36,1*7E,1621578449972
$GQGSV,1,1,03,-191,33,123,23,-190,48,158,26,-189,56,046,32,1*4F,1621578449972
$GQGSV,1,1,03,-191,33,123,29,-190,48,158,33,-189,56,046,34,8*4E,1621578449972
$GBGSV,4,1,16,25,45,257,32,24,29,184,33,23,18,307,31,13,60,253,21,1*7E,1621578449972
$GBGSV,4,2,16,12,35,037,26,11,43,327,34,10,74,327,23,08,73,310,24,1*79,1621578449972
$GBGSV,4,3,16,01,47,122,,02,46,234,,03,63,188,,04,33,108,,1*7A,1621578449972
$GBGSV,4,4,16,05,23,254,,06,04,172,,07,74,120,,09,04,198,,1*7A,1621578449972
$GNGSA,A,3,03,14,17,19,,,,,,,,,1.1,0.8,0.8,1*39,1621578449983
$GNGSA,A,3,66,67,79,81,82,,,,,,,,1.1,0.8,0.8,2*3E,1621578449983
$GNGSA,A,3,01,13,26,,,,,,,,,,1.1,0.8,0.8,3*34,1621578449983
$GNGSA,A,3,08,10,11,12,23,,,,,,,,1.1,0.8,0.8,4*3F,1621578449983
$GNGSA,A,3,01,02,03,,,,,,,,,,1.1,0.8,0.8,5*35,1621578449983
$GNVTG,335.6,T,335.6,M,12.1,N,22.3,K,A*3C,1621578449983
$GNDTM,P90,,0000.000018,S,00000.000001,W,0.993,W84*47,1621578449983
$GNRMC,062908.00,A,2218.125061,N,11411.402312,E,12.1,335.6,210521,2.2,W,A,V*78,1621578449983
$GNGNS,062908.00,2218.125061,N,11411.402312,E,AAAAAN,20,0.8,7.7,-1.2,,,V*36,1621578449983
$GNGGA,062908.00,2218.125061,N,11411.402312,E,1,12,0.8,7.7,M,-1.2,M,,*68,1621578449983
$GPGSV,3,1,12,02,14,247,20,03,36,056,22,04,02,108,22,06,44,264,32,1*6C,1621578450973
$GPGSV,3,2,12,09,06,140,25,14,82,149,40,17,47,358,26,19,35,324,41,1*6D,1621578450973
$GPGSV,3,3,12,30,20,199,34,01,11,040,,07,00,000,,22,12,042,,1*67,1621578450973
$GPGSV,1,1,04,03,36,056,29,06,44,264,36,14,82,149,31,30,20,199,28,8*6F,1621578450973
$GLGSV,3,1,10,78,45,196,29,66,26,115,26,82,21,288,26,79,53,289,33,1*71,1621578450973
$GLGSV,3,2,10,81,37,344,30,67,07,163,27,77,00,000,,80,07,329,,1*75,1621578450973
$GLGSV,3,3,10,65,14,050,,88,16,039,,1*77,1621578450973
$GAGSV,2,1,08,01,42,313,38,13,35,028,23,21,73,206,37,26,54,307,39,7*76,1621578450973
$GAGSV,2,2,08,07,14,132,,08,09,082,,27,26,154,,33,19,258,,7*74,1621578450973
$GAGSV,1,1,04,01,42,313,35,13,35,028,24,21,73,206,22,26,54,307,36,1*7E,1621578450973
$GQGSV,1,1,03,-191,33,123,26,-190,48,158,28,-189,56,046,32,1*44,1621578450973
$GQGSV,1,1,03,-191,33,123,30,-190,48,158,34,-189,56,046,33,8*46,1621578450973
$GBGSV,4,1,16,25,45,257,31,24,29,184,32,23,18,307,31,13,60,253,21,1*7C,1621578450973
$GBGSV,4,2,16,12,35,037,26,11,43,327,34,10,74,327,22,08,73,310,24,1*78,1621578450973
$GBGSV,4,3,16,01,47,122,,02,46,234,,03,63,188,,04,33,108,,1*7A,1621578450973
$GBGSV,4,4,16,05,23,254,,06,04,172,,07,74,120,,09,04,198,,1*7A,1621578450973
$GNGSA,A,3,03,06,14,17,19,30,,,,,,,0.9,0.6,0.7,1*34,1621578450983
$GNGSA,A,3,66,67,78,79,81,82,,,,,,,0.9,0.6,0.7,2*39,1621578450983
$GNGSA,A,3,01,13,21,26,,,,,,,,,0.9,0.6,0.7,3*3F,1621578450983
$GNGSA,A,3,08,10,11,12,23,24,25,,,,,,0.9,0.6,0.7,4*36,1621578450983
$GNGSA,A,3,01,02,03,,,,,,,,,,0.9,0.6,0.7,5*3D,1621578450983
$GNVTG,336.1,T,336.1,M,11.5,N,21.3,K,A*38,1621578450983
$GNDTM,P90,,0000.000018,S,00000.000001,W,0.993,W84*47,1621578450983
$GNRMC,062909.00,A,2218.128070,N,11411.400961,E,11.5,336.1,210521,2.2,W,A,V*7B,1621578450983
$GNGNS,062909.00,2218.128070,N,11411.400961,E,AAAAAN,26,0.6,7.4,-1.2,,,V*3D,1621578450983
$GNGGA,062909.00,2218.128070,N,11411.400961,E,1,12,0.6,7.4,M,-1.2,M,,*65,1621578450983
$GPGSV,3,1,12,02,14,247,20,03,36,056,22,04,02,108,23,06,44,264,29,1*67,1621578451977
$GPGSV,3,2,12,09,06,140,24,14,82,149,40,17,47,358,24,19,35,324,37,1*6F,1621578451977
$GPGSV,3,3,12,30,20,199,34,01,11,040,,07,00,000,,22,12,042,,1*67,1621578451977
$GPGSV,1,1,04,03,36,056,29,06,44,264,36,14,82,149,31,30,20,199,25,8*62,1621578451977
$GLGSV,3,1,10,78,45,196,29,66,26,115,23,82,21,288,25,79,53,289,34,1*70,1621578451977
$GLGSV,3,2,10,81,37,344,22,67,07,163,27,77,00,000,,80,07,329,,1*76,1621578451977
$GLGSV,3,3,10,65,14,050,,88,16,039,,1*77,1621578451977
$GAGSV,2,1,08,01,42,313,39,13,35,028,23,21,73,206,36,26,54,307,39,7*76,1621578451977
$GAGSV,2,2,08,07,14,132,,08,09,082,,27,26,154,,33,19,258,,7*74,1621578451977
$GAGSV,1,1,04,01,42,313,35,13,35,028,24,21,73,206,23,26,54,307,35,1*7C,1621578451977
$GQGSV,1,1,03,-191,33,123,28,-190,48,158,28,-189,56,046,31,1*49,1621578451977
$GQGSV,1,1,03,-191,33,123,29,-190,48,158,33,-189,56,046,33,8*49,1621578451977
$GBGSV,4,1,16,25,45,257,32,24,29,184,30,23,18,307,31,13,60,253,22,1*7E,1621578451977
$GBGSV,4,2,16,12,35,037,26,11,43,327,35,10,74,327,22,08,73,310,26,1*7B,1621578451977
$GBGSV,4,3,16,01,47,122,,02,46,234,,03,63,188,,04,33,108,,1*7A,1621578451977
$GBGSV,4,4,16,05,23,254,,06,04,172,,07,74,120,,09,04,198,,1*7A,1621578451977
$GNGSA,A,3,03,06,14,17,19,30,,,,,,,0.9,0.6,0.7,1*34,1621578451987
$GNGSA,A,3,66,67,78,79,81,82,,,,,,,0.9,0.6,0.7,2*39,1621578451987
$GNGSA,A,3,01,21,26,,,,,,,,,,0.9,0.6,0.7,3*3D,1621578451987
$GNGSA,A,3,08,10,11,12,23,24,25,,,,,,0.9,0.6,0.7,4*36,1621578451987
$GNGSA,A,3,01,02,03,,,,,,,,,,0.9,0.6,0.7,5*3D,1621578451987
$GNVTG,332.3,T,332.3,M,10.7,N,19.8,K,A*3B,1621578451987
$GNDTM,P90,,0000.000018,S,00000.000001,W,0.993,W84*47,1621578451987
$GNRMC,062910.00,A,2218.130738,N,11411.399506,E,10.7,332.3,210521,2.2,W,A,V*7E,1621578451987
$GNGNS,062910.00,2218.130738,N,11411.399506,E,AAAAAN,25,0.6,7.6,-1.2,,,V*3C,1621578451987
$GNGGA,062910.00,2218.130738,N,11411.399506,E,1,12,0.6,7.6,M,-1.2,M,,*67,1621578451987
$GPGSV,3,1,12,02,14,247,20,03,36,056,22,04,02,108,23,06,44,264,29,1*67,1621578452976
$GPGSV,3,2,12,09,06,140,24,14,82,149,39,17,47,358,25,19,35,324,34,1*63,1621578452976
$GPGSV,3,3,12,30,20,199,33,01,11,040,,07,00,000,,22,12,042,,1*60,1621578452976
$GPGSV,1,1,04,03,36,056,29,06,44,264,35,14,82,149,29,30,20,199,21,8*6C,1621578452976
$GLGSV,3,1,10,78,45,196,29,66,26,115,23,82,21,288,25,79,53,289,36,1*72,1621578452976
$GLGSV,3,2,10,81,37,344,21,67,07,163,29,77,00,000,,80,07,329,,1*7B,1621578452976
$GLGSV,3,3,10,65,14,050,,88,16,039,,1*77,1621578452976
$GAGSV,2,1,08,01,42,313,38,13,35,028,23,21,73,206,37,26,54,307,39,7*76,1621578452976
$GAGSV,2,2,08,07,14,132,,08,09,082,,27,26,154,,33,19,258,,7*74,1621578452976
$GAGSV,1,1,04,01,42,313,36,13,35,028,24,21,73,206,22,26,54,307,34,1*7F,1621578452976
$GQGSV,1,1,03,-191,33,123,25,-190,48,158,29,-189,56,046,31,1*45,1621578452976
$GQGSV,1,1,03,-191,33,123,26,-190,48,158,31,-189,56,046,33,8*44,1621578452976
$GBGSV,4,1,16,25,45,257,31,24,29,184,30,23,18,307,30,13,60,253,24,1*7A,1621578452976
$GBGSV,4,2,16,12,35,037,26,11,43,327,34,10,74,327,20,08,73,310,26,1*78,1621578452976
$GBGSV,4,3,16,01,47,122,,02,46,234,,03,63,188,,04,33,108,,1*7A,1621578452976
$GBGSV,4,4,16,05,23,254,,06,04,172,,07,74,120,,09,04,198,,1*7A,1621578452976
$GNGSA,A,3,03,06,14,17,19,30,,,,,,,1.0,0.6,0.7,1*3C,1621578452988
$GNGSA,A,3,66,67,78,79,81,82,,,,,,,1.0,0.6,0.7,2*31,1621578452988
$GNGSA,A,3,01,21,26,,,,,,,,,,1.0,0.6,0.7,3*35,1621578452988
$GNGSA,A,3,08,10,11,23,24,25,,,,,,,1.0,0.6,0.7,4*3D,1621578452988
$GNGSA,A,3,01,02,03,,,,,,,,,,1.0,0.6,0.7,5*35,1621578452988
$GNVTG,329.9,T,329.9,M,10.9,N,20.2,K,A*35,1621578452988
$GNDTM,P90,,0000.000018,S,00000.000001,W,0.993,W84*47,1621578452988
$GNRMC,062911.00,A,2218.133346,N,11411.397839,E,10.9,329.9,210521,2.2,W,A,V*70,1621578452988
$GNGNS,062911.00,2218.133346,N,11411.397839,E,AAAAAN,24,0.6,7.1,-1.2,,,V*3A,1621578452988
$GNGGA,062911.00,2218.133346,N,11411.397839,E,1,12,0.6,7.1,M,-1.2,M,,*60,1621578452988
$GPGSV,3,1,12,02,14,247,20,03,36,056,22,04,02,108,23,06,44,264,36,1*69,1621578453971
$GPGSV,3,2,12,09,06,140,22,14,82,149,39,17,47,358,26,19,35,324,30,1*62,1621578453971
$GPGSV,3,3,12,30,20,199,35,01,11,040,,07,00,000,,22,12,042,,1*66,1621578453971
$GPGSV,1,1,04,03,36,056,29,06,44,264,33,14,82,149,31,30,20,199,23,8*61,1621578453971
$GLGSV,3,1,10,78,45,196,31,66,26,115,20,82,21,288,24,79,53,289,34,1*7B,1621578453971
$GLGSV,3,2,10,81,37,344,21,67,07,163,26,77,00,000,,80,07,329,,1*74,1621578453971
$GLGSV,3,3,10,65,14,050,,88,16,039,,1*77,1621578453971
$GAGSV,2,1,08,01,42,313,37,13,35,028,23,21,73,206,35,26,54,307,35,7*77,1621578453971
$GAGSV,2,2,08,07,14,132,,08,09,082,,27,26,154,,33,19,258,,7*74,1621578453971
$GAGSV,1,1,04,01,42,313,37,13,35,028,24,21,73,206,22,26,54,307,33,1*79,1621578453971
$GQGSV,1,1,03,-191,33,123,23,-190,48,158,29,-189,56,046,31,1*43,1621578453971
$GQGSV,1,1,03,-191,33,123,27,-190,48,158,30,-189,56,046,35,8*42,1621578453971
$GBGSV,4,1,16,25,45,257,28,24,29,184,32,23,18,307,29,13,60,253,26,1*7A,1621578453971
$GBGSV,4,2,16,12,35,037,26,11,43,327,23,10,74,327,23,08,73,310,25,1*7E,1621578453971
$GBGSV,4,3,16,01,47,122,,02,46,234,,03,63,188,,04,33,108,,1*7A,1621578453971
$GBGSV,4,4,16,05,23,254,,06,04,172,,07,74,120,,09,04,198,,1*7A,1621578453971
$GNGSA,A,3,03,06,14,17,19,30,,,,,,,1.0,0.6,0.7,1*3C,1621578453983
$GNGSA,A,3,66,67,78,79,81,82,,,,,,,1.0,0.6,0.7,2*31,1621578453983
$GNGSA,A,3,01,21,26,,,,,,,,,,1.0,0.6,0.7,3*35,1621578453983
$GNGSA,A,3,08,10,11,13,23,24,25,,,,,,1.0,0.6,0.7,4*3F,1621578453983
$GNGSA,A,3,01,02,03,,,,,,,,,,1.0,0.6,0.7,5*35,1621578453983
$GNVTG,315.2,T,315.2,M,11.1,N,20.6,K,A*38,1621578453983
$GNDTM,P90,,0000.000018,S,00000.000001,W,0.993,W84*47,1621578453983
$GNRMC,062912.00,A,2218.135908,N,11411.395664,E,11.1,315.2,210521,2.2,W,A,V*7C,1621578453983
$GNGNS,062912.00,2218.135908,N,11411.395664,E,AAAAAN,25,0.6,7.6,-1.2,,,V*3D,1621578453983
$GNGGA,062912.00,2218.135908,N,11411.395664,E,1,12,0.6,7.6,M,-1.2,M,,*66,1621578453983
$GPGSV,3,1,12,02,14,247,20,03,36,056,22,04,02,108,23,06,44,264,35,1*6A,1621578454972
$GPGSV,3,2,12,09,06,140,23,14,82,149,39,17,47,358,23,19,35,324,33,1*65,1621578454972
$GPGSV,3,3,12,30,20,199,33,01,11,040,,07,00,000,,22,12,042,,1*60,1621578454972
$GPGSV,1,1,04,03,36,056,29,06,44,264,35,14,82,149,30,30,20,199,23,8*66,1621578454972
$GLGSV,3,1,10,78,45,196,28,66,26,115,20,82,21,288,21,79,53,289,35,1*77,1621578454972
$GLGSV,3,2,10,81,37,344,21,67,07,163,26,77,00,000,,80,07,329,,1*74,1621578454972
$GLGSV,3,3,10,65,14,050,,88,16,039,,1*77,1621578454972
$GAGSV,2,1,08,01,42,313,35,13,35,028,23,21,73,206,34,26,54,307,26,7*76,1621578454972
$GAGSV,2,2,08,07,14,132,,08,09,082,,27,26,154,,33,19,258,,7*74,1621578454972
$GAGSV,1,1,04,01,42,313,37,13,35,028,24,21,73,206,24,26,54,307,33,1*7F,1621578454972
$GQGSV,1,1,03,-191,33,123,21,-190,48,158,27,-189,56,046,28,1*47,1621578454972
$GQGSV,1,1,03,-191,33,123,24,-190,48,158,29,-189,56,046,30,8*4C,1621578454972
$GBGSV,4,1,16,25,45,257,34,24,29,184,32,23,18,307,32,13,60,253,28,1*73,1621578454972
$GBGSV,4,2,16,12,35,037,26,11,43,327,23,10,74,327,26,08,73,310,22,1*7C,1621578454972
$GBGSV,4,3,16,01,47,122,,02,46,234,,03,63,188,,04,33,108,,1*7A,1621578454972
$GBGSV,4,4,16,05,23,254,,06,04,172,,07,74,120,,09,04,198,,1*7A,1621578454972
$GNGSA,A,3,03,06,14,17,19,30,,,,,,,1.0,0.6,0.7,1*3C,1621578454982
$GNGSA,A,3,66,67,78,79,81,82,,,,,,,1.0,0.6,0.7,2*31,1621578454982
$GNGSA,A,3,01,21,26,,,,,,,,,,1.0,0.6,0.7,3*35,1621578454982
$GNGSA,A,3,08,10,11,13,23,24,25,,,,,,1.0,0.6,0.7,4*3F,1621578454982
$GNGSA,A,3,01,02,03,,,,,,,,,,1.0,0.6,0.7,5*35,1621578454982
$GNVTG,316.7,T,316.7,M,10.9,N,20.3,K,A*34,1621578454982
$GNDTM,P90,,0000.000018,S,00000.000001,W,0.993,W84*47,1621578454982
$GNRMC,062913.00,A,2218.138239,N,11411.393495,E,10.9,316.7,210521,2.2,W,A,V*7C,1621578454982
$GNGNS,062913.00,2218.138239,N,11411.393495,E,AAAAAN,25,0.6,7.8,-1.2,,,V*3C,1621578454982
$GNGGA,062913.00,2218.138239,N,11411.393495,E,1,12,0.6,7.8,M,-1.2,M,,*67,1621578454982
$GPGSV,3,1,12,02,14,247,20,03,36,056,22,04,02,108,23,06,44,264,34,1*6B,1621578455971
$GPGSV,3,2,12,09,06,140,30,14,82,149,37,17,47,358,23,19,35,324,40,1*6D,1621578455971
