     3.03           OBSERVATION DATA    M: Mixed            RINEX VERSION / TYPE
RTKCONV demo5 b33c                      20210524 111811 UTC PGM / RUN BY / DATE 
log: C:\Users\Ivan_PolyU_Dktp\Dropbox\HUAWEI Exp\20210521_  COMMENT             
format: RINEX                                               COMMENT             
Geo++                                                       MARKER NAME         
                                                            MARKER NUMBER       
                                                            MARKER TYPE         
                                                            OBSERVER / AGENCY   
unknown             HUAWEI              ELS-AN00            REC # / TYPE / VERS 
unknown             ELS-AN00                                ANT # / TYPE        
 -2419233.5482  5385469.3948  2405343.5459                  APPROX POSITION XYZ 
        0.0000        0.0000        0.0000                  ANTENNA: DELTA H/E/N
G    8 C1C L1C D1C S1C C5Q L5Q D5Q S5Q                      SYS / # / OBS TYPES 
R    4 C1C L1C D1C S1C                                      SYS / # / OBS TYPES 
E    4 C5Q L5Q D5Q S5Q                                      SYS / # / OBS TYPES 
J    8 C1C L1C D1C S1C C5Q L5Q D5Q S5Q                      SYS / # / OBS TYPES 
C    4 C2I L2I D2I S2I                                      SYS / # / OBS TYPES 
  2021     5    21     6    29    5.9987950     GPS         TIME OF FIRST OBS   
  2021     5    21     6    54   39.9978363     GPS         TIME OF LAST OBS    
G                                                           SYS / PHASE SHIFT   
R                                                           SYS / PHASE SHIFT   
E                                                           SYS / PHASE SHIFT   
J                                                           SYS / PHASE SHIFT   
C                                                           SYS / PHASE SHIFT   
  3 R01  1 R09 -2 R17  4                                    GLONASS SLOT / FRQ #
 C1C    0.000 C1P    0.000 C2C    0.000 C2P    0.000        GLONASS COD/PHS/BIS 
                                                            END OF HEADER       
> 2021  5 21  6 29  5.9987950  0 26                     
C 7  35717103.164 1 185988330.131 1     -1027.006          30.000  
C 8  36488049.449 1 190002833.445 1     -1469.976          27.000  
C10  35921179.685 1 187051002.013 1      -599.314          29.000  
C11  23069581.861 1 120129376.075 1      -725.656          27.000  
C12  23472248.401 1 122226139.412 1     -1973.512          28.000  
C13  36543421.716 1 190291084.347 1     -1105.114          26.000  
C21  23894891.611 1 124427009.348 1      -345.889          26.000  
C23  25483255.909 1 132697998.263 1       633.557          25.000  
C24  24493661.091 1 127544878.169 1     -3918.956          35.000  
C25  23237556.474 1 121004067.585 1     -1834.734          20.000  
C34  23031365.817 1 119930353.68411     -1267.749          20.000  
E 1  25234269.878 1  99024684.727 1       516.394          27.000  
E13  25336136.058 1  99424458.037 1     -2014.189          24.000  
E27  26217466.825 1 102882964.655 1     -2842.922          31.000  
G 3  22220324.689 1 116768585.357 1     -2750.792          34.000    22220327.987 1  87197334.785 1     -2053.565          31.000  
G 6  21635262.020 1 113694026.673 1        55.482          23.000    21635269.215 1  84901448.202 1        43.644          30.000  
G14  20180340.441 1 106048392.621 1     -1492.242          40.000                                                                  
G17  21736133.188 1 114224153.949 1      -354.584          30.000                                                                  
G19  22057758.931 1 115914285.134 1       411.056          38.000                                                                  
G28  20534937.658 1 107911814.703 1        86.522          35.000                                                                  
J 1  37415359.386 1 196619094.60211     -1001.211          26.000                                                                  
J 2                                                                  35953242.788 1 141088242.259 1      -610.038          35.000  
J 3  39704302.683 1 208647532.650 1      -673.563          35.000                                                                  
R14  20538883.227 1 109483804.569 1     -4235.590          39.000  
R15  20080951.746 1 107306516.996 1      -452.860          34.000  
R17  21006611.925 1 112410622.913 1     -1725.662          29.000  
> 2021  5 21  6 29  6.9987942  0 26                     
C 7  35717057.895 1 185988109.341 1     -1028.875          29.000  
C 8  36488092.619 1 190003054.167 1     -1469.964          27.000  
C10  35921054.671 1 187050351.836 1      -599.439          29.000  
C11  23069482.630 1 120128852.017 1      -724.609          27.000  
C12  23472388.404 1 122226863.905 1     -1973.244          29.000  
C13  36543393.835 1 190290941.049 1     -1105.816          26.000  
C21  23894719.530 1 124426106.543 1      -347.210          24.000  
C23  25482895.858 1 132696116.296 1       632.557          26.000  
C24  24494174.336 1 127547548.063 1     -3918.605          35.000  
C25  23237667.398 1 121004653.884 1     -1836.595          20.000  
C34  23031368.815 1 119930371.084 1     -1264.571          21.000  
E 1  25233898.436 1  99023226.498 1       517.004          28.000  
E13  25336409.769 1  99425530.572 1     -2014.521          23.000  
E27  26217951.890 1 102884866.518 1     -2844.922          31.000  
G 3  22220612.490 1 116770075.825 1     -2750.231          32.000    22220610.392 1  87198447.779 1     -2056.374          33.000  
G 6  21635008.995 1 113692710.726 1        55.812          21.000    21635017.689 1  84900465.283 1        42.873          31.000  
G14  20180385.710 1 106048624.613 1     -1493.432          40.000                                                                  
G17  21735960.508 1 114223247.541 1      -353.942          31.000                                                                  
G19  22057439.952 1 115912613.268 1       411.677          38.000                                                                  
G28  20534682.535 1 107910467.912 1        85.207          35.000                                                                  
J 1  37415308.421 1 196618836.322 1     -1003.252          26.000                                                                  
J 2                                                                  35953158.546 1 141087911.599 1      -609.756          35.000  
J 3  39704195.657 1 208646945.621 1      -674.750          36.000                                                                  
R14  20539438.443 1 109486764.302 1     -4236.124          39.000  
R15  20080796.154 1 107305685.888 1      -453.924          34.000  
R17  21006691.370 1 112411048.685 1     -1726.088          28.000  
> 2021  5 21  6 29  7.9987937  0 25                     
C 7  35717101.365 1 185988357.492 1     -1030.402          30.000  
C 8  36488223.628 1 190003742.799 1     -1469.210          27.000  
C10  35921019.596 1 187050169.923 1      -598.634          30.000  
C11  23069474.535 1 120128797.249 1      -726.766          25.000  
C12  23472614.747 1 122228055.102 1     -1971.001          28.000  
C13  36543456.491 1 190291265.368 1     -1104.989          27.000  
C21  23894637.986 1 124425672.944 1      -348.131          22.000  
C23  25482624.846 1 132694702.584 1       633.841          27.000  
C24  24494773.921 1 127550686.392 1     -3919.477          34.000  
C34  23031459.952 1 119930855.160 1     -1264.910          24.000  
E 1  25233617.230 1  99022122.844 1       514.330          28.000  
E13  25336774.316 1  99426956.603 1     -2014.044          25.000  
E27  26218526.292 1 102887121.915 1     -2841.879          31.000  
G 2  24252812.327 1 127449430.03211       837.781          27.000                                                                  
G 3  22220986.931 1 116772041.539 1     -2753.492          25.000    22220985.432 1  87199914.900 1     -2056.017          32.000  
G 6  21634847.107 1 113691867.427 1        55.901          25.000    21634856.401 1  84899834.732 1        43.091          31.000  
G14  20180518.218 1 106049329.989 1     -1492.939          41.000                                                                  
G17  21735879.264 1 114222814.202 1      -354.536          32.000                                                                  
G19  22057212.709 1 115911413.359 1       412.300          38.000                                                                  
G28  20534511.354 1 107909594.172 1        84.667          34.000                                                                  
J 2  35953159.146 1 188935134.02111      -819.618          25.000    35953163.943 1 141087934.241 1      -610.349          34.000  
J 3  39704173.473 1 208646831.794 1      -674.228          36.000                                                                  
R14  20540084.795 1 109490209.787 1     -4236.282          40.000  
R15  20080728.701 1 107305325.114 1      -454.290          34.000  
R17  21006861.952 1 112411961.045 1     -1727.822          28.000  
> 2021  5 21  6 29  8.9987932  0 27                     
C 7  35717152.330 1 185988606.064 1     -1028.648          30.000  
C 8  36488355.837 1 190004432.105 1     -1470.261          25.000  
C10  35920987.818 1 187049988.007 1      -597.748          29.000  
C11  23069461.944 1 120128742.917 1      -725.814          22.000  
C12  23472841.390 1 122229245.974 1     -1972.300          23.000  
C13  36543520.048 1 190291589.013 1     -1103.480          28.000  
C21  23894556.443 1 124425242.544 1      -352.744          20.000  
C23  25482353.534 1 132693287.460 1       635.148          26.000  
C24  24495373.206 1 127553824.204 1     -3916.265          33.000  
C25  23238079.013 1 121006766.46311     -1835.272          21.000  
E 1  25233336.025 1  99021018.898 1       515.767          29.000  
E13  25337139.763 1  99428382.850 1     -2018.530          24.000  
E27  26219100.095 1 102889377.672 1     -2846.230          30.000  
G 2  24252505.940 1 127447803.629 1       840.298          28.000                                                                  
G 3  22221358.674 1 116774007.611 1     -2754.547          29.000    22221360.472 1  87201383.571 1     -2058.961          33.000  
G 6  21634686.418 1 113691023.073 1        56.936          27.000    21634696.911 1  84899203.482 1        43.530          33.000  
G14  20180653.724 1 106050036.112 1     -1494.236          40.000                                                                  
G17  21735795.322 1 114222380.356 1      -355.150          30.000                                                                  
G19  22056984.867 1 115910213.006 1       413.964          38.000                                                                  
G28  20534344.369 1 107908720.804 1        85.223          35.000                                                                  
G30  23633512.760 1 124194977.77111     -3705.425          33.000                                                                  
J 1  37415391.463 1 196619266.35411     -1003.983          24.000                                                                  
J 2  35953164.542 1 188935165.083 1      -818.732          33.000    35953169.339 1 141087957.047 1      -612.022          33.000  
J 3  39704145.592 1 208646718.878 1      -672.950          35.000                                                                  
R14  20540733.846 1 109493669.901 1     -4236.625          38.000  
R15  20080661.247 1 107304965.329 1      -454.201          32.000  
R17  21007032.234 1 112412872.429 1     -1727.696          26.000  
> 2021  5 21  6 29  9.9987924  0 25                     
C 7  35717110.959 1 185988386.713 1     -1027.749          27.000  
C 8  36488398.407 1 190004653.154 1     -1469.200          27.000  
C10  35920857.108 1 187049337.677 1      -601.196          31.000  
C11  23069361.513 1 120128220.966 1      -727.429          22.000  
C12  23472978.995 1 122229969.663 1     -1974.181          22.000  
C13  36543491.267 1 190291443.805 1     -1104.774          27.000  
C24  24495887.350 1 127556494.077 1     -3920.205          30.000  
C25  23238192.934 1 121007353.425 1     -1837.051          25.000  
C34  23031557.385 1 119931354.57411     -1265.179          23.000  
E 1  25232964.882 1  99019562.612 1       515.362          31.000  
E13  25337415.272 1  99429459.338 1     -2017.936          27.000  
E27  26219584.859 1 102891281.153 1     -2845.183          27.000  
G 2  24252108.115 1 127445702.227 1       841.650          29.000                                                                  
G 3  22221641.078 1 116775502.671 1     -2756.381          29.000    22221644.676 1  87202500.603 1     -2058.440          32.000  
G 6  21634437.291 1 113689705.157 1        57.755          25.000    21634446.884 1  84898218.757 1        43.821          34.000  
G14  20180694.796 1 106050270.391 1     -1495.001          40.000                                                                  
G17  21735622.342 1 114221478.013 1      -357.968          22.000                                                                  
G19  22056669.485 1 115908539.117 1       413.296          33.000                                                                  
G28  20534091.944 1 107907375.072 1        85.288          36.000                                                                  
J 1  37415344.996 1 196619010.450 1     -1006.418          24.000                                                                  
J 2  35953078.202 1 188934723.462 1      -818.742          38.000    35953085.397 1 141087627.531 1      -613.924          31.000  
J 3  39704039.765 1 208646133.481 1      -674.157          31.000                                                                  
R14  20541285.764 1 109496611.920 1     -4236.799          38.000  
R15  20080505.056 1 107304129.789 1      -453.829          26.000  
R17  21007113.178 1 112413305.240 1     -1724.921          24.000  
> 2021  5 21  6 29 10.9987917  0 24                     
C 7  35717099.267 1 185988321.980 1     -1029.167          26.000  
C 8  36488469.758 1 190005029.261 1     -1468.786          29.000  
C10  35920766.571 1 187048842.901 1      -597.156          31.000  
C11  23069290.463 1 120127853.797 1      -724.561          21.000  
C12  23473147.778 1 122230851.041 1     -1974.180          21.000  
C13  36543492.467 1 190291455.664 1     -1104.191          26.000  
C21  23894245.858 1 124423609.05011      -354.949          21.000  
C24  24496432.673 1 127559322.221 1     -3922.188          32.000  
C34  23031590.662 1 119931527.190 1     -1265.904          26.000  
E 1  25232623.418 1  99018222.872 1       517.854          33.000  
E27  26220101.102 1 102893304.320 1     -2847.492          25.000  
G 2  24251738.471 1 127443756.933 1       843.160          26.000                                                                  
G 3  22221954.961 1 116777157.075 1     -2757.708          30.000    22221960.057 1  87203735.846 1     -2061.624          31.000  
G 6  21634220.841 1 113688543.838 1        58.236          22.000    21634225.937 1  84897351.337 1        42.964          33.000  
G14  20180771.243 1 106050663.350 1     -1496.099          39.000                                                                  
G17  21735479.341 1 114220731.534 1      -355.256          28.000                                                                  
G19  22056378.087 1 115907020.582 1       419.699          34.000                                                                  
G28  20533864.401 1 107906186.789 1        85.429          35.000                                                                  
J 1  37415324.910 1 196618913.802 1     -1006.741          20.000                                                                  
J 2  35953025.738 1 188934441.988 1      -822.697          36.000    35953031.434 1 141087417.380 1      -613.196          31.000  
J 3  39703955.823 1 208645706.204 1      -676.249          25.000                                                                  
R14  20541864.363 1 109499695.584 1     -4240.289          37.000  
R15  20080382.141 1 107303473.047 1      -453.250          27.000  
R17  21007222.902 1 112413892.911 1     -1723.716          25.000  
> 2021  5 21  6 29 11.9987909  0 27                     
C 7  35717055.797 1 185988102.037 1     -1029.400          28.000  
C 8  36488511.429 1 190005249.672 1     -1468.733          26.000  
C10  35920639.759 1 187048191.573 1      -598.149          30.000  
C11  23069191.531 1 120127327.122 1      -721.014          23.000  
C12  23473284.483 1 122231575.763 1     -1973.179          21.000  
C13  36543463.387 1 190291310.394 1     -1104.191          25.000  
C21  23894077.075 1 124422714.437 1      -354.413          20.000  
C23  25481294.067 1 132687788.22411       637.532          26.000  
C24  24496948.915 1 127561997.934 1     -3925.966          31.000  
C25  23238448.657 1 121008676.77511     -1830.762          18.000  
C34  23031596.058 1 119931543.756 1     -1265.148          25.000  
E 1  25232250.177 1  99016763.348 1       519.229          30.000  
E27  26220587.365 1 102895211.843 1     -2849.965          25.000  
G 2  24251340.047 1 127441654.629 1       840.372          28.000                                                                  
G 3  22222238.564 1 116778653.721 1     -2756.666          28.000    22222244.260 1  87204852.530 1     -2055.915          31.000  
G 6  21633972.013 1 113687225.310 1        56.824          22.000    21633974.111 1  84896367.412 1        42.202          32.000  
G14  20180815.312 1 106050899.882 1     -1496.735          40.000                                                                  
G17  21735306.361 1 114219824.836 1      -351.942          25.000                                                                  
G19  22056060.007 1 115905342.152 1       417.847          35.000                                                                  
G28  20533606.880 1 107904840.761 1        85.228          35.000                                                                  
G30  23634937.673 1 124202475.33011     -3714.832          35.000                                                                  
J 1  37415277.243 1 196618661.697 1     -1009.991          22.000                                                                  
J 2  35952942.995 1                      -827.454          36.000    35952948.392 1 141087091.320 1      -613.578          30.000  
J 3  39703842.502 1 208645120.977 1      -674.505          31.000                                                                  
R14  20542420.778 1 109502662.104 1     -4243.533          40.000  
R15  20080227.448 1 107302646.714 1      -453.297          31.000  
R17  21007303.846 1 112414325.935 1     -1722.311          23.000  
> 2021  5 21  6 29 12.9987904  0 27                     
C 7  35717102.864 1 185988351.497 1     -1030.380          29.000  
C 8  36488643.338 1 190005937.346 1     -1468.398          28.000  
C10  35920602.584 1 187048008.228 1      -598.869          29.000  
C11  23069178.940 1 120127266.649 1      -719.184          29.000  
C12  23473512.925 1 122232767.237 1     -1970.866          27.000  
C13  36543526.643 1 190291634.439 1     -1105.217          25.000  
C21  23893996.131 1 124422288.548 1      -355.328          23.000  
C23  25481022.755 1 132686369.521 1       638.068          24.000  
C24  24497550.299 1 127565143.394 1     -3926.346          30.000  
C25  23238651.916 1 121009729.065 1     -1835.140          19.000  
C34  23031688.094 1 119932026.218 1     -1262.008          23.000  
E 1  25231967.772 1  99015655.460 1       520.050          26.000  
E27  26221164.466 1 102897473.983 1     -2849.958          29.000  
G 2  24251034.558 1 127440026.912 1       838.371          27.000                                                                  
G 3  22222610.607 1 116780621.540 1     -2754.690          30.000    22222617.502 1  87206320.576 1     -2056.028          27.000  
G 6  21633813.123 1 113686381.511 1        55.444          30.000    21633812.523 1  84895736.875 1        43.989          28.000  
G14  20180950.519 1 106051609.633 1     -1497.001          40.000                                                                  
G17  21735222.718 1 114219388.142 1      -350.207          31.000                                                                  
G19  22055825.869 1 115904136.187 1       418.553          36.000                                                                  
G28  20533441.994 1 107903967.485 1        86.695          34.000                                                                  
G30  23635493.189 1 124205398.823 1     -3711.243          31.000                                                                  
J 1  37415318.014 1 196618883.361 1     -1010.257          25.000                                                                  
J 2  35952948.092 1 188934024.45511      -821.607          27.000    35952956.786 1 141087118.553 1      -617.723          33.000  
J 3  39703818.219 1 208645006.252 1      -671.887          36.000                                                                  
R14  20543068.630 1 109506115.225 1     -4245.879          40.000  
R15  20080159.995 1 107302286.506 1      -454.339          33.000  
R17  21007474.428 1 112415238.405 1     -1720.348          28.000  
> 2021  5 21  6 29 13.9987899  0 26                     
C 7  35717150.531 1 185988602.281 1     -1032.303          26.000  
C 8  36488774.647 1 190006625.321 1     -1468.559          30.000  
C10  35920570.506 1 187047825.017 1      -598.727          29.000  
C11  23069166.948 1 120127203.457 1      -717.122          23.000  
C12  23473741.967 1 122233956.541 1     -1968.708          28.000  
C13  36543589.899 1 190291959.033 1     -1105.502          25.000  
C21  23893918.185 1 124421863.757 1      -356.126          23.000  
C24  24498149.284 1 127568289.675 1     -3925.847          26.000  
C25  23238854.576 1 121010784.039 1     -1836.841          20.000  
C34  23031781.030 1 119932506.696 1     -1259.766          27.000  
E 1  25231685.667 1  99014548.222 1       517.529          27.000  
E27  26221741.266 1 102899736.592 1     -2851.543          28.000  
G 2  24250726.371 1 127438401.790 1       836.069          29.000                                                                  
G 3  22222982.349 1 116782588.013 1     -2753.953          27.000    22222991.343 1  87207788.266 1     -2056.742          26.000  
G 6  21633652.134 1 113685541.233 1        51.263          22.000    21633653.333 1  84895106.053 1        41.789          24.000  
G14  20181086.924 1 106052319.817 1     -1498.262          40.000                                                                  
G17  21735137.278 1 114218949.847 1      -349.128          32.000                                                                  
G19  22055598.627 1 115902930.567 1       418.060          33.000                                                                  
G28  20533275.010 1 107903094.799 1        83.893          35.000                                                                  
G30  23636048.704 1 124208322.683 1     -3712.235          32.000                                                                  
J 1  37415362.983 1 196619104.749 1     -1008.610          21.000                                                                  
J 2  35952953.788 1 188934059.633 1      -823.799          26.000    35952963.381 1 141087146.049 1      -615.787          29.000  
J 3  39703794.835 1 208644889.615 1      -670.382          31.000                                                                  
R14  20543717.081 1 109509571.403 1     -4245.100          37.000  
R15  20080096.738 1 107301948.721 1      -455.991          28.000  
R17  21007645.310 1 112416153.060 1     -1719.840          35.000  
> 2021  5 21  6 29 14.9987891  0 23                     
C 7  35717109.460 1 185988386.851 1     -1033.713          22.000  
C 8  36488815.419 1 190006844.625 1     -1468.654          28.000  
C10  35920449.091 1 187047173.474 1      -597.009          28.000  
C11  23069063.520 1 120126671.820 1      -716.906          27.000  
C12  23473879.571 1 122234676.421 1     -1969.223          28.000  
C13  36543564.717 1 190291815.662 1     -1107.597          22.000  
C21  23893747.303 1 124420971.353 1      -355.769          24.000  
C24  24498659.831 1 127570966.315 1     -3926.065          18.000  
C25  23238968.797 1 121011372.216 1     -1837.113          29.000  
C34  23031780.730 1 119932517.282 1     -1259.464          27.000  
E 1  25231313.625 1  99013089.539 1       517.849          29.000  
E27  26222227.530 1 102901646.094 1     -2850.395          25.000  
G 3  22223265.054 1 116784081.683 1     -2754.259          31.000    22223274.647 1  87208903.826 1     -2058.437          25.000  
G 6  21633400.309 1 113684228.666 1        53.059          25.000    21633403.007 1  84894123.965 1        39.611          28.000  
G14  20181131.294 1 106052558.181 1     -1498.874          41.000                                                                  
G17  21734962.798 1 114218038.305 1      -348.421          31.000                                                                  
G19  22055282.945 1 115901253.009 1       417.567          27.000                                                                  
G28  20533018.987 1 107901749.934 1        84.429          36.000                                                                  
J 2  35952869.546 1 188933624.073 1      -825.192          27.000    35952880.339 1 141086820.840 1      -618.320          31.000  
J 3  39703681.513 1 208644299.500 1      -669.780          28.000                                                                  
R14  20544271.397 1 109512527.081 1     -4245.181          34.000  
R15  20079938.448 1 107301102.583 1      -456.937          24.000  
R17  21007726.254 1 112416585.812 1     -1720.286          31.000  
> 2021  5 21  6 29 15.9987886  0 22                     
C 7  35717158.925 1 185988639.382 1     -1032.005          25.000  
C 8  36488947.327 1 190007532.955 1     -1469.136          29.000  
C10  35920411.616 1 187046990.495 1      -597.187          28.000  
C11  23069051.528 1 120126607.868 1      -716.247          29.000  
C12  23474108.313 1 122235865.100 1     -1968.729          28.000  
C25  23239172.056 1 121012429.141 1     -1837.697          32.000  
C34  23031872.466 1 119932995.799 1     -1259.003          26.000  
E 1  25231031.221 1  99011983.637 1       517.819          29.000  
E27  26222802.532 1 102903910.256 1     -2851.870          22.000  
G 2  24250018.262 1 127434684.96011       833.513          30.000                                                                  
G 3  22223637.096 1 116786048.414 1     -2754.983          30.000    22223650.587 1  87210372.893 1     -2056.579          21.000  
G 6  21633240.819 1 113683386.685 1        53.948          20.000    21633242.318 1  84893496.325 1        39.608          27.000  
G14  20181264.701 1 106053269.744 1     -1500.561          40.000                                                                  
G17  21734883.054 1                      -347.082          33.000                                                                  
G19  22055051.805 1 115900047.474 1       417.075          22.000                                                                  
G28  20532852.002 1 107900877.743 1        85.224          37.000                                                                  
G30  23637079.990 1 124213699.54111     -3713.262          33.000                                                                  
J 2  35952874.343 1 188933662.249 1      -826.162          26.000    35952887.534 1 141086849.098 1      -616.012          28.000  
J 3  39703658.429 1 208644182.631 1      -672.097          25.000                                                                  
R14  20544915.951 1 109515962.617 1     -4245.851          37.000  
R15  20079866.797 1 107300719.440 1      -458.373          22.000  
R17  21007899.834 1 112417514.695 1     -1719.982          30.000  
> 2021  5 21  6 29 16.9987878  0 21                     
C 7  35717115.455 1 185988423.301 1     -1033.017          23.000  
C 8  36488989.598 1 190007752.313 1     -1467.297          29.000  
C10  35920285.404 1 187046339.073 1      -597.437          31.000  
C11  23068948.699 1 120126074.713 1      -714.823          28.000  
C12  23474246.817 1 122236583.763 1     -1965.694          28.000  
C13  36543600.692 1 190292001.79311     -1107.975          20.000  
C24  24499777.457 1 127576792.15911     -3929.360          24.000  
C25  23239285.378 1 121013017.571 1     -1835.740          35.000  
C34  23031874.865 1 119933005.384 1     -1258.291          28.000  
E 1  25230658.878 1  99010522.392 1       520.650          30.000  
G 2  24249620.137 1 127432590.620 1       833.867          31.000                                                                  
G 3  22223920.400 1 116787543.083 1     -2755.361          25.000    22223934.191 1  87211486.386 1     -2056.079          17.000  
G 6  21632984.796 1 113682072.441 1        54.115          24.000    21632991.691 1  84892514.044 1        42.775          29.000  
G14  20181311.769 1 106053509.829 1     -1500.959          40.000                                                                  
G17  21734711.872 1 114216665.94711      -344.829          35.000                                                                  
G19  22054731.327 1 115898371.832 1       417.214          17.000                                                                  
G28  20532598.078 1 107899532.570 1        84.947          37.000                                                                  
J 2  35952792.200 1 188933228.526 1      -827.115          28.000    35952805.391 1 141086526.376 1      -621.865          30.000  
J 3  39703546.307 1 208643594.822 1      -672.001          24.000                                                                  
R14  20545469.368 1 109518912.504 1     -4249.142          34.000  
R17  21007978.379 1 112417935.068 1     -1715.907          29.000  
> 2021  5 21  6 29 17.9987871  0 22                     
C 7  35717104.363 1 185988364.345 1     -1033.992          24.000  
C 8  36489060.649 1 190008126.691 1     -1467.079          30.000  
C10  35920188.271 1 187045842.880 1      -595.876          30.000  
C11  23068874.351 1 120125695.671 1      -712.692          28.000  
C12  23474414.401 1 122237456.086 1     -1964.155          26.000  
C13  36543603.390 1 190292016.119 1     -1104.446          20.000  
C21  23893368.065 1 124418915.37411      -356.759          19.000  
C25  23239428.379 1 121013762.242 1     -1838.332          34.000  
C34  23031906.343 1 119933169.942 1     -1256.979          26.000  
E 1  25230316.216 1  99009178.063 1       522.084          30.000  
G 2  24249251.992 1 127430653.546 1       834.234          31.000                                                                  
G 3  22224233.383 1 116789195.543 1     -2756.078          21.000    22224248.973 1  87212720.916 1     -2059.366          16.000  
G 6                                                                  21632770.744 1  84891647.723 1        43.786          29.000  
G14  20181388.216 1 106053908.661 1     -1502.744          39.000                                                                  
G17  21734569.471 1 114215906.505 1      -342.397          35.000                                                                  
G28  20532370.236 1 107898344.439 1        86.344          37.000                                                                  
G30  23638043.223 1 124218754.64711     -3717.598          27.000                                                                  
J 2                                                                  35952752.927 1 141086322.380 1      -619.932          27.000  
J 3  39703462.665 1 208643162.158 1      -668.589          26.000                                                                  
R14  20546058.160 1 109522051.160 1     -4252.029          33.000  
R15  20079563.408 1 107299097.87311      -456.392          18.000  
R17  21008086.904 1 112418515.998 1     -1711.815          29.000  
> 2021  5 21  6 29 18.9987866  0 23                     
C 7  35717151.131 1 185988617.929 1     -1035.340          23.000  
C 8  36489191.958 1 190008813.207 1     -1466.771          31.000  
C10  35920151.696 1 187045656.956 1      -593.626          31.000  
C11  23068862.359 1 120125626.679 1      -709.036          23.000  
C12  23474643.143 1 122238638.813 1     -1961.673          27.000  
C13  36543665.147 1 190292340.717 1     -1104.830          21.000  
C24  24500927.161 1 127582780.70911     -3934.450          25.000  
C25  23239634.036 1                     -1838.488          36.000  
C34  23031995.082 1 119933643.949 1     -1252.168          25.000  
E 1  25230032.912 1  99008067.323 1       523.887          30.000  
G 2  24248939.309 1 127429031.001 1       832.909          31.000                                                                  
G 3  22224607.824 1 116791162.917 1     -2754.043          21.000    22224623.713 1  87214192.124 1     -2058.347          18.000  
G 6  21632603.160 1 113680071.17211        56.251          35.000    21632610.655 1  84891017.249 1        41.593          30.000  
G14  20181523.422 1 106054623.634 1     -1503.586          40.000                                                                  
G17  21734484.330 1 114215459.816 1      -339.088          34.000                                                                  
G19  22054200.695 1 115895635.85611       426.282          19.000                                                                  
G28  20532205.950 1 107897471.025 1        85.568          37.000                                                                  
G30  23638598.439 1 124221683.916 1     -3718.181          23.000                                                                  
J 2  35952746.631 1 188932998.12511      -833.477          26.000    35952761.021 1 141086354.742 1      -620.915          27.000  
J 3  39703438.382 1 208643042.790 1      -667.388          27.000    39703452.772 1 155804875.77811      -499.488          28.000  
R14  20546709.909 1 109525525.728 1     -4255.424          32.000  
R15  20079503.749 1 107298779.083 1      -455.719          20.000  
R17  21008255.088 1 112419416.067 1     -1710.224          28.000  
> 2021  5 21  6 29 19.9987860  0 21                     
C 7  35717170.917 1 185988715.825 1     -1033.865          23.000  
C 8  36489292.389 1 190009341.632 1     -1464.535          30.000  
C10  35920084.543 1 187045314.391 1      -594.501          30.000  
C13  36543697.225 1 190292509.200 1     -1105.383          24.000  
C24  24501503.662 1 127585781.635 1     -3939.918          26.000  
C25  23239806.717 1 121015774.13711     -1837.670          36.000  
C34  23032052.942 1 119933957.560 1     -1249.451          25.000  
E 1  25229719.329 1  99006836.319 1       525.877          30.000  
G 2  24248599.944 1 127427251.231 1       836.360          28.000                                                                  
G 3  22224952.885 1 116792971.737 1     -2754.812          22.000    22224968.175 1  87215543.786 1     -2057.146          18.000  
G 6  21632411.293 1 113679070.046 1        54.930          36.000    21632419.987 1  84890269.476 1        42.430          30.000  
G14  20181629.549 1 106055181.979 1     -1504.486          40.000                                                                  
G17  21734362.014 1 114214853.937 1      -337.928          32.000                                                                  
G19  22053938.376 1 115894262.187 1       429.869          20.000                                                                  
G28  20532008.986 1 107896439.885 1        86.281          37.000                                                                  
G30  23639124.275 1 124224457.297 1     -3719.519          28.000                                                                  
J 2  35952725.646 1 188932888.069 1      -837.099          27.000    35952740.336 1 141086271.388 1      -623.645          26.000  
J 3  39703387.117 1 208642764.407 1      -666.925          27.000    39703400.008 1 155804667.637 1      -497.346          28.000  
R14  20547328.680 1 109528823.605 1     -4258.089          32.000  
R15  20079413.511 1 107298297.452 1      -455.342          25.000  
R17  21008392.992 1 112420153.642 1     -1707.059          26.000  
> 2021  5 21  6 29 20.9987853  0 23                     
C 7  35717159.225 1 185988656.984 1     -1034.857          23.000  
C 8  36489362.540 1 190009712.856 1     -1463.118          30.000  
C10  35919989.209 1 187044815.025 1      -592.423          30.000  
C11  23068744.540 1 120125012.99911      -704.241          23.000  
C12  23475004.692 1 122240531.12911     -1960.827          22.000  
C13  36543696.925 1 190292522.521 1     -1105.389          23.000  
C21  23893023.004 1 124417182.18911      -364.135          24.000  
C24  24502048.385 1 127588629.389 1     -3941.614          26.000  
C25  23239950.017 1 121016519.423 1     -1838.679          36.000  
C34  23032086.219 1 119934113.083 1     -1247.810          24.000  
E 1  25229374.867 1  99005485.723 1       527.779          30.000  
G 3  22225268.267 1 116794622.639 1     -2753.598          26.000    22225282.657 1  87216777.091 1     -2057.148          18.000  
G 6  21632189.447 1                        57.439          35.000    21632199.640 1  84889403.306 1        42.657          30.000  
G14  20181705.996 1 106055583.779 1     -1505.688          39.000                                                                  
G17  21734216.615 1 114214088.935 1      -337.299          32.000                                                                  
G19  22053644.879 1 115892728.140 1       433.746          21.000                                                                  
G28  20531783.542 1 107895251.018 1        87.231          36.000                                                                  
G30  23639624.329 1 124227074.034 1     -3720.078          26.000                                                                  
J 2  35952675.281 1 188932623.040 1      -838.980          26.000    35952689.971 1 141086073.124 1      -627.831          25.000  
J 3  39703304.374 1 208642328.294 1      -667.061          26.000    39703316.966 1 155804342.153 1      -498.548          29.000  
R14  20547917.773 1 109531964.052 1     -4260.059          31.000  
R15  20079289.397 1 107297634.358 1      -454.707          23.000  
R17  21008500.318 1 112420727.889 1     -1704.373          26.000  
> 2021  5 21  6 29 21.9987845  0 19                     
C 8  36489403.911 1 190009926.546 1     -1462.361          29.000  
C10  35919863.596 1 187044158.895 1      -592.894          30.000  
C11  23068638.714 1 120124466.994 1      -703.426          22.000  
C12  23475142.897 1 122241242.786 1     -1960.783          27.000  
C24  24502566.726 1 127591323.333 1     -3944.395          26.000  
C25  23240063.039 1 121017108.686 1     -1838.273          35.000  
C34  23032083.520 1 119934110.544 1     -1245.036          25.000  
E 1  25229000.426 1  99004016.290 1       528.848          30.000  
G 3  22225554.569 1 116796116.718 1     -2755.294          25.000    22225566.261 1  87217892.897 1     -2057.035          18.000  
G 6  21631943.917 1 113676604.90811        56.354          35.000    21631948.714 1  84888419.872 1        41.708          31.000  
G14  20181756.661 1 106055829.155 1     -1506.778          40.000                                                                  
G17  21734041.836 1 114213164.724 1      -334.079          32.000                                                                  
G19  22053323.202 1 115891030.562 1       439.853          21.000                                                                  
G28  20531529.018 1 107893904.518 1        86.583          37.000                                                                  
J 2  35952595.836 1 188932202.853 1      -840.683          25.000    35952609.326 1 141085758.676 1      -627.042          25.000  
J 3  39703192.552 1 208641734.869 1      -666.245          27.000    39703203.944 1 155803898.918 1      -498.393          29.000  
R14  20548479.584 1 109534958.788 1     -4262.037          31.000  
R15  20079137.402 1 107296822.375 1      -455.010          21.000  
R17  21008579.763 1 112421153.089 1     -1701.071          28.000  
> 2021  5 21  6 29 22.9987837  0 18                     
C 7  35717081.879 1 185988232.69711     -1038.185          22.000  
C 8  36489446.782 1 190010139.748 1     -1462.223          29.000  
C10  35919737.383 1 187043502.440 1      -592.076          30.000  
C11  23068530.788 1 120123920.009 1      -701.075          23.000  
C12  23475281.701 1 122241954.096 1     -1961.295          25.000  
C25  23240176.660 1 121017697.881 1     -1836.399          35.000  
C34  23032084.420 1 119934107.100 1     -1245.625          25.000  
E 1  25228626.885 1  99002546.794 1       528.031          32.000  
G 2  24247430.753 1 127421117.23211       838.034          17.000                                                                  
G 3  22225839.671 1 116797611.884 1     -2755.949          29.000    22225850.164 1  87219009.142 1     -2057.733          24.000  
G 6  21631690.292 1 113675287.407 1        57.752          34.000    21631698.986 1  84887436.698 1        41.619          32.000  
G14  20181802.529 1 106056075.360 1     -1507.881          40.000                                                                  
G17  21733867.657 1 114212239.159 1      -333.872          33.000                                                                  
G28  20531271.497 1 107892557.900 1        86.433          37.000                                                                  
J 2  35952516.091 1 188931783.725 1      -840.918          25.000    35952529.582 1 141085445.025 1      -629.540          26.000  
J 3  39703080.729 1 208641140.792 1      -666.874          25.000    39703090.922 1 155803455.104 1      -497.227          29.000  
R14  20549041.095 1 109537952.282 1     -4263.505          30.000  
R17  21008658.908 1 112421577.131 1     -1699.821          28.000  
> 2021  5 21  6 29 23.9987832  0 21                     
C 7  35717130.745 1 185988489.587 1     -1037.917          21.000  
C 8  36489578.091 1 190010821.311 1     -1462.308          29.000  
C10  35919702.008 1 187043313.580 1      -591.350          29.000  
C11  23068515.499 1 120123838.343 1      -698.596          25.000  
C13  36543703.221 1 190292559.65311     -1104.700          22.000  
C24  24503697.843 1 127597187.58011     -3948.145          25.000  
C25  23240378.121 1 121018755.518 1     -1838.444          33.000  
C34  23032172.559 1 119934572.020 1     -1244.689          26.000  
E 1  25228342.082 1  99001430.240 1       529.638          32.000  
G 2  24247119.269 1 127419489.588 1       841.958          17.000                                                                  
G 3  22226213.812 1 116799579.891 1     -2755.960          22.000    22226224.305 1  87220478.883 1     -2057.997          23.000  
G 6  21631528.704 1 113674442.271 1        56.808          33.000    21631538.298 1  84886806.678 1        42.692          32.000  
G14  20181938.635 1 106056795.020 1     -1507.631          40.000                                                                  
G17  21733784.014 1 114211785.113 1      -335.186          34.000                                                                  
G19  22052772.783 1 115888104.48511       436.648          21.000                                                                  
G28  20531105.711 1 107891683.930 1        85.067          36.000                                                                  
G30  23641121.792 1 124234936.12711     -3726.730          23.000                                                                  
J 2  35952531.380 1 188931838.821 1      -843.508          25.000    35952540.374 1 141085487.162 1      -630.265          24.000  
J 3  39703057.046 1 208641019.641 1      -666.299          27.000    39703067.538 1 155803364.496 1      -498.282          28.000  
R14  20549691.944 1 109541421.470 1     -4264.492          31.000  
R17  21008827.991 1 112422482.273 1     -1698.727          28.000  
> 2021  5 21  6 29 24.9987827  0 20                     
C 7  35717180.510 1 185988745.849 1     -1036.480          23.000  
C 8  36489708.500 1 190011503.747 1     -1464.142          30.000  
C10  35919665.733 1 187043124.678 1      -591.466          29.000  
C11  23068499.910 1 120123756.780 1      -699.280          27.000  
C13  36543767.976 1 190292883.964 1     -1105.700          21.000  
C24  24504307.021 1 127600354.087 1     -3946.285          25.000  
C25  23240581.380 1 121019813.730 1     -1839.152          34.000  
C34  23032260.398 1 119935036.323 1     -1245.419          27.000  
E 1  25228057.879 1  99000313.485 1       527.234          31.000  
G 3  22226591.851 1 116801548.185 1     -2756.946          30.000    22226599.046 1  87221948.749 1     -2058.610          23.000  
G 6  21631366.517 1 113673597.742 1        56.751          34.000    21631377.009 1  84886175.491 1        42.494          32.000  
G14  20182075.040 1 106057515.258 1     -1507.614          40.000                                                                  
G17  21733696.175 1 114211331.248 1      -332.638          35.000                                                                  
G19  22052541.643 1 115886879.610 1       435.317          20.000                                                                  
G28  20530936.029 1 107890810.536 1        86.779          36.000                                                                  
G30  23641677.008 1 124237868.006 1     -3717.075          20.000    23641696.494 1  92775130.25211     -2783.869          28.000  
J 2  35952544.571 1 188931895.058 1      -844.650          25.000    35952551.467 1 141085529.252 1      -630.498          23.000  
J 3  39703036.060 1 208640899.428 1      -667.914          23.000    39703044.154 1 155803275.078 1      -498.523          28.000  
R14  20550340.695 1 109544879.627 1     -4263.835          31.000  
R17  21008996.175 1 112423381.965 1     -1699.909          28.000  
> 2021  5 21  6 29 25.9987820  0 19                     
C 8  36489778.652 1 190011875.588 1     -1464.942          30.000  
C10  35919570.099 1 187042623.523 1      -591.740          30.000  
C11  23068427.360 1 120123363.756 1      -700.815          26.000  
C13  36543769.175 1 190292898.188 1     -1108.577          22.000  
C24  24504855.641 1 127603206.893 1     -3945.110          26.000  
C25  23240723.482 1 121020560.573 1     -1839.568          35.000  
C34  23032291.576 1 119935188.215 1     -1245.514          27.000  
E 1  25227713.417 1  98998962.698 1       526.894          31.000  
G 2  24246443.836 1 127415907.62611       842.568          15.000                                                                  
G 3  22226909.631 1 116803202.944 1     -2758.872          27.000    22226914.128 1  87223184.052 1     -2059.266          26.000  
G 6  21631146.769 1 113672438.894 1        57.498          34.000    21631156.062 1  84885310.046 1        41.487          32.000  
G14  20182152.686 1 106057921.033 1     -1509.077          40.000                                                                  
G17  21733550.476 1 114210562.822 1      -336.119          35.000                                                                  
G28  20530712.983 1 107889622.910 1        84.906          36.000                                                                  
G30                                                                  23642196.248 1  92777091.690 1     -2785.925          27.000  
J 2  35952495.405 1 188931635.613 1      -841.834          27.000    35952502.301 1 141085335.641 1      -628.590          23.000  
J 3                                                                  39702960.512 1 155802950.222 1      -497.703          27.000  
R14  20550934.284 1 109548044.051 1     -4264.283          29.000  
R15  20078721.890 1 107294601.78311      -457.633          17.000  
> 2021  5 21  6 29 26.9987814  0 21                     
C 7  35717191.903 1 185988792.25611     -1037.410          20.000  
C 8  36489880.581 1 190012403.193 1     -1463.780          29.000  
C10  35919504.744 1 187042279.518 1      -593.796          28.000  
C11  23068382.691 1 120123128.233 1      -701.565          26.000  
C13  36543802.752 1 190293070.225 1     -1109.664          22.000  
C24  24505436.639 1 127606213.921 1     -3942.981          27.000  
C25  23240899.160 1 121021463.956 1     -1840.488          33.000  
E 1  25227399.535 1  98997730.584 1       525.615          31.000  
G 2  24246111.067 1 127414122.204 1       837.175          14.000                                                                  
G 3                                                                  22227259.488 1  87224536.847 1     -2058.701          20.000  
G 6  21630959.099 1 113671438.121 1        54.964          34.000    21630965.694 1  84884562.372 1        41.647          34.000  
G14  20182259.712 1 106058484.808 1     -1509.039          39.000                                                                  
G17  21733431.458 1 114209954.099 1      -341.629          33.000                                                                  
G19  22051989.425 1 115883965.56911       430.503          23.000                                                                  
G28  20530518.118 1 107888593.478 1        84.136          36.000                                                                  
G30                                                                  23642725.981 1  92779171.768 1     -2784.957          25.000  
J 2  35952474.120 1 188931530.798 1      -838.795          27.000    35952481.615 1 141085257.295 1      -625.545          21.000  
J 3  39702901.153 1 208640184.93911      -666.091          21.000    39702907.149 1 155802741.223 1      -496.566          27.000  
R14  20551557.553 1 109551365.688 1     -4264.545          27.000  
R15  20078627.156 1 107294095.199 1      -457.364          17.000  
R17  21009244.403 1 112424710.27811     -1706.183          23.000  
> 2021  5 21  6 29 27.9987807  0 17                     
C 8  36489951.632 1 190012774.683 1     -1464.066          29.000  
C10  35919408.811 1 187041780.669 1      -594.059          28.000  
C11  23068309.841 1 120122737.194 1      -702.149          25.000  
C21  23892121.229 1 124412577.88511      -367.154          24.000  
C24  24505986.159 1 127609062.950 1     -3942.067          26.000  
C25  23241042.461 1 121022211.591 1     -1837.078          33.000  
E 1  25227055.673 1  98996381.748 1       524.258          31.000  
G 3  22227570.373 1 116806672.65511     -2759.636          16.000                                                                  
G 6  21630741.150 1                        52.228          31.000    21630745.646 1  84883697.245 1        39.837          34.000  
G14  20182337.359 1 106058891.601 1     -1509.785          39.000                                                                  
G17  21733282.462 1 114209188.260 1      -336.485          25.000                                                                  
G28  20530290.276 1 107887407.258 1        82.940          36.000                                                                  
G30                                                                  23643224.536 1  92781131.877 1     -2783.317          27.000  
J 2  35952424.654 1 188931265.638 1      -835.646          28.000    35952431.250 1 141085060.184 1      -626.135          25.000  
J 3  39702817.811 1 208639748.122 1      -666.514          20.000    39702824.407 1 155802415.112 1      -498.808          27.000  
R14  20552147.844 1 109554512.692 1     -4264.452          29.000  
R15  20078500.643 1 107293419.021 1      -457.188          19.000  
> 2021  5 21  6 29 28.9987799  0 17                     
C 8  36489993.303 1 190012989.606 1     -1464.591          29.000  
C10  35919281.999 1 187041126.297 1      -594.130          27.000  
C11  23068205.214 1 120122191.514 1      -704.758          27.000  
C21  23891952.146 1 124411695.841 1      -367.356          23.000  
C24  24506505.699 1 127611755.302 1     -3941.380          26.000  
C25  23241154.883 1 121022802.275 1     -1841.305          31.000  
E 1  25226682.131 1  98994916.331 1       524.747          30.000  
G 2  24245349.894 1 127410094.61511       827.988          17.000                                                                  
G 6  21630496.819 1 113668966.28411        45.478          30.000    21630494.720 1                        43.213          32.000  
G14  20182385.925 1 106059141.370 1     -1509.798          39.000                                                                  
G17  21733105.284 1 114208264.549 1      -337.380          24.000                                                                  
G28  20530035.152 1 107886064.211 1        82.286          36.000                                                                  
G30  23643682.319 1 124248342.92311     -3721.960          24.000    23643693.711 1  92782973.179 1     -2781.687          27.000  
J 2                                                                  35952351.205 1 141084745.276 1      -626.441          26.000  
J 3  39702705.989 1 208639153.655 1      -665.219          20.000    39702712.284 1 155801972.865 1      -499.182          27.000  
R14  20552709.655 1 109557507.390 1     -4263.621          31.000  
R15  20078354.045 1 107292635.916 1      -457.649          20.000  
> 2021  5 21  6 29 29.9987794  0 16                     
C 7  35717194.900 1 185988790.08911     -1039.997          22.000  
C 8  36490125.212 1 190013673.022 1     -1464.372          29.000  
C10  35919244.524 1 187040938.945 1      -593.734          28.000  
C21  23891871.801 1 124411283.686 1      -369.385          18.000  
C25  23241361.440 1 121023858.976 1     -1835.311          31.000  
E 1  25226398.228 1  98993804.215 1       523.237          28.000  
G 2  24245045.304 1 127408481.518 1       820.147          17.000                                                                  
G 6                                                                  21630332.832 1  84882075.52611        43.767          26.000  
G14  20182523.230 1 106059864.108 1     -1511.065          39.000                                                                  
G17  21733019.843 1 114207815.956 1      -339.813          24.000                                                                  
G28  20529869.667 1 107885194.558 1        82.046          34.000                                                                  
G30  23644242.332 1 124251276.805 1     -3720.198          31.000    23644251.625 1  92785162.759 1     -2776.116          23.000  
J 2                                                                  35952360.799 1 141084783.722 1      -626.490          30.000  
J 3  39702684.703 1 208639031.983 1      -667.960          24.000    39702689.800 1 155801884.841 1      -500.991          29.000  
R14  20553357.207 1 109560958.948 1     -4261.500          35.000  
R15  20078287.191 1 107292278.810 1      -458.141          24.000  
> 2021  5 21  6 29 30.9987789  0 21                     
C 7  35717244.666 1 185989049.276 1     -1039.738          25.000  
C 8  36490258.020 1 190014356.823 1     -1464.823          29.000  
C10  35919208.549 1 187040752.085 1      -595.269          26.000  
C11  23068180.031 1 120122047.08011      -711.571          18.000  
C21  23891793.555 1 124410875.415 1      -375.724          24.000  
C24  24507724.056 1 127618066.08411     -3931.101          24.000  
C25  23241566.798 1 121024914.890 1     -1835.691          28.000  
C34  23032558.691 1 119936595.94811     -1256.476          14.000  
E 1  25226114.924 1  98992692.103 1       523.982          26.000  
G 2  24244741.914 1 127406873.863 1       819.696          17.000                                                                  
G 3  22228609.154 1 116812118.24411     -2757.300          13.000                                                                  
G 6  21630180.538 1 113667291.42111        56.858          30.000    21630171.244 1  84881443.091 1        45.090          26.000  
G14  20182659.635 1 106060586.835 1     -1509.057          39.000                                                                  
G17  21732938.300 1 114207369.275 1      -342.792          18.000                                                                  
G28  20529701.783 1 107884325.929 1        82.279          31.000                                                                  
G30  23644800.245 1 124254206.462 1     -3715.004          31.000                                                                  
J 2  35952370.692 1 188930920.67711      -828.094          27.000    35952371.291 1 141084821.393 1      -625.074          32.000  
J 3  39702664.018 1 208638914.106 1      -671.832          28.000    39702669.114 1 155801799.368 1      -504.637          30.000  
R14  20554004.459 1 109564409.545 1     -4258.115          36.000  
R15  20078222.736 1 107291934.475 1      -458.897          31.000  
R17  21009847.885 1 112427939.26111     -1724.687          17.000  
> 2021  5 21  6 29 31.9987781  0 15                     
C 7  35717205.393 1 185988839.805 1     -1039.209          31.000  
C 8  36490299.391 1 190014572.780 1     -1464.854          28.000  
C10  35919082.337 1 187040098.325 1      -595.274          26.000  
C11  23068074.205 1 120121508.932 1      -711.945          20.000  
C21  23891627.470 1 124410003.978 1      -379.125          23.000  
C24  24508237.900 1 127620746.427 1     -3927.733          31.000  
C25  23241678.920 1 121025501.518 1     -1834.541          22.000  
E 1  25225741.982 1  98991227.371 1       523.188          27.000  
G 3  22228898.754 1 116813614.025 1     -2758.009          10.000                                                                  
G 6  21629932.909 1 113665970.688 1        62.633          24.000    21629919.418 1  84880456.671 1        46.678          30.000  
