     3.03           OBSERVATION DATA    M: Mixed            RINEX VERSION / TYPE
RTKCONV demo5 b33c                      20210524 112013 UTC PGM / RUN BY / DATE 
log: C:\Users\Ivan_PolyU_Dktp\Dropbox\HUAWEI Exp\20210521_  COMMENT             
format: RINEX                                               COMMENT             
                                                            MARKER NAME         
                                                            MARKER NUMBER       
                                                            MARKER TYPE         
                                                            OBSERVER / AGENCY   
                                                            REC # / TYPE / VERS 
                                                            ANT # / TYPE        
        0.0000        0.0000        0.0000                  APPROX POSITION XYZ 
        0.0000        0.0000        0.0000                  ANTENNA: DELTA H/E/N
G    4 C1C L1C D1C S1C                                      SYS / # / OBS TYPES 
E    4 C1C L1C D1C S1C                                      SYS / # / OBS TYPES 
J    4 C1C L1C D1C S1C                                      SYS / # / OBS TYPES 
  2021     5    21     6    29    6.0050000     GPS         TIME OF FIRST OBS   
  2021     5    21     6    54   39.0050000     GPS         TIME OF LAST OBS    
G                                                           SYS / PHASE SHIFT   
E                                                           SYS / PHASE SHIFT   
J                                                           SYS / PHASE SHIFT   
  0                                                         GLONASS SLOT / FRQ #
 C1C    0.000 C1P    0.000 C2C    0.000 C2P    0.000        GLONASS COD/PHS/BIS 
                                                            END OF HEADER       
> 2021  5 21  6 29  6.0050000  0 12                     
G17  23341628.853 9                       821.762          23.000  
G14  21785837.764 9                      -323.543          19.000  
E 1  26839754.546 9                      1869.517          20.000  
G28  22140431.039 9                      1259.450          21.000  
G19  23663253.066 9                      1588.014          22.000  
E21  25216858.086 9                      -689.885          20.000  
J 3  41309796.940 9                       496.204          19.000  
E26  25258987.030 9                       -85.896          21.000  
G30  25237453.803 9                     -2532.496          18.000  
J 2  37558731.831 9                       358.010          21.000  
E27  27822955.968 9                     -2635.733          16.000  
G 6  23240756.648 9                      1233.237          23.000  
> 2021  5 21  6 29  7.0050000  0 12                     
G17  23341471.853 9                       830.386          23.000  
G14  21785898.595 9                      -312.742          20.000  
E 1  26839400.097 9                      1868.130          20.000  
G28  22140190.366 9                      1268.051          20.000  
G19  23662951.334 9                      1590.848          22.000  
E21  25216989.538 9                      -679.832          20.000  
J 3  41309699.237 9                       508.184          19.000  
E26  25259000.920 9                       -75.783          21.000  
G30  25237935.080 9                     -2526.510          19.000  
J 2  37558665.154 9                       364.259          20.000  
E27  27823457.348 9                     -2634.403          16.000  
G 6  23240521.977 9                      1236.958          23.000  
> 2021  5 21  6 29  8.0050000  0 12                     
G17  23341315.377 9                       827.104          22.000  
G14  21785955.832 9                      -318.783          20.000  
E 1  26839046.555 9                      1867.510          21.000  
G28  22139950.722 9                      1260.346          20.000  
G19  23662648.642 9                      1590.258          22.000  
E21  25217119.804 9                      -692.245          20.000  
J 3  41309603.801 9                       504.148          19.000  
E26  25259016.800 9                       -82.007          21.000  
G30  25238414.804 9                     -2527.791          18.000  
J 2  37558593.434 9                       354.558          22.000  
E27  27823960.612 9                     -2632.679          16.000  
G 6  23240288.022 9                      1235.744          23.000  
> 2021  5 21  6 29  9.0050000  0 12                     
G17  23341157.086 9                       825.291          22.000  
G14  21786014.866 9                      -322.389          19.000  
E 1  26838690.745 9                      1865.617          20.000  
G28  22139709.036 9                      1265.215          20.000  
G19  23662343.421 9                      1591.440          22.000  
E21  25217249.808 9                      -690.775          19.000  
J 3  41309509.291 9                       500.780          19.000  
E26  25259031.615 9                       -90.168          19.000  
G30  25238894.545 9                     -2527.791          17.000  
J 2  37558526.216 9                       351.606          22.000  
E27  27824458.519 9                     -2632.679          15.000  
G 6  23240054.660 9                      1234.568          23.000  
> 2021  5 21  6 29 10.0050000  0 12                     
G17  23341002.460 9                       817.260          21.000  
G14  21786076.081 9                      -317.015          18.000  
E 1  26838335.651 9                      1868.361          19.000  
G28  22139467.630 9                      1262.334          20.000  
G19  23662042.544 9                      1599.742          21.000  
E21  25217381.767 9                      -690.775          18.000  
J 3  41309417.189 9                       489.384          17.000  
E26  25259047.983 9                       -79.062          19.000  
G30  25239374.618 9                     -2527.405          16.000  
J 2  37558458.404 9                       362.309          21.000  
E27  27824958.188 9                     -2630.686          15.000  
G 6  23239820.618 9                      1246.360          22.000  
> 2021  5 21  6 29 11.0050000  0 12                     
G17  23340844.692 9                       819.778          20.000  
G14  21786137.576 9                      -312.178          19.000  
E 1  26837979.161 9                      1873.472          20.000  
G28  22139226.206 9                      1263.050          21.000  
G19  23661739.730 9                      1593.702          22.000  
E21  25217515.907 9                      -688.257          19.000  
J 3  41309324.301 9                       503.454          17.000  
E26  25259062.868 9                       -92.282          20.000  
G30  25239854.604 9                     -2531.906          17.000  
J 2  37558392.041 9                       359.241          21.000  
E27  27825458.294 9                     -2633.028          16.000  
G 6  23239584.220 9                      1231.702          22.000  
> 2021  5 21  6 29 12.0050000  0 12                     
G17  23340687.152 9                       826.670          23.000  
G14  21786197.168 9                      -313.925          21.000  
E 1  26837623.316 9                      1867.050          22.000  
G28  22138987.383 9                      1265.361          22.000  
G19  23661437.667 9                      1593.458          25.000  
E21  25217646.015 9                      -691.893          21.000  
J 3  41309228.395 9                       509.446          20.000  
E26  25259076.968 9                       -87.008          22.000  
G30  25240336.439 9                     -2530.601          19.000  
J 2  37558325.049 9                       354.288          22.000  
E27  27825962.274 9                     -2639.804          18.000  
G 6  23239348.677 9                      1233.124          25.000  
> 2021  5 21  6 29 13.0050000  0 13                     
G17  23340532.665 9                       826.590          25.000  
G14  21786256.255 9                      -316.177          23.000  
E 1  26837266.214 9                      1875.055          23.000  
G28  22138746.622 9                      1252.838          23.000  
G19  23661133.929 9                      1593.893          25.000  
E21  25217776.560 9                      -694.797          23.000  
J 3  41309130.918 9                       503.170          23.000  
E26  25259092.150 9                       -79.265          24.000  
G 3  23827922.342 9                     -1576.730          21.000  
G30  25240819.165 9                     -2533.406          20.000  
J 2  37558257.220 9                       352.343          25.000  
E27  27826465.957 9                     -2640.243          18.000  
G 6  23239113.256 9                      1231.865          27.000  
> 2021  5 21  6 29 14.0050000  0 14                     
G17  23340377.027 8 122654499.37134       827.811          31.000  
G14  21786316.929 9                      -320.880          26.000  
E 1  26836909.829 9                      1865.238          24.000  
G28  22138507.938 9                      1259.745          24.000  
G19  23660830.173 9 124338501.13335      1595.996          27.000  
E13  26943947.615 9                     -1517.784          25.000  
E21  25217909.060 8                      -693.475          25.000  
J 3  41309035.413 9 217080445.64534       506.514          30.000  
E26  25259106.005 9                       -77.095          25.000  
G 3  23828221.875 9                     -1576.730          23.000  
G30  25241298.732 9                     -2534.638          24.000  
J 2  37558188.851 9 197369620.82634       353.434          26.000  
E27  27826969.850 9                     -2639.401          17.000  
G 6  23238878.079 8 122121131.89633      1232.174          31.000  
> 2021  5 21  6 29 15.0050000  0 14                     
G17  23340218.195 8 122653670.74025       828.615          29.000  
G14  21786376.801 9                      -321.817          25.000  
E 1  26836554.385 9                      1871.982          24.000  
G28  22138268.573 9                      1260.402          23.000  
G19  23660525.248 8 124336905.03124      1596.285          27.000  
E13  26944238.213 9                     -1516.276          25.000  
E21  25218040.757 9                      -701.176          25.000  
J 3  41308938.512 8 217079939.35924       505.723          28.000  
E26  25259119.512 9                       -78.583          25.000  
G 3  23828524.095 9                     -1578.907          23.000  
G30  25241780.026 9                     -2540.171          23.000  
J 2  37558123.534 9                       352.109          24.000  
E27  27827473.009 9                     -2640.604          16.000  
G 6  23238642.449 8 122119899.18924      1232.574          25.000  
> 2021  5 21  6 29 16.0050000  0 13                     
G17  23340061.788 8 122652842.28424       829.438          29.000  
G14  21786440.669 9                      -324.237          25.000  
E 1  26836199.238 9                      1874.243          24.000  
G28  22138025.911 9                      1265.446          23.000  
G19  23660222.539 8 124335308.83124      1597.462          27.000  
E21  25218174.652 9                      -698.192          25.000  
J 3  41308836.585 8 217079433.48124       506.223          27.000  
E26  25259133.123 9                       -78.252          24.000  
G 3  23828824.553 9                     -1569.973          21.000  
G30  25242262.280 9                     -2539.300          23.000  
J 2  37558056.997 9                       348.759          22.000  
E27  27827974.790 9                     -2640.604          15.000  
G 6  23238410.134 9                      1231.894          26.000  
> 2021  5 21  6 29 17.0050000  0 13                     
G17  23339900.356 8 122652011.88624       831.675          29.000  
G14  21786503.978 8 114488850.92135      -324.058          26.000  
E 1  26835842.626 9                      1874.241          26.000  
G28  22137785.987 9                      1267.529          23.000  
G19  23659917.474 4 124333710.03724      1600.318          27.000  
E21  25218305.668 9                      -695.999          25.000  
J 3  41308740.103 8 217078927.24123       507.000          27.000  
E26  25259147.223 9                       -76.609          25.000  
G 3  23829124.906 9                     -1578.470          20.000  
G30  25242744.203 9                     -2539.821          24.000  
J 2  37557990.599 9                       352.483          22.000  
E27  27828478.229 9                     -2643.772          16.000  
G 6  23238172.934 8 122117437.57734      1231.867          27.000  
> 2021  5 21  6 29 18.0050000  0 13                     
G17  23339743.357 4 122651178.10123       835.226          29.000  
G14  21786565.438 8 114489175.36225      -324.859          26.000  
E 1  26835486.292 9                      1877.434          26.000  
G28  22137546.780 9                      1264.058          23.000  
G19  23659613.578 4 124332107.34224      1604.894          27.000  
E21  25218439.669 9                      -697.685          25.000  
J 3  41308646.919 8 217078404.33033       508.913          27.000  
E26  25259163.242 9                       -72.755          25.000  
G 3  23829425.574 9                     -1579.650          17.000  
G30  25243227.103 9                     -2536.765          23.000  
J 2  37557924.916 9                       353.210          22.000  
E27  27828982.313 9                     -2646.836          16.000  
G 6  23237942.486 8 122116204.73925      1232.453          27.000  
> 2021  5 21  6 29 19.0050000  0 14                     
G17  23339582.937 8 122650341.86723       837.449          31.000  
G14  21786625.711 4 114489500.78023      -325.636          27.000  
E 1  26835129.348 8 141019567.01415      1879.435          27.000  
G28  22137307.869 9                      1258.916          25.000  
G19  23659310.241 8 124330501.83023      1606.613          29.000  
E13  26945385.879 9                     -1510.282          26.000  
E21  25218571.714 8 132524499.17915      -698.369          26.000  
J 3  41308550.314 8 217077895.35323       509.513          29.000  
E26  25259178.563 9                       -70.991          26.000  
G 3  23829726.398 9                     -1577.043          16.000  
G30  25243712.289 9                     -2546.235          25.000  
J 2  37557858.239 9                       343.102          24.000  
E27  27829486.904 9                     -2648.407          17.000  
G 6  23237709.944 8 122114971.58824      1233.415          28.000  
> 2021  5 21  6 29 20.0050000  0 14                     
G17  23339422.622 4 122649503.35522       839.442          33.000  
G14  21786689.491 4 114489826.44123      -325.675          29.000  
E 1  26834770.100 8 141017686.764 3      1881.538          29.000  
G28  22137065.660 9 116331065.09535      1264.898          27.000  
G19  23659000.570 4 124328893.42722      1609.687          31.000  
E13  26945671.469 8 141600477.66114     -1507.758          28.000  
E21  25218706.814 4 132525197.476 4      -697.914          28.000  
J 3  41308452.139 4 217077385.21322       511.432          31.000  
E26  25259191.494 8 132737957.36915       -69.215          27.000  
G 3  23830026.524 9                     -1579.304          16.000  
G30  25244194.281 9 132659135.58935     -2545.178          27.000  
J 2  37557793.149 8                       342.731          27.000  
E27  27829989.034 9                     -2655.075          19.000  
G 6  23237475.187 8 122113737.44023      1234.212          31.000  
> 2021  5 21  6 29 21.0050000  0 14                     
G17  23339263.982 4 122648662.38422       841.792          34.000  
G14  21786749.921 4 114490152.32022      -326.178          31.000  
E 1  26834407.973 8 141015804.186 2      1883.865          31.000  
G28  22136826.034 8 116329800.36824      1265.029          28.000  
G19  23658693.149 4 124327282.12422      1612.698          32.000  
E13  26945958.351 8 141601984.455 4     -1504.992          30.000  
E21  25218835.475 8 132525896.014 3      -698.836          30.000  
J 3  41308356.722 4 217076873.75222       512.018          32.000  
E26  25259202.801 8 132738025.699 4       -67.597          29.000  
G 3  23830324.905 9                     -1573.784          22.000  
G30  25244677.460 8 132661681.70524     -2546.619          28.000  
J 2  37557726.769 8 197367193.12234       339.720          28.000  
E27  27830493.223 9                     -2659.823          21.000  
G 6  23237239.347 4 122112502.21922      1235.492          32.000  
> 2021  5 21  6 29 22.0050000  0 15                     
G17  23339103.387 4 122647819.84922       843.010          33.000  
G14  21786814.906 4 114490479.40222      -329.240          31.000  
E 1  26834051.972 8 141013920.175 3      1884.140          31.000  
G28  22136585.081 8 116328535.51523      1264.489          29.000  
G19  23658389.515 8 124325668.69923      1613.414          32.000  
E13  26946246.175 8 141603490.059 4     -1505.841          24.000  
E21  25218970.033 8 132526595.636 3      -701.132          30.000  
J 3  41308257.884 8 217076361.94122       511.982          32.000  
E26  25259216.430 8 132738092.766 4       -67.054          29.000  
G 3  23830623.531 9                     -1582.972          23.000  
G30  25245161.477 4 132664229.73923     -2549.481          28.000  
J 2  37557662.203 4 197366853.85224       337.879          28.000  
J 1  39020353.641 9                       148.406          23.000  
E27  27831002.159 9                     -2658.239          22.000  
G 6  23236997.277 8 122111266.86323      1234.047          32.000  
> 2021  5 21  6 29 23.0050000  0 14                     
G17  23338942.741 4 122646977.31822       843.461          33.000  
G14  21786875.947 8 114490808.67023      -329.989          30.000  
E 1  26833694.260 8 141012036.205 3      1884.269          30.000  
G28  22136343.221 4 116327272.01223      1263.180          28.000  
G19  23658081.484 8 124324054.81223      1613.790          31.000  
E21  25219104.871 8 132527297.377 3      -702.631          29.000  
J 3  41308161.611 8 217075851.18523       511.234          31.000  
E26  25259228.314 8 132738160.078 3       -67.704          29.000  
G 3  23830923.204 9                     -1580.199          25.000  
G30  25245645.249 4 132666780.47324     -2551.740          27.000  
J 2  37557597.951 4 197366517.73224       334.561          28.000  
J 1  39020325.564 9                       148.406          22.000  
E27  27831507.657 9                     -2661.280          21.000  
G 6  23236767.249 8 122110032.37724      1234.698          31.000  
> 2021  5 21  6 29 24.0050000  0 12                     
G17  23338781.326 4 122646134.06322       843.270          33.000  
G14  21786938.384 8 114491139.10623      -331.012          30.000  
E 1  26833332.604 8 141010151.689 3      1884.749          30.000  
G28  22136103.839 4 116326008.78224      1263.191          28.000  
G19  23657776.419 8 124322439.83023      1614.482          31.000  
E21  25219235.887 8 132528000.034 3      -703.040          29.000  
J 3  41308066.664 8 217075340.39224       511.264          31.000  
E26  25259240.511 8 132738226.814 3       -67.151          29.000  
G 3  23831222.998 9                     -1578.748          23.000  
J 1  39020297.626 9                       148.406          22.000  
E27  27832013.259 9                     -2650.736          21.000  
G 6  23236533.782 8 122108798.02223      1234.819          31.000  
> 2021  5 21  6 29 25.0050000  0 11                     
G17  23338622.582 4 122645291.510 1       842.355          34.000  
G14  21787003.962 4 114491470.653 2      -332.042          32.000  
E 1  26832975.503 8 141008268.201 2      1882.060          31.000  
G28  22135862.729 4 116324746.66723      1261.921          28.000  
G19  23657467.969 8 124320825.02812      1613.304          32.000  
E21  25219370.655 4 132528703.696 2      -704.211          29.000  
J 3  41307968.332 8 217074830.004 3       510.630          32.000  
E26  25259255.362 8 132738294.333 3       -68.103          30.000  
G 3  23831525.131 9 125235509.17935     -1581.017          31.000  
J 1  39020269.042 9                       148.406          22.000  
G 6  23236296.669 8 122107564.683 2      1233.760          32.000  
> 2021  5 21  6 29 26.0050000  0 12                     
G17  23338461.952 2 122644448.868 1       843.039          34.000  
G14  21787065.177 4 114491802.228 2      -331.516          33.000  
E 1  26832620.303 4 141006385.251 2      1882.636          32.000  
G28  22135623.818 2 116323484.82222      1262.368          29.000  
G19  23657159.188 4 124319211.095 2      1613.595          32.000  
E21  25219506.558 8 132529407.214 3      -703.033          30.000  
J 3  41307868.971 4 217074319.074 2       511.443          32.000  
E26  25259265.413 8 132738362.085 2       -67.885          31.000  
G 3  23831828.207 9                     -1580.798          24.000  
J 2  37557407.604 9                       341.992          29.000  
G30  25247099.481 9                     -2550.128          29.000  
G 6  23236062.225 4 122106331.702 2      1232.648          33.000  
> 2021  5 21  6 29 27.0050000  0 12                     
G17  23338300.992 4 122643606.465 3       841.183          29.000  
G14  21787130.545 8 114492133.484 2      -331.077          32.000  
E 1  26832259.450 8 141004502.426 2      1882.658          31.000  
G28  22135383.860 2 116322222.83322      1262.010          29.000  
G19  23656855.188 8 124317597.019 3      1613.869          32.000  
E21  25219639.825 8 132530110.224 3      -702.411          29.000  
J 3  41307771.284 8 217073807.351 3       512.396          31.000  
E26  25259282.078 8 132738429.583 3       -67.658          31.000  
G 3  23832130.846 9                     -1575.546          20.000  
J 2  37557346.843 9                       336.660          29.000  
G30  25247581.979 9                     -2549.017          28.000  
G 6  23235829.073 4 122105098.434 2      1231.926          32.000  
> 2021  5 21  6 29 28.0050000  0 12                     
G17  23338138.931 9                       838.855          21.000  
G14  21787188.253 8 114492465.398 3      -333.350          31.000  
E 1  26831901.232 8 141002620.579 2      1880.558          30.000  
G28  22135145.176 4 116320961.74123      1260.106          28.000  
G19  23656545.080 8 124315983.746 3      1612.126          27.000  
E21  25219772.569 8 132530813.514 3      -703.802          28.000  
J 3  41307674.034 8 217073296.098 4       510.416          30.000  
E26  25259297.207 8 132738497.717 2       -69.385          30.000  
G 3  23832432.176 9                     -1575.546          17.000  
J 2  37557282.992 9 197364852.65534       337.027          28.000  
G30  25248072.034 9 132679487.72835     -2548.987          28.000  
G 6  23235594.559 8 122103865.431 3      1232.807          32.000  
> 2021  5 21  6 29 29.0050000  0 11                     
G17  23337978.477 9                       838.021          22.000  
G14  21787253.849 8 114492799.143 2      -334.823          31.000  
E 1  26831541.025 8 141000740.486 3      1879.571          30.000  
G28  22134904.817 4 116319702.58523      1258.807          29.000  
G19  23656239.055 8                      1613.285          26.000  
E21  25219912.781 8 132531518.119 3      -704.730          29.000  
J 3  41307578.442 8 217072787.187 3       507.384          30.000  
E26  25259306.002 8 132738567.266 2       -70.145          31.000  
J 2  37557212.546 9 197364516.58724       337.039          28.000  
G30  25248555.160 8 132682036.22924     -2548.334          29.000  
G 6  23235361.320 4 122102633.270 2      1232.356          32.000  
> 2021  5 21  6 29 30.0050000  0 12                     
G17  23337820.796 9                       835.804          21.000  
G14  21787319.322 4 114493133.867 2      -334.126          31.000  
E 1  26831182.126 8 140998861.200 3      1879.474          30.000  
G28  22134665.156 4 116318444.81423      1257.831          29.000  
G19  23655928.005 9                      1609.537          24.000  
E21  25220043.413 4 132532222.508 2      -703.381          29.000  
J 3  41307484.630 4 217072281.176 3       504.821          31.000  
E26  25259318.444 4 132738637.232 2       -69.273          31.000  
J 2  37557151.522 8 197364179.95824       337.788          28.000  
G30  25249040.887 9                     -2542.053          29.000  
J 1  39020117.173 9                       156.938          22.000  
G 6  23235121.379 4 122101399.543 2      1235.704          34.000  
> 2021  5 21  6 29 31.0050000  0 12                     
G17  23337662.820 9                       834.096          21.000  
G14  21787384.690 8 114493467.736 3      -333.628          32.000  
E 1  26830827.189 8 140996981.921 3      1878.912          30.000  
G28  22134427.239 4 116317186.935 3      1258.291          32.000  
G19  23655624.563 9                      1609.253          26.000  
E21  25220176.279 4 132532924.533 2      -700.972          32.000  
J 3  41307387.275 8 217071776.760 5       505.925          25.000  
E26  25259332.090 8 132738706.505 2       -68.556          32.000  
J 2  37557088.771 8 197363839.99823       342.710          34.000  
G30  25249525.550 9                     -2534.766          30.000  
J 1  39020088.328 9                       156.938          23.000  
G 6  23234886.482 4 122100162.457 2      1238.942          35.000  
> 2021  5 21  6 29 32.0050000  0 13                     
G17  23337502.138 9                       838.196          19.000  
G14  21787443.759 8 114493801.202 3      -333.328          31.000  
E 1  26830472.705 8 140995104.507 2      1875.236          31.000  
G28  22134186.810 8 116315930.179 3      1255.837          31.000  
G19  23655323.303 8 124309539.63033      1604.168          33.000  
E21  25220306.406 8 132533624.781 2      -699.788          31.000  
J 3  41307290.444 9                       507.721          23.000  
E26  25259345.579 8 132738776.809 3       -70.816          31.000  
J 2  37557025.270 4 197363496.38722       345.283          32.000  
G30  25250008.118 9                     -2528.729          30.000  
J 1  39020060.320 9                       156.938          23.000  
E27  27836055.044 9 146279466.60115     -2650.706          26.000  
G 6  23234649.961 4 122098923.350 2      1239.267          34.000  
> 2021  5 21  6 29 33.0050000  0 13                     
G17  23337342.538 9                       838.196          17.000  
G14  21787508.255 8 114494135.110 3      -334.246          32.000  
E 1  26830117.907 8 140993231.082 2      1871.417          31.000  
G28  22133947.149 8 116314675.838 3      1253.157          32.000  
G19  23655018.936 4 124307937.98022      1597.664          34.000  
E21  25220438.469 8 132534324.265 3      -699.123          31.000  
J 3  41307197.207 9                       496.836          21.000  
E26  25259361.389 8 132738849.988 2       -74.376          31.000  
J 2  37556958.436 4 197363149.43722       347.826          33.000  
G30  25250486.847 8                     -2524.567          28.000  
J 1  39020030.777 9                       156.938          26.000  
E27  27836566.161 9 146282114.993 4     -2646.521          28.000  
G 6  23234417.542 4 122097684.287 2      1239.343          34.000  
> 2021  5 21  6 29 34.0050000  0 13                     
G17  23337182.520 9                       838.196          13.000  
G14  21787573.066 4 114494468.739 2      -332.869          33.000  
E 1  26829762.987 4 140991361.078 2      1868.646          32.000  
G28  22133708.971 8 116313423.148 2      1252.043          32.000  
G19  23654714.325 8 124306340.17023      1595.588          33.000  
E21  25220573.673 8 132535022.565 3      -696.799          31.000  
J 3  41307100.166 9                       496.669          21.000  
E26  25259379.904 4 132738925.586 2       -76.397          32.000  
J 2  37556891.758 4 197362798.59422       353.088          33.000  
G30  25250965.402 9                     -2516.510          28.000  
J 1  39020001.513 9                       156.938          27.000  
E27  27837071.135 9 146284758.234 4     -2639.790          28.000  
G 6  23234183.273 4 122096445.390 2      1239.845          33.000  
> 2021  5 21  6 29 35.0050000  0 13                     
G17  23337025.189 9                       838.196          13.000  
G14  21787636.008 4 114494800.974 2      -332.692          34.000  
E 1  26829404.856 8 140989493.627 3      1864.904          31.000  
G28  22133469.886 8 116312170.937 3      1251.559          31.000  
G19  23654407.288 8 124304745.44022      1593.079          33.000  
E21  25220708.808 8 132535718.906 3      -696.456          31.000  
J 3  41307008.082 9 217069791.62535       495.148          31.000  
E26  25259391.909 4 132739002.587 2       -78.312          32.000  
J 2  37556823.005 4 197362443.01022       357.626          33.000  
G30  25251442.491 8 132697233.77135     -2513.171          29.000  
J 1  39019972.650 9                       156.938          28.000  
E27  27837573.701 8 146287395.615 4     -2635.311          28.000  
G 6  23233943.769 8 122095206.298 3      1237.493          33.000  
> 2021  5 21  6 29 36.0050000  0 13                     
G17  23336868.835 9                       828.953          13.000  
G14  21787698.358 4 114495133.871 2      -332.927          34.000  
E 1  26829051.612 4 140987630.515 2      1860.808          31.000  
G28  22133231.777 8 116310921.155 3      1248.388          31.000  
G19  23654107.564 4 124303155.39522      1588.330          34.000  
E21  25220839.964 8 132536415.497 2      -697.079          32.000  
J 3  41306915.526 8 217069296.80623       494.705          32.000  
E26  25259407.946 4 132739083.026 2       -82.012          33.000  
J 2  37556754.006 4 197362085.00522       358.627          33.000  
G30  25251919.056 8 132699746.39524     -2511.670          30.000  
J 1  39019943.212 9                       156.938          29.000  
E27  27838073.144 8 146290029.306 4     -2632.737          28.000  
G 6  23233709.325 4 122093969.224 2      1235.911          35.000  
> 2021  5 21  6 29 37.0050000  0 13                     
G17  23336714.453 9                       813.998          30.000  
G14  21787761.231 4 114495467.565 2      -334.106          33.000  
E 1  26828698.035 4 140985769.578 2      1860.277          32.000  
G28  22132995.362 8 116309672.695 3      1248.030          32.000  
G19  23653805.535 4 124301567.48322      1588.197          33.000  
E21  25220974.627 8 132537112.590 2      -697.713          31.000  
J 3  41306819.654 8 217068802.60422       494.995          32.000  
E26  25259422.604 4 132739165.102 2       -82.340          33.000  
J 2  37556685.340 4 197361726.19422       357.998          34.000  
G30  25252394.557 9                     -2512.494          31.000  
J 1  39019910.667 9                       156.938          29.000  
E27  27838573.389 8 146292661.883 4     -2632.988          30.000  
G 6  23233474.288 4 122092733.677 2      1235.912          35.000  
> 2021  5 21  6 29 38.0050000  0 13                     
G17  23336570.506 9 122634505.46033       814.962          31.000  
G14  21787827.088 4 114495801.806 2      -334.090          32.000  
E 1  26828343.395 4 140983909.387 2      1860.438          31.000  
G28  22132762.017 8 116308424.914 3      1248.644          31.000  
G19  23653499.214 8 124299980.09423      1587.066          33.000  
E21  25221107.458 8 132537810.006 2      -698.063          30.000  
J 3  41306725.528 8 217068308.66623       494.050          31.000  
E26  25259432.272 4 132739247.629 3       -82.353          31.000  
J 2  37556618.488 4 197361367.11622       358.882          33.000  
G30  25252875.642 9 132704739.13534     -2509.631          31.000  
J 1  39019880.496 9                       160.723          29.000  
E27  27839078.835 9                     -2632.377          29.000  
G 6  23233238.780 4 122091498.500 2      1235.098          34.000  
> 2021  5 21  6 29 39.0050000  0 14                     
G17  23336416.124 8 122633691.86523       814.175          31.000  
G14  21787888.548 4 114496136.568 2      -334.474          32.000  
E 1  26827990.097 4 140982049.763 2      1859.239          31.000  
G28  22132524.537 8 116307177.611 3      1247.402          31.000  
G19  23653199.873 8 124298392.71723      1587.690          32.000  
E21  25221236.659 8 132538507.930 3      -698.625          30.000  
J 3  41306631.331 8 217067814.05323       495.533          30.000  
E26  25259450.595 8 132739330.408 3       -82.335          31.000  
J 2  37556550.293 4 197361008.16122       358.082          33.000  
E 7  28990661.125 9                      2008.615          26.000  
G30  25253355.646 8 132707250.68924     -2511.377          31.000  
J 1  39019846.660 9                       172.686          28.000  
E27  27839576.934 8 146297989.31215     -2632.319          29.000  
G 6  23233005.226 4 122090264.178 2      1234.040          34.000  
> 2021  5 21  6 29 40.0050000  0 14                     
G17  23336264.150 8 122632877.34923       814.331          32.000  
G14  21787952.486 4 114496471.708 2      -336.612          32.000  
E 1  26827636.277 4 140980190.540 2      1858.438          31.000  
G28  22132290.460 8 116305930.483 3      1246.010          31.000  
G19  23652900.898 8 124296805.18122      1588.069          32.000  
E21  25221368.164 8 132539206.318 2      -697.917          30.000  
J 3  41306537.432 8 217067318.14223       495.358          31.000  
E26  25259469.057 8 132739413.428 3       -82.516          31.000  
J 2  37556482.568 4 197360649.12022       358.943          33.000  
E 7  28990279.681 9                      2010.233          26.000  
G30  25253833.380 8 132709763.21424     -2512.531          31.000  
J 1  39019813.749 9                       172.686          28.000  
E27  27840081.193 8                     -2631.786          29.000  
G 6  23232770.713 4 122089031.088 2      1232.198          34.000  
> 2021  5 21  6 29 41.0050000  0 14                     
G17  23336105.807 8 122632062.60323       814.694          31.000  
G14  21788016.842 4 114496807.375 2      -335.903          32.000  
E 1  26827282.317 4 140978331.969 3      1857.518          31.000  
G28  22132050.834 8 116304683.884 3      1246.425          31.000  
G19  23652597.579 4 124295217.87522      1586.856          33.000  
E21  25221502.391 8 132539905.492 3      -699.142          30.000  
J 3  41306443.811 8 217066821.64423       496.356          31.000  
E26  25259481.237 8 132739496.915 3       -83.644          31.000  
J 2  37556414.111 8 197360290.31523       358.911          33.000  
E 7  28989900.505 9                      2010.768          26.000  
G30  25254305.496 8 132712276.33525     -2513.617          30.000  
J 1  39019778.988 9                       172.686          28.000  
E27  27840574.196 8 146303253.995 5     -2632.456          28.000  
G 6  23232536.984 4 122087799.109 2      1230.500          34.000  
> 2021  5 21  6 29 42.0050000  0 13                     
G17  23335954.374 8                       823.948          32.000  
G14  21788081.129 4 114497143.616 3      -336.235          32.000  
E 1  26826928.915 4 140976473.973 3      1858.125          31.000  
G28  22131811.312 8 116303437.698 2      1246.020          31.000  
G19  23652293.788 4 124293630.54222      1587.473          33.000  
E21  25221640.126 8 132540605.369 3      -699.692          31.000  
J 3  41306348.830 8 217066323.95923       497.991          31.000  
E26  25259500.083 8 132739580.755 3       -84.367          31.000  
J 2  37556344.363 4 197359931.62022       359.567          33.000  
E 7  28989512.464 9                      2009.753          26.000  
J 1  39019744.646 9                       172.686          28.000  
E27  27841085.121 9                     -2635.179          28.000  
G 6  23232302.174 4 122086568.462 2      1230.214          35.000  
> 2021  5 21  6 29 43.0050000  0 14                     
G17  23335801.108 9                       815.693          32.000  
G14  21788144.316 8 114497480.284 3      -337.442          32.000  
E 1  26826575.321 4 140974616.618 3      1856.838          31.000  
G28  22131571.895 8 116302191.846 3      1246.205          31.000  
G19  23651995.250 4 124292042.91212      1586.332          32.000  
E21  25221775.295 8 132541305.634 3      -700.792          30.000  
J 3  41306255.384 8 217065825.561 3       500.079          31.000  
E26  25259518.982 8 132739664.894 3       -84.150          31.000  
G 3  23837006.960 9                     -1612.451          27.000  
J 2  37556275.818 4 197359572.91622       358.210          33.000  
E 7  28989124.406 9                      2011.855          25.000  
J 1  39019714.317 9                       172.686          29.000  
E27  27841585.053 9                     -2632.111          28.000  
G 6  23232068.481 4 122085338.620 2      1229.737          34.000  
> 2021  5 21  6 29 44.0050000  0 15                     
G17  23335644.807 9                       815.565          31.000  
G14  21788209.039 8 114497817.584 3      -338.455          31.000  
E 1  26826222.268 4 140972759.636 3      1856.250          30.000  
G28  22131334.782 8 116300946.733 3      1244.189          31.000  
G19  23651691.651 4 124290456.037 2      1586.278          32.000  
E21  25221904.689 8 132542006.125 3      -700.591          30.000  
J 3  41306159.128 9                       501.611          30.000  
E26  25259530.150 8 132739749.154 3       -83.922          31.000  
G 3  23837301.398 9                     -1610.060          28.000  
J 2  37556205.912 8 197359214.08524       358.426          32.000  
E 7  28988740.292 9                      2012.224          25.000  
G30  25255747.111 9                     -2514.224          25.000  
J 1  39019683.465 9                       172.686          28.000  
E27  27842080.691 9                     -2625.548          26.000  
G 6  23231834.631 4 122084108.582 2      1230.354          34.000  
> 2021  5 21  6 29 45.0050000  0 14                     
G17  23335491.280 9                       815.687          30.000  
G14  21788272.383 8 114498154.874 4      -337.087          25.000  
E 1  26825864.835 8 140970901.825 4      1858.172          29.000  
G28  22131098.034 8 116299701.421 4      1244.971          30.000  
G19  23651383.026 8 124288868.284 4      1588.273          30.000  
E21  25222037.310 8 132542706.178 4      -700.208          29.000  
J 3  41306063.501 9 217064828.11935       496.952          29.000  
E26  25259551.963 8 132739832.523 3       -82.284          30.000  
G 3  23837611.837 9                     -1611.370          27.000  
J 2  37556137.752 9                       359.316          31.000  
G30  25256225.369 9                     -2510.834          25.000  
J 1  39019651.497 9                       172.686          26.000  
E27  27842582.001 9                     -2621.354          23.000  
G 6  23231600.937 4 122082877.192 3      1232.699          30.000  
> 2021  5 21  6 29 46.0050000  0 14                     
G17  23335335.100 9                       812.730          29.000  
G14  21788339.357 8 114498492.351 4      -337.438          27.000  
E 1  26825510.352 8 140969042.268 4      1860.050          29.000  
G28  22130862.212 8 116298455.654 5      1244.719          28.000  
G19  23651086.076 8 124287278.747 4      1590.062          29.000  
E21  25222174.870 8 132543405.483 5      -699.011          28.000  
J 3  41305969.933 9 217064331.19725       496.142          28.000  
E26  25259567.162 8 132739914.117 4       -80.779          28.000  
G 3  23837922.748 9                     -1614.339          26.000  
J 2  37556074.408 9                       358.410          30.000  
G30  25256703.295 9                     -2502.494          25.000  
J 1  39019620.610 9                       172.686          25.000  
E27  27843082.177 9                     -2632.183          23.000  
G 6  23231365.778 9                      1240.385          19.000  
> 2021  5 21  6 29 47.0050000  0 12                     
G17  23335183.789 9                       815.535          25.000  
G14  21788402.963 9                      -339.489          26.000  
E 1  26825157.857 9                      1862.913          26.000  
G28  22130622.307 9                      1243.659          25.000  
G19  23650777.835 9                      1585.818          26.000  
E21  25222312.081 9                      -704.771          26.000  
J 3  41305877.587 9                       487.049          25.000  
E26  25259577.719 9                      -106.832          15.000  
J 2  37556007.067 9                       355.184          19.000  
J 1  39019587.507 9                       172.686          22.000  
E27  27843581.637 9                     -2620.436          20.000  
G 6  23231129.101 9                      1230.971          16.000  
> 2021  5 21  6 29 48.0050000  0 12                     
G17  23335031.763 9                       829.048          25.000  
G14  21788469.693 9                      -340.065          26.000  
E 1  26824800.337 9                      1863.319          25.000  
G28  22130384.251 9                      1250.221          24.000  
G19  23650480.588 9                      1584.477          25.000  
E21  25222445.314 9                      -701.522          25.000  
J 3  41305783.547 9                       495.971          24.000  
E26  25259593.512 9                       -76.570          27.000  
J 2  37555941.542 9                       352.395          23.000  
J 1  39019555.712 9                       172.686          21.000  
E27  27844082.685 9                     -2641.920          20.000  
G 6  23230892.301 9                      1233.887          17.000  
> 2021  5 21  6 29 49.0050000  0 12                     
G17  23334875.985 9                       822.776          23.000  
G14  21788538.446 9                      -341.096          25.000  
E 1  26824450.373 9                      1867.726          23.000  
G28  22130149.214 9                      1246.482          21.000  
G19  23650177.809 9                      1605.865          23.000  
E21  25222579.017 9                      -702.763          23.000  
J 3  41305690.084 9                       509.862          20.000  
E26  25259609.287 9                       -72.052          25.000  
J 2  37555873.748 9                       349.387          22.000  
J 1  39019522.801 9                       172.686          20.000  
E27  27844587.258 9                     -2642.714          18.000  
G 6  23230657.823 9                      1230.561          16.000  
> 2021  5 21  6 29 50.0050000  0 11                     
G17  23334718.252 9                       822.875          22.000  
G14  21788603.117 9                      -340.896          24.000  
E 1  26824096.553 9                      1868.297          22.000  
G28  22129912.310 9                      1256.065          21.000  
G19  23649871.174 9                      1610.593          23.000  
E21  25222709.353 9                      -703.420          22.000  
J 3  41305592.101 9                       498.057          20.000  
E26  25259620.839 9                       -64.024          24.000  
J 2  37555805.273 9                       345.403          22.000  
E27  27845091.621 9                     -2650.859          17.000  
G 6  23230424.409 9                      1230.561          14.000  
> 2021  5 21  6 29 51.0050000  0 11                     
G17  23334555.913 9                       830.675          23.000  
G14  21788667.735 9                      -346.636          24.000  
E 1  26823742.191 9                      1880.690          22.000  
G28  22129675.685 9                      1252.034          22.000  
G19  23649565.411 9                      1607.270          23.000  
E21  25222840.910 9                      -700.492          21.000  
J 3  41305496.282 9                       501.449          21.000  
E26  25259633.298 9                       -59.520          23.000  
J 2  37555739.922 9                       342.419          22.000  
E27  27845599.213 9                     -2650.798          17.000  
G 6  23230189.215 9                      1230.561          13.000  
> 2021  5 21  6 29 52.0050000  0 11                     
G17  23334395.354 9                       832.133          25.000  
G14  21788732.371 9                      -343.998          23.000  
E 1  26823381.338 9                      1874.567          23.000  
G28  22129437.419 9                      1237.019          23.000  
G19  23649260.155 9                      1611.388          26.000  
E21  25222975.312 9                      -700.492          17.000  
J 3  41305400.393 9                       509.841          22.000  
E26  25259646.875 9                       -75.110          22.000  
J 2  37555675.531 9                       333.015          23.000  
E27  27846104.502 9                     -2650.798          16.000  
G 6  23229955.434 9                      1235.300          20.000  
> 2021  5 21  6 29 53.0050000  0 11                     
G17  23334234.410 9                       837.745          25.000  
G14  21788795.104 9                      -338.217          23.000  
E 1  26823023.259 9                      1872.891          23.000  
G28  22129198.247 9                      1243.964          23.000  
G19  23648953.101 9 124276087.64035      1612.755          26.000  
E21  25223108.300 9                      -700.492          15.000  
J 3  41305301.991 9                       508.609          22.000  
E26  25259661.637 9                       -76.518          22.000  
J 2  37555610.127 9                       329.305          23.000  
E27  27846610.558 9                     -2652.108          18.000  
G 6  23229720.240 9                      1234.045          21.000  
> 2021  5 21  6 29 54.0050000  0 11                     
G17  23334073.659 9                       838.740          23.000  
G14  21788859.286 9                      -354.763          21.000  
E 1  26822664.518 9                      1874.106          22.000  
G28  22128961.657 9                      1255.654          21.000  
G19  23648647.582 9                      1621.470          24.000  
E21  25223241.375 9                      -700.492          11.000  
J 3  41305204.392 9                       502.220          20.000  
E26  25259676.069 9                       -69.322          21.000  
J 2  37555549.505 9                       327.112          20.000  
E27  27847114.870 9                     -2656.271          16.000  
G 6  23229484.575 9                      1238.218          22.000  
> 2021  5 21  6 29 55.0050000  0 11                     
G17  23333916.694 9                       820.007          22.000  
G14  21788926.173 9                      -358.055          22.000  
E 1  26822307.905 9                      1870.501          21.000  
G28  22128722.659 9                      1251.612          20.000  
G19  23648340.633 9                      1606.898          23.000  
E21  25223375.829 9                      -706.520          15.000  
J 3  41305108.782 9                       493.886          20.000  
E26  25259690.762 9                       -78.291          21.000  
J 2  37555488.447 9                       327.112          18.000  
E27  27847622.810 9                     -2656.271          14.000  
G 6  23229252.243 9                      1227.516          23.000  
> 2021  5 21  6 29 56.0050000  0 11                     
G17  23333757.653 9                       830.586          24.000  
G14  21788993.566 9                      -355.099          22.000  
E 1  26821952.462 9                      1863.587          22.000  
G28  22128485.632 9                      1235.250          21.000  
G19  23648035.464 9                      1605.990          25.000  
E21  25223513.267 9                      -703.652          20.000  
J 3  41305013.679 9                       504.037          21.000  
E26  25259706.554 9                       -61.634          21.000  
J 2  37555427.127 9                       327.112          15.000  
E27  27848129.582 9                     -2656.271          11.000  
G 6  23229018.811 9                      1226.256          25.000  
> 2021  5 21  6 29 57.0050000  0 10                     
G17  23333600.043 9                       826.791          25.000  
G14  21789056.526 9                      -344.926          23.000  
E 1  26821595.936 9                      1868.713          23.000  
G28  22128251.380 9                      1235.947          22.000  
G19  23647729.387 9 124269655.81235      1598.994          26.000  
E21  25223647.093 9                      -721.770          22.000  
J 3  41304916.097 9                       498.535          22.000  
E26  25259717.967 9                       -81.455          22.000  
J 2  37555363.782 9                       327.112          11.000  
G 6  23228782.308 9                      1223.832          26.000  
> 2021  5 21  6 29 58.0050000  0  9                     
G17  23333442.170 8                       827.053          26.000  
G14  21789121.807 9                      -346.173          24.000  
E 1  26821242.831 9                      1857.854          25.000  
G28  22128014.703 9                      1238.431          24.000  
G19  23647424.322 8 124268057.94624      1596.540          27.000  
E21  25223782.751 9                      -721.600          24.000  
J 3  41304819.266 9                       506.408          22.000  
E26  25259731.875 9                       -83.443          23.000  
G 6  23228549.924 9 122066852.92935      1221.525          27.000  
> 2021  5 21  6 29 59.0050000  0  9                     
G17  23333284.804 8 122617240.30535       823.846          26.000  
G14  21789189.881 9                      -349.871          23.000  
E 1  26820890.756 9                      1854.416          24.000  
G28  22127778.689 9                      1233.555          24.000  
G19  23647120.182 9                      1594.472          26.000  
E21  25223919.944 9                      -706.381          24.000  
J 3  41304720.271 9                       516.040          22.000  
E26  25259748.732 9                       -85.486          24.000  
G 6  23228318.656 8 122065633.40024      1218.136          27.000  
> 2021  5 21  6 30  0.0050000  0  9                     
G17  23333126.513 8 122616416.52625       822.723          26.000  
G14  21789256.436 9                      -349.741          24.000  
E 1  26820537.371 9                      1853.552          24.000  
G28  22127542.413 9                      1238.184          24.000  
G19  23646817.334 9                      1592.436          26.000  
E21  25224057.156 9                      -710.152          24.000  
J 3  41304623.789 9                       506.724          22.000  
E26  25259764.768 9                       -83.201          24.000  
G 6  23228087.790 8 122064415.79424      1216.931          27.000  
> 2021  5 21  6 30  1.0050000  0  9                     
G17  23332970.439 8                       821.032          25.000  
G14  21789323.043 9                      -348.837          24.000  
E 1  26820185.296 9                      1851.755          24.000  
G28  22127308.598 9                      1240.295          24.000  
G19  23646514.590 8                      1590.686          26.000  
E21  25224193.564 9                      -714.587          24.000  
J 3  41304527.062 9                       496.250          21.000  
E26  25259780.718 9                       -87.039          25.000  
G 6  23227857.098 4 122063198.01724      1217.676          27.000  
> 2021  5 21  6 30  2.0050000  0 10                     
G17  23332814.120 4 122614766.28334       819.116          26.000  
G14  21789391.832 9 114504026.11235      -349.135          27.000  
E 1  26819835.070 9                      1848.833          25.000  
G28  22127072.636 9                      1236.593          25.000  
G19  23646211.323 8 124261678.51535      1587.298          27.000  
E21  25224330.147 9                      -712.263          26.000  
J 3  41304431.609 9                       513.256          23.000  
E26  25259795.690 9 132741132.50615       -88.326          27.000  
J 1  39019147.447 9                       175.171          21.000  
G 6  23227623.684 4 122061980.56423      1216.537          28.000  
> 2021  5 21  6 30  3.0050000  0 10                     
G17  23332655.270 4 122613947.90624       817.452          27.000  
G14  21789457.445 8 114504375.45723      -349.168          30.000  
E 1  26819483.779 8 140937348.62215      1846.069          27.000  
G28  22126837.197 9 116277313.86035      1235.616          26.000  
G19  23645908.718 8 124260093.09724      1583.947          28.000  
E21  25224462.768 9 132555456.08715      -712.469          27.000  
J 3  41304335.232 9 217055746.33335       505.713          29.000  
E26  25259810.732 8 132741222.098 4       -90.165          30.000  
J 1  39019113.245 9                       175.171          23.000  
G 6  23227393.131 4 122060765.46823      1214.096          30.000  
> 2021  5 21  6 30  4.0050000  0 11                     
G17  23332502.581 4 122613129.56223       818.884          28.000  
G14  21789524.052 8 114504725.14023      -350.320          29.000  
E 1  26819131.320 4 140935502.875 4      1844.991          27.000  
G28  22126602.283 8 116276079.28224      1234.371          27.000  
G19  23645608.313 4 124258508.82524      1584.716          28.000  
E21  25224598.234 8 132556168.483 4      -712.986          27.000  
J 3  41304241.890 9 217055239.82824       507.297          29.000  
E26  25259830.887 8 132741313.105 3       -91.655          30.000  
G 3  23843447.068 9                     -1610.702          25.000  
J 1  39019078.903 9                       175.171          25.000  
G 6  23227159.019 8 122059552.63623      1211.624          31.000  
> 2021  5 21  6 30  5.0050000  0 11                     
G17  23332348.984 4 122612308.58823       823.374          28.000  
G14  21789590.258 4 114505075.79223      -351.103          28.000  
E 1  26818779.803 4 140933656.758 4      1846.941          27.000  
G28  22126367.385 8 116274844.65125      1234.534          26.000  
G19  23645308.152 4 124256923.07224      1587.296          28.000  
E21  25224735.323 4 132556882.604 3      -714.199          26.000  
J 3  41304146.106 8 217054731.03424       509.875          28.000  
E26  25259849.978 8 132741403.782 3       -90.160          29.000  
G 3  23843754.349 9 125299774.67335     -1606.775          26.000  
J 1  39019045.538 9                       175.171          25.000  
G 6  23226932.131 8 122058341.86423      1210.759          29.000  
> 2021  5 21  6 30  6.0050000  0 11                     
G17  23332187.413 4 122611485.85823       822.385          29.000  
G14  21789651.683 4 114505427.14323      -352.158          28.000  
E 1  26818427.745 4 140931809.732 3      1846.503          28.000  
G28  22126133.901 4 116273609.78624      1234.091          27.000  
G19  23645000.400 4 124255335.56523      1587.400          29.000  
E21  25224872.604 4 132557597.735 3      -715.090          27.000  
J 3  41304051.334 8 217054220.82723       509.925          28.000  
E26  25259856.522 8 132741493.618 3       -89.841          28.000  
G 3  23844060.583 8 125301382.28624     -1608.134          28.000  
J 1  39019014.180 9                       175.171          25.000  
G 6  23226703.359 4 122057131.83823      1209.310          29.000  
> 2021  5 21  6 30  7.0050000  0 10                     
G17  23332030.378 4 122610663.17923       823.417          29.000  
G14  21789724.503 4 114505779.27323      -352.834          28.000  
E 1  26818076.193 4 140929963.233 3      1846.497          27.000  
G28  22125900.557 4 116272375.56124      1234.446          27.000  
G19  23644698.790 4 124253748.26223      1587.540          28.000  
E21  25225009.082 4 132558313.548 3      -715.942          26.000  
J 3  41303955.934 4 217053710.70624       509.710          28.000  
E26  25259873.832 8 132741583.837 3       -90.078          28.000  
G 3  23844370.778 8 125302990.64823     -1608.713          28.000  
G 6  23226471.742 4 122055921.78513      1210.156          29.000  
> 2021  5 21  6 30  8.0050000  0 11                     
G17  23331871.965 4 122609840.43023       823.202          29.000  
G14  21789794.339 4 114506131.87623      -352.663          28.000  
E 1  26817723.559 4 140928116.944 3      1846.427          28.000  
G28  22125669.656 4 116271141.76524      1233.652          27.000  
G19  23644399.083 4 124252160.85323      1587.728          29.000  
E21  25225144.374 4 132559029.632 4      -715.876          26.000  
J 3  41303860.411 4 217053200.26024       510.876          27.000  
E26  25259891.073 4 132741673.995 3       -90.008          28.000  
G 3  23844676.802 4 125304599.43923     -1609.296          28.000  
J 1  39018946.822 9                       171.135          26.000  
G 6  23226248.327 8 122054712.601 3      1209.609          29.000  
> 2021  5 21  6 30  9.0050000  0 12                     
G17  23331715.890 4 122609016.86023       823.606          30.000  
G14  21789864.977 4 114506484.33723      -352.302          28.000  
E 1  26817370.925 4 140926270.178 3      1847.477          27.000  
G28  22125436.486 4 116269907.71024      1233.868          27.000  
G19  23644097.787 4 124250572.68223      1588.468          29.000  
E21  25225280.416 4 132559745.396 4      -715.985          27.000  
J 3  41303762.411 4 217052688.94523       511.906          27.000  
E26  25259908.506 4 132741763.488 3       -88.909          28.000  
G 3  23844983.123 4 125306207.98623     -1608.841          28.000  
G22  26376144.623 9                     -2916.399          10.000  
J 1  39018915.324 9                       174.529          25.000  
G 6  23226009.853 4 122053502.970 3      1209.785          29.000  
> 2021  5 21  6 30 10.0050000  0 13                     
G17  23331562.660 8 122608193.43323       822.587          30.000  
G14  21789930.014 4 114506837.37024      -353.118          28.000  
E 1  26817020.036 4 140924424.005 3      1845.381          27.000  
G28  22125199.372 4 116268674.12124      1232.884          27.000  
G19  23643795.270 8 124248984.61923      1587.336          30.000  
E21  25225417.121 4 132560461.678 3      -716.673          26.000  
J 3  41303667.342 4 217052177.68523       510.720          27.000  
E26  25259932.046 4 132741853.263 3       -90.247          28.000  
G 3  23845280.998 4 125307817.20224     -1609.998          28.000  
J 2  37554458.186 9                       369.668          13.000  
