$GNVTG,,T,,M,0.012,N,0.023,K,D*3A
$GNGGA,062844.00,2218.09277,N,11411.41989,E,2,12,0.60,4.7,M,-1.6,M,,0000*5A
$GNGSA,A,3,14,30,06,19,28,03,17,50,,,,,1.25,0.60,1.10,1*03
$GNGSA,A,3,66,79,81,78,,,,,,,,,1.25,0.60,1.10,2*0A
$GNGSA,A,3,13,26,27,01,07,21,,,,,,,1.25,0.60,1.10,3*05
$GNGSA,A,3,13,07,10,25,21,24,08,12,11,,,,1.25,0.60,1.10,4*09
$GPGSV,3,1,10,02,15,249,30,03,37,057,39,06,45,265,40,14,83,151,43,1*6C
$GPGSV,3,2,10,17,47,359,38,19,36,326,37,28,75,330,39,30,21,200,32,1*6A
$GPGSV,3,3,10,41,46,238,38,50,60,149,37,1*6B
$GPGSV,2,1,05,03,37,057,37,06,45,265,37,14,83,151,41,17,47,359,34,6*65
$GPGSV,2,2,05,30,21,200,31,6*56
$GPGSV,2,1,07,01,11,042,,04,02,110,,07,00,169,,09,06,141,,0*62
$GPGSV,2,2,07,09,06,141,,22,13,042,,24,00,309,,0*51
$GLGSV,2,1,08,66,27,116,37,67,08,165,25,77,01,167,10,78,46,197,40,1*7E
$GLGSV,2,2,08,79,53,291,40,81,38,345,40,82,22,289,17,88,17,040,08,1*77
$GLGSV,2,1,06,66,27,116,31,78,46,197,35,79,53,291,33,81,38,345,33,3*78
$GLGSV,2,2,06,82,22,289,21,88,17,040,10,3*75
$GLGSV,1,1,02,65,15,052,,80,08,330,,0*7B
$GAGSV,2,1,06,01,43,314,33,07,15,133,33,13,36,029,35,21,75,208,36,2*75
$GAGSV,2,2,06,26,54,308,35,27,27,156,32,2*7B
$GAGSV,2,1,08,01,43,314,35,07,15,133,35,08,10,083,31,13,36,029,35,7*70
$GAGSV,2,2,08,14,17,083,32,21,75,208,40,26,54,308,38,27,27,156,34,7*7D
$GAGSV,1,1,01,33,21,259,,0*48
$GBGSV,2,1,08,07,75,121,40,08,74,311,38,10,75,328,38,11,44,328,38,1*7E
$GBGSV,2,2,08,13,61,253,38,21,37,095,41,24,30,185,39,25,46,258,40,1*77
$GBGSV,2,1,06,07,75,121,37,08,74,311,36,10,75,328,36,11,44,328,36,3*7C
$GBGSV,2,2,06,12,36,039,36,13,61,253,34,3*7D
$GBGSV,3,1,11,01,47,123,,02,47,236,,03,64,190,,04,33,109,,0*74
$GBGSV,3,2,11,04,33,109,,05,23,255,,06,05,174,,09,04,200,,0*72
$GBGSV,3,3,11,09,04,200,,16,04,180,,22,09,048,,0*47
$GNGLL,2218.09277,N,11411.41989,E,062844.00,A,D*75
$ÿ?ÿÿ²ðÿÿ?
$T?ÿÿÙýÿÿ?Q%P
$GNVTG,,T,,M,0.019,N,0.034,K,D*37
$GNGGA,062845.00,2218.09277,N,11411.41989,E,2,12,0.60,4.7,M,-1.6,M,,0000*5B
$GNGSA,A,3,14,30,06,19,28,03,17,50,,,,,1.25,0.60,1.10,1*03
$GNGSA,A,3,66,79,81,78,,,,,,,,,1.25,0.60,1.10,2*0A
$GNGSA,A,3,13,26,27,01,07,21,,,,,,,1.25,0.60,1.10,3*05
$GNGSA,A,3,13,07,10,25,21,24,08,12,11,,,,1.25,0.60,1.10,4*09
$GPGSV,3,1,10,02,15,249,30,03,37,057,39,06,45,265,40,14,83,151,43,1*6C
$GPGSV,3,2,10,17,47,359,38,19,36,326,37,28,75,330,39,30,21,200,31,1*69
$GPGSV,3,3,10,41,46,238,38,50,60,149,37,1*6B
$GPGSV,2,1,05,03,37,057,37,06,45,265,36,14,83,151,40,17,47,359,34,6*65
$GPGSV,2,2,05,30,21,200,31,6*56
$GPGSV,2,1,07,01,11,042,,04,02,110,,07,00,169,,09,06,141,,0*62
$GPGSV,2,2,07,09,06,141,,22,13,042,,24,00,309,,0*51
$GLGSV,2,1,08,66,27,116,37,67,08,165,25,77,01,167,11,78,46,197,40,1*7F
$GLGSV,2,2,08,79,53,291,40,81,38,345,41,82,22,289,17,88,17,040,09,1*77
$GLGSV,2,1,06,66,27,116,31,78,46,197,35,79,53,291,33,81,38,345,33,3*78
$GLGSV,2,2,06,82,22,289,21,88,17,040,10,3*75
$GLGSV,1,1,02,65,15,052,,80,08,330,,0*7B
$GAGSV,2,1,06,01,43,314,33,07,15,133,33,13,36,029,35,21,75,208,36,2*75
$GAGSV,2,2,06,26,54,308,35,27,27,156,32,2*7B
$GAGSV,2,1,08,01,43,314,35,07,15,133,35,08,10,083,32,13,36,029,35,7*73
$GAGSV,2,2,08,14,17,083,32,21,75,208,40,26,54,308,38,27,27,156,34,7*7D
$GAGSV,1,1,01,33,21,259,,0*48
$GBGSV,2,1,08,07,75,121,40,08,74,311,38,10,75,328,38,11,44,328,38,1*7E
$GBGSV,2,2,08,13,61,253,38,21,37,095,41,24,30,185,39,25,46,258,40,1*77
$GBGSV,2,1,06,07,75,121,37,08,74,311,36,10,75,328,36,11,44,328,36,3*7C
$GBGSV,2,2,06,12,36,039,35,13,61,253,34,3*7E
$GBGSV,3,1,11,01,47,123,,02,47,236,,03,64,190,,04,33,109,,0*74
$GBGSV,3,2,11,04,33,109,,05,23,255,,06,05,174,,09,04,200,,0*72
$GBGSV,3,3,11,09,04,200,,16,04,180,,22,09,048,,0*47
$GNGLL,2218.09277,N,11411.41989,E,062845.00,A,D*74
$?#\ŠÞ†~¿i
$ÿ?ÿÿ²ðÿÿ?
$R?ÿÿ×ýÿÿ?äP
$BV?-
$GNVTG,,T,,M,0.018,N,0.033,K,D*31
$GNGGA,062846.00,2218.09277,N,11411.41989,E,2,12,0.60,4.7,M,-1.6,M,,0000*58
$GNGSA,A,3,14,30,06,19,28,03,17,50,,,,,1.25,0.60,1.10,1*03
$GNGSA,A,3,66,79,81,78,,,,,,,,,1.25,0.60,1.10,2*0A
$GNGSA,A,3,13,26,27,01,07,21,,,,,,,1.25,0.60,1.10,3*05
$GNGSA,A,3,13,07,10,25,21,24,08,12,11,,,,1.25,0.60,1.10,4*09
$GPGSV,3,1,10,02,15,249,30,03,37,057,39,06,45,265,40,14,83,151,42,1*6D
$GPGSV,3,2,10,17,47,359,38,19,36,326,37,28,75,330,39,30,21,200,31,1*69
$GPGSV,3,3,10,41,46,238,38,50,60,149,37,1*6B
$GPGSV,2,1,05,03,37,057,36,06,45,265,36,14,83,151,40,17,47,359,34,6*64
$GPGSV,2,2,05,30,21,200,30,6*57
$GPGSV,2,1,07,01,11,042,,04,02,110,,07,00,169,,09,06,141,,0*62
$GPGSV,2,2,07,09,06,141,,22,13,042,,24,00,309,,0*51
$GLGSV,2,1,08,66,27,116,37,67,08,165,24,77,01,167,06,78,46,197,40,1*78
$GLGSV,2,2,08,79,53,291,40,81,38,345,40,82,22,289,19,88,17,040,10,1*70
$GLGSV,2,1,06,66,27,116,31,78,46,197,35,79,53,291,33,81,38,345,33,3*78
$GLGSV,2,2,06,82,22,289,20,88,17,040,10,3*74
$GLGSV,1,1,02,65,15,052,,80,08,330,,0*7B
$GAGSV,2,1,06,01,43,314,33,07,15,133,33,13,36,029,35,21,75,208,36,2*75
$GAGSV,2,2,06,26,54,308,35,27,27,156,32,2*7B
$GAGSV,2,1,08,01,43,314,35,07,15,133,35,08,10,083,32,13,36,029,35,7*73
$GAGSV,2,2,08,14,17,083,32,21,75,208,41,26,54,308,38,27,27,156,34,7*7C
$GAGSV,1,1,01,33,21,259,,0*48
$GBGSV,2,1,08,07,75,121,40,08,74,311,38,10,75,328,38,11,44,328,38,1*7E
$GBGSV,2,2,08,13,61,253,38,21,37,095,41,24,30,185,39,25,46,258,41,1*76
$GBGSV,2,1,06,07,75,121,37,08,74,311,36,10,75,328,36,11,44,328,36,3*7C
$GBGSV,2,2,06,12,36,039,36,13,61,253,35,3*7C
$GBGSV,3,1,11,01,47,123,,02,47,236,,03,64,190,,04,33,109,,0*74
$GBGSV,3,2,11,04,33,109,,05,23,255,,06,05,174,,09,04,200,,0*72
$GBGSV,3,3,11,09,04,200,,16,04,180,,22,09,048,,0*47
$GNGLL,2218.09277,N,11411.41989,E,062846.00,A,D*77
$Q?ÿÿ×ýÿÿ??¤Q
$BV?
$GNVTG,,T,,M,0.008,N,0.015,K,D*34
$GNGGA,062847.00,2218.09277,N,11411.41988,E,2,12,0.60,4.7,M,-1.6,M,,0000*58
$GNGSA,A,3,14,30,06,19,28,03,17,50,,,,,1.25,0.60,1.10,1*03
$GNGSA,A,3,66,79,81,78,,,,,,,,,1.25,0.60,1.10,2*0A
$GNGSA,A,3,13,26,27,01,07,21,,,,,,,1.25,0.60,1.10,3*05
$GNGSA,A,3,13,07,10,25,21,24,08,12,11,,,,1.25,0.60,1.10,4*09
$GPGSV,3,1,10,02,15,249,30,03,37,057,39,06,45,265,40,14,83,151,43,1*6C
$GPGSV,3,2,10,17,47,359,38,19,36,326,37,28,75,330,39,30,21,200,30,1*68
$GPGSV,3,3,10,41,46,238,38,50,60,149,37,1*6B
$GPGSV,2,1,05,03,37,057,36,06,45,265,37,14,83,151,40,17,47,359,34,6*65
$GPGSV,2,2,05,30,21,200,31,6*56
$GPGSV,2,1,07,01,11,042,,04,02,110,,07,00,169,,09,06,141,,0*62
$GPGSV,2,2,07,09,06,141,,22,13,042,,24,00,309,,0*51
$GLGSV,2,1,08,66,27,116,38,67,08,165,24,77,01,167,08,78,46,197,41,1*78
$GLGSV,2,2,08,79,53,291,41,81,38,345,40,82,22,289,19,88,17,040,09,1*79
$GLGSV,2,1,06,66,27,116,31,78,46,197,35,79,53,291,34,81,38,345,33,3*7F
$GLGSV,2,2,06,82,22,289,20,88,17,040,08,3*7D
$GLGSV,1,1,02,65,15,052,,80,08,330,,0*7B
$GAGSV,2,1,06,01,43,314,33,07,15,133,33,13,36,029,35,21,75,208,36,2*75
$GAGSV,2,2,06,26,54,308,35,27,27,156,32,2*7B
$GAGSV,2,1,08,01,43,314,35,07,15,133,35,08,10,083,32,13,36,029,35,7*73
$GAGSV,2,2,08,14,17,083,32,21,75,208,40,26,54,308,38,27,27,156,34,7*7D
$GAGSV,1,1,01,33,21,259,,0*48
$GBGSV,2,1,08,07,75,121,40,08,74,311,38,10,75,328,38,11,44,328,38,1*7E
$GBGSV,2,2,08,13,61,253,38,21,37,095,41,24,30,185,39,25,46,258,41,1*76
$GBGSV,2,1,06,07,75,121,37,08,74,311,36,10,75,328,36,11,44,328,36,3*7C
$GBGSV,2,2,06,12,36,039,36,13,61,253,34,3*7D
$GBGSV,3,1,11,01,47,123,,02,47,236,,03,64,190,,04,33,109,,0*74
$GBGSV,3,2,11,04,33,109,,05,23,255,,06,05,174,,09,04,200,,0*72
$GBGSV,3,3,11,09,04,200,,16,04,180,,22,09,048,,0*47
$GNGLL,2218.09277,N,11411.41988,E,062847.00,A,D*77
$ÿZv?ÿûc?H
$þìÿÿ±ðÿÿ?
$R?ÿÿ×ýÿÿ??
$GNVTG,,T,,M,0.002,N,0.004,K,D*3E
$GNGGA,062848.00,2218.09276,N,11411.41987,E,2,12,0.60,4.7,M,-1.6,M,,0000*59
$GNGSA,A,3,14,30,06,19,28,03,17,50,,,,,1.25,0.60,1.10,1*03
$GNGSA,A,3,66,79,81,78,,,,,,,,,1.25,0.60,1.10,2*0A
$GNGSA,A,3,13,07,10,25,21,24,08,12,11,,,,1.25,0.60,1.10,4*09
$GPGSV,3,1,10,02,15,249,30,03,37,057,39,06,45,265,40,14,83,151,43,1*6C
$GPGSV,3,2,10,17,47,359,38,19,36,326,37,28,75,330,39,30,21,200,30,1*68
$GPGSV,3,3,10,41,46,238,38,50,60,149,37,1*6B
$GPGSV,2,1,05,03,37,057,36,06,45,265,36,14,83,151,40,17,47,359,35,6*65
$GPGSV,2,2,05,30,21,200,31,6*56
$GPGSV,2,1,07,01,11,042,,04,02,110,,07,00,169,,09,06,141,,0*62
$GPGSV,2,2,07,09,06,141,,22,13,042,,24,00,309,,0*51
$GLGSV,2,1,08,66,27,116,37,67,08,165,25,77,01,167,09,78,46,197,41,1*77
$GLGSV,2,2,08,79,53,291,41,81,38,345,40,82,22,289,19,88,17,040,10,1*71
$GLGSV,2,1,06,66,27,116,31,78,46,197,35,79,53,291,34,81,38,345,33,3*7F
$GLGSV,2,2,06,82,22,289,19,88,17,040,10,3*7E
$GLGSV,1,1,02,65,15,052,,80,08,330,,0*7B
$GAGSV,2,1,06,01,43,314,33,07,15,133,33,13,36,029,35,21,75,208,36,2*75
$GAGSV,2,2,06,26,54,308,35,27,27,156,32,2*7B
$GAGSV,2,1,08,01,43,314,35,07,15,133,35,08,10,083,32,13,36,029,35,7*73
$GAGSV,2,2,08,14,17,083,32,21,75,208,40,26,54,308,38,27,27,156,34,7*7D
$GAGSV,1,1,01,33,21,259,,0*48
$GBGSV,2,1,08,07,75,121,40,08,74,311,38,10,75,328,38,11,44,328,38,1*7E
$GBGSV,2,1,06,07,75,121,37,08,74,311,36,10,75,328,36,11,44,328,36,3*7C
$GBGSV,2,2,06,12,36,039,36,13,61,253,34,3*7D
$GBGSV,3,1,11,01,47,123,,02,47,236,,03,64,190,,04,33,109,,0*74
$GBGSV,3,2,11,04,33,109,,05,23,255,,06,05,174,,09,04,200,,0*72
$GBGSV,3,3,11,09,04,200,,16,04,180,,22,09,048,,0*47
$GNGLL,2218.09276,N,11411.41987,E,062848.00,A,D*76
$ªÀ"àa%ê@?
$Q?ÿÿÖýÿÿ?O$S
$BVøì?
$GNVTG,,T,,M,0.087,N,0.161,K,D*31
$GNGGA,062849.00,2218.09277,N,11411.41985,E,2,12,0.60,4.7,M,-1.6,M,,0000*5B
$GNGSA,A,3,14,30,06,19,28,03,17,50,,,,,1.25,0.60,1.10,1*03
$GNGSA,A,3,66,79,81,78,,,,,,,,,1.25,0.60,1.10,2*0A
$GNGSA,A,3,13,26,27,01,07,21,,,,,,,1.25,0.60,1.10,3*05
$GNGSA,A,3,13,07,10,25,21,24,08,12,11,,,,1.25,0.60,1.10,4*09
$GPGSV,3,1,10,02,15,249,31,03,37,057,39,06,45,265,41,14,83,151,43,1*6C
$GPGSV,3,2,10,17,47,359,38,19,36,326,37,28,75,330,39,30,21,200,31,1*69
$GPGSV,3,3,10,41,46,238,38,50,60,149,37,1*6B
$GPGSV,2,1,05,03,37,057,36,06,45,265,36,14,83,151,40,17,47,359,35,6*65
$GPGSV,2,2,05,30,21,200,30,6*57
$GPGSV,2,1,07,01,11,042,,04,02,110,,07,00,169,,09,06,141,,0*62
$GPGSV,2,2,07,09,06,141,,22,13,042,,24,00,309,,0*51
$GLGSV,2,1,08,66,27,116,37,67,08,165,27,77,01,167,12,78,46,197,41,1*7F
$GLGSV,2,2,08,79,53,291,41,81,38,345,41,82,22,289,20,88,17,040,09,1*72
$GLGSV,2,1,06,66,27,116,31,78,46,197,35,79,53,291,34,81,38,345,33,3*7F
$GLGSV,2,2,06,82,22,289,20,88,17,040,09,3*7C
$GLGSV,1,1,02,65,15,052,,80,08,330,,0*7B
$GAGSV,2,1,06,01,43,314,33,07,15,132,33,13,36,029,35,21,75,208,36,2*74
$GAGSV,2,2,06,26,54,308,35,27,27,156,32,2*7B
$GAGSV,2,1,08,01,43,314,35,07,15,132,35,08,10,083,31,13,36,029,35,7*71
$GAGSV,2,2,08,14,17,083,32,21,75,208,40,26,54,308,38,27,27,156,34,7*7D
$GAGSV,1,1,01,33,21,259,,0*48
$GBGSV,2,1,08,07,75,121,40,08,74,311,38,10,75,328,38,11,44,328,38,1*7E
$GBGSV,2,2,08,13,61,253,38,21,37,095,41,24,30,185,39,25,46,258,41,1*76
$GBGSV,2,1,06,07,75,121,37,08,74,311,36,10,75,328,36,11,44,328,36,3*7C
$GBGSV,2,2,06,12,36,039,36,13,61,253,34,3*7D
$GBGSV,3,1,11,01,47,123,,02,47,236,,03,64,190,,04,33,109,,0*74
$GBGSV,3,2,11,04,33,109,,05,23,255,,06,05,174,,09,04,200,,0*72
$GBGSV,3,3,11,09,04,200,,16,04,180,,22,09,048,,0*47
$GNGLL,2218.09277,N,11411.41985,E,062849.00,A,D*74
$"##"""!!
$üìÿÿ°ðÿÿ?
$Q?ÿÿ×ýÿÿ?äS
$b?ÿÿB?ÿÿ?O?
$GNVTG,298.78,T,,M,0.830,N,1.538,K,D*2E
$GNGGA,062850.00,2218.09285,N,11411.41968,E,2,12,0.60,4.6,M,-1.6,M,,0000*5C
$GNGSA,A,3,14,30,06,19,28,03,17,50,,,,,1.25,0.60,1.10,1*03
$GNGSA,A,3,66,79,81,78,,,,,,,,,1.25,0.60,1.10,2*0A
$GNGSA,A,3,13,26,27,01,07,21,,,,,,,1.25,0.60,1.10,3*05
$GNGSA,A,3,13,07,10,25,21,24,08,12,11,,,,1.25,0.60,1.10,4*09
$GPGSV,3,1,10,02,15,249,30,03,37,057,38,06,45,265,41,14,83,151,42,1*6D
$GPGSV,3,2,10,17,47,359,38,19,36,326,37,28,75,330,39,30,21,200,32,1*6A
$GPGSV,3,3,10,41,46,238,40,50,60,149,37,1*64
$GPGSV,2,1,05,03,37,057,36,06,45,265,36,14,83,151,40,17,47,359,34,6*64
$GPGSV,2,2,05,30,21,200,31,6*56
$GPGSV,2,1,07,01,11,042,,04,02,110,,07,00,169,,09,06,141,,0*62
$GPGSV,2,2,07,09,06,141,,22,13,042,,24,00,309,,0*51
$GLGSV,2,1,08,66,27,116,38,67,08,165,28,77,01,167,10,78,46,197,41,1*7D
$GLGSV,2,2,08,79,53,291,40,81,38,345,40,82,22,289,21,88,17,040,11,1*7A
$GLGSV,2,1,06,66,27,116,32,78,46,197,34,79,53,291,33,81,38,345,33,3*7A
$GLGSV,2,2,06,82,22,289,20,88,17,040,10,3*74
$GLGSV,1,1,02,65,15,052,,80,08,330,,0*7B
$GAGSV,2,1,06,01,43,314,33,07,15,132,32,13,36,029,35,21,75,208,36,2*75
$GAGSV,2,2,06,26,54,308,35,27,27,156,31,2*78
$GAGSV,2,1,08,01,43,314,35,07,15,132,35,08,10,083,32,13,36,029,36,7*71
$GAGSV,2,2,08,14,17,083,32,21,75,208,40,26,54,308,39,27,27,156,34,7*7C
$GAGSV,1,1,01,33,21,259,,0*48
$GBGSV,2,1,08,07,75,121,40,08,74,311,38,10,75,328,38,11,44,328,38,1*7E
$GBGSV,2,2,08,13,61,253,38,21,37,095,39,24,30,185,38,25,46,258,41,1*78
$GBGSV,2,1,06,07,75,121,37,08,74,311,36,10,75,328,36,11,44,328,36,3*7C
$GBGSV,2,2,06,12,36,039,35,13,61,253,35,3*7F
$GBGSV,3,1,11,01,47,123,,02,47,236,,03,64,190,,04,33,109,,0*74
$GBGSV,3,2,11,04,33,109,,05,23,255,,06,05,174,,09,04,200,,0*72
$GBGSV,3,3,11,09,04,200,,16,04,180,,22,09,048,,0*47
$GNGLL,2218.09285,N,11411.41968,E,062850.00,A,D*72
$!##""
$P?ÿÿÖýÿÿ??¤T
$]?ÿÿ=?ÿÿ?
$GNVTG,290.38,T,,M,1.520,N,2.815,K,D*2E
$GNGGA,062851.00,2218.09299,N,11411.41932,E,2,12,0.60,4.6,M,-1.6,M,,0000*5F
$GNGSA,A,3,14,30,06,19,28,03,17,50,,,,,1.25,0.60,1.10,1*03
$GNGSA,A,3,66,79,81,78,,,,,,,,,1.25,0.60,1.10,2*0A
$GNGSA,A,3,13,26,27,01,07,21,,,,,,,1.25,0.60,1.10,3*05
$GNGSA,A,3,13,07,10,25,21,24,08,12,11,,,,1.25,0.60,1.10,4*09
$GPGSV,3,1,10,02,15,249,31,03,37,057,37,06,45,265,38,14,83,151,42,1*6D
$GPGSV,3,2,10,17,47,359,38,19,36,326,38,28,75,330,39,30,21,200,33,1*64
$GPGSV,3,3,10,41,46,238,39,50,60,149,37,1*6A
$GPGSV,2,1,05,03,37,057,35,06,45,265,35,14,83,151,40,17,47,359,33,6*63
$GPGSV,2,2,05,30,21,200,32,6*55
$GPGSV,2,1,07,01,11,042,,04,02,110,,07,00,169,,09,06,141,,0*62
$GPGSV,2,2,07,09,06,141,,22,13,042,,24,00,309,,0*51
$GLGSV,2,1,08,66,27,116,38,67,08,165,27,77,01,167,09,78,46,197,38,1*74
$GLGSV,2,2,08,79,53,291,41,81,38,345,40,82,22,289,23,88,17,040,08,1*71
$GLGSV,2,1,06,66,27,116,32,78,46,197,34,79,53,291,33,81,38,345,32,3*7B
$GLGSV,2,2,06,82,22,289,19,88,17,040,08,3*77
$GLGSV,1,1,02,65,15,052,,80,08,330,,0*7B
$GAGSV,2,1,06,01,43,314,34,07,15,132,31,13,36,029,35,21,75,208,36,2*71
$GAGSV,2,2,06,26,54,308,35,27,27,156,33,2*7A
$GAGSV,2,1,08,01,43,314,36,07,15,132,35,08,10,083,31,13,36,029,36,7*71
$GAGSV,2,2,08,14,17,083,33,21,75,208,40,26,54,308,39,27,27,156,34,7*7D
$GAGSV,1,1,01,33,21,259,,0*48
$GBGSV,2,1,08,07,75,121,40,08,74,311,38,10,75,328,38,11,44,328,39,1*7F
$GBGSV,2,2,08,13,61,253,39,21,37,095,38,24,30,185,38,25,46,258,41,1*78
$GBGSV,2,1,06,07,75,121,37,08,74,311,36,10,75,328,36,11,44,328,36,3*7C
$GBGSV,2,2,06,12,36,039,36,13,61,253,34,3*7D
$GBGSV,3,1,11,01,47,123,,02,47,236,,03,64,190,,04,33,109,,0*74
$GBGSV,3,2,11,04,33,109,,05,23,255,,06,05,174,,09,04,200,,0*72
$GBGSV,3,3,11,09,04,200,,16,04,180,,22,09,048,,0*47
$GNGLL,2218.09299,N,11411.41932,E,062851.00,A,D*71
$PõZUUUUUUUU
$?ÿÿ´ðÿÿ?
$T?ÿÿÙýÿÿ??eU
$Y?ÿÿ9?ÿÿ??R?
$GNVTG,281.04,T,,M,2.246,N,4.159,K,D*22
$GNGGA,062852.00,2218.09312,N,11411.41873,E,2,12,0.60,4.6,M,-1.6,M,,0000*5A
$GNGSA,A,3,14,30,06,19,28,03,17,50,,,,,1.25,0.60,1.10,1*03
$GNGSA,A,3,66,79,81,78,,,,,,,,,1.25,0.60,1.10,2*0A
$GNGSA,A,3,13,26,27,01,07,21,,,,,,,1.25,0.60,1.10,3*05
$GNGSA,A,3,13,07,10,25,21,24,08,12,11,,,,1.25,0.60,1.10,4*09
$GPGSV,3,1,10,02,15,249,30,03,37,057,38,06,45,265,37,14,83,151,42,1*6C
$GPGSV,3,2,10,17,47,359,38,19,36,326,38,28,75,330,39,30,21,200,32,1*65
$GPGSV,3,3,10,41,46,238,40,50,60,149,37,1*64
$GPGSV,2,1,05,03,37,057,36,06,45,265,34,14,83,151,40,17,47,359,33,6*61
$GPGSV,2,2,05,30,21,200,32,6*55
$GPGSV,2,1,07,01,11,042,,04,02,110,,07,00,169,,09,06,141,,0*62
$GPGSV,2,2,07,09,06,141,,22,13,042,,24,00,309,,0*51
$GLGSV,2,1,08,66,27,116,39,67,08,165,26,77,01,167,08,78,46,197,39,1*74
$GLGSV,2,2,08,79,53,291,41,81,38,345,40,82,22,289,26,88,17,040,07,1*7B
$GLGSV,2,1,06,66,27,116,31,78,46,197,34,79,53,291,33,81,38,345,33,3*79
$GLGSV,2,2,06,82,22,289,19,88,17,040,08,3*77
$GLGSV,1,1,02,65,15,052,,80,08,330,,0*7B
$GAGSV,2,1,06,01,43,314,34,07,15,132,30,13,36,029,35,21,75,208,36,2*70
$GAGSV,2,2,06,26,54,308,36,27,27,156,33,2*79
$GAGSV,2,1,08,01,43,314,37,07,15,132,34,08,10,083,31,13,36,029,36,7*71
$GAGSV,2,2,08,14,17,083,34,21,75,208,40,26,54,308,39,27,27,156,35,7*7B
$GAGSV,1,1,01,33,21,259,,0*48
$GBGSV,2,1,08,07,75,121,40,08,74,311,38,10,75,328,38,11,44,328,38,1*7E
$GBGSV,2,2,08,13,61,253,40,21,37,095,40,24,30,185,38,25,46,258,40,1*78
$GBGSV,2,1,06,07,75,121,37,08,74,311,36,10,75,328,36,11,44,328,37,3*7D
$GBGSV,2,2,06,12,36,039,37,13,61,253,34,3*7C
$GBGSV,3,1,11,01,47,123,,02,47,236,,03,64,190,,04,33,109,,0*74
$GBGSV,3,2,11,04,33,109,,05,23,255,,06,05,174,,09,04,200,,0*72
$GBGSV,3,3,11,09,04,200,,16,04,180,,22,09,048,,0*47
$GNGLL,2218.09312,N,11411.41873,E,062852.00,A,D*74
$?ÿÿ´ðÿÿ?
$U?ÿÿÚýÿÿ?N
$]?ÿÿ=?ÿÿ??ù¶
$GNVTG,282.75,T,,M,2.701,N,5.002,K,D*2F
$GNGGA,062853.00,2218.09327,N,11411.41797,E,2,12,0.60,4.5,M,-1.6,M,,0000*5B
$GNGSA,A,3,14,30,06,19,28,03,17,50,,,,,1.25,0.60,1.10,1*03
$GNGSA,A,3,66,79,81,78,,,,,,,,,1.25,0.60,1.10,2*0A
$GNGSA,A,3,13,26,27,01,07,21,,,,,,,1.25,0.60,1.10,3*05
$GNGSA,A,3,13,07,10,25,21,24,08,12,11,,,,1.25,0.60,1.10,4*09
$GPGSV,3,1,10,02,15,249,29,03,37,057,38,06,45,265,37,14,83,151,42,1*64
$GPGSV,3,2,10,17,47,359,38,19,36,326,38,28,75,330,39,30,21,200,32,1*65
$GPGSV,3,3,10,41,46,238,39,50,60,149,37,1*6A
$GPGSV,2,1,05,03,37,057,36,06,45,265,34,14,83,151,40,17,47,359,33,6*61
$GPGSV,2,2,05,30,21,200,32,6*55
$GPGSV,2,1,07,01,11,042,,04,02,110,,07,00,169,,09,06,141,,0*62
$GPGSV,2,2,07,09,06,141,,22,13,042,,24,00,309,,0*51
$GLGSV,2,1,08,66,27,116,39,67,08,165,26,77,01,167,10,78,46,197,39,1*7D
$GLGSV,2,2,08,79,53,291,41,81,38,345,40,82,22,289,27,88,17,040,09,1*74
$GLGSV,2,1,06,66,27,116,32,78,46,197,34,79,53,291,33,81,38,345,33,3*7A
$GLGSV,2,2,06,82,22,289,20,88,17,040,08,3*7D
$GLGSV,1,1,02,65,15,052,,80,08,330,,0*7B
$GAGSV,2,1,06,01,43,314,34,07,15,132,30,13,36,029,35,21,75,208,36,2*70
$GAGSV,2,2,06,26,54,308,36,27,27,156,33,2*79
$GAGSV,2,1,08,01,43,314,37,07,15,132,34,08,10,083,30,13,36,029,36,7*70
$GAGSV,2,2,08,14,17,083,33,21,75,208,40,26,54,308,39,27,27,156,34,7*7D
$GAGSV,1,1,01,33,21,259,,0*48
$GBGSV,2,1,08,07,75,121,40,08,74,311,37,10,75,328,38,11,44,328,38,1*71
$GBGSV,2,2,08,13,61,253,40,21,37,095,39,24,30,185,38,25,46,258,40,1*76
$GBGSV,2,1,06,07,75,121,37,08,74,311,36,10,75,328,36,11,44,328,37,3*7D
$GBGSV,2,2,06,12,36,039,37,13,61,253,34,3*7C
$GBGSV,3,1,11,01,47,123,,02,47,236,,03,64,190,,04,33,109,,0*74
$GBGSV,3,2,11,04,33,109,,05,23,255,,06,05,174,,09,04,200,,0*72
$GBGSV,3,3,11,09,04,200,,16,04,180,,22,09,048,,0*47
$GNGLL,2218.09327,N,11411.41797,E,062853.00,A,D*76
$V?ÿÿÛýÿÿ?âV
$c?ÿÿD?ÿÿ??ŸÂ
$GNVTG,299.73,T,,M,2.629,N,4.870,K,D*24
$GNGGA,062854.00,2218.09357,N,11411.41725,E,2,12,0.60,4.5,M,-1.6,M,,0000*52
$GNGSA,A,3,14,30,06,19,28,03,17,50,,,,,1.25,0.60,1.10,1*03
$GNGSA,A,3,66,79,81,78,,,,,,,,,1.25,0.60,1.10,2*0A
$GNGSA,A,3,13,26,27,01,07,21,,,,,,,1.25,0.60,1.10,3*05
$GNGSA,A,3,13,07,10,25,21,24,08,12,11,,,,1.25,0.60,1.10,4*09
$GPGSV,3,2,10,17,47,359,38,19,36,326,37,28,75,330,39,30,21,200,32,1*6A
$GPGSV,3,3,10,41,46,238,38,50,60,149,37,1*6B
$GPGSV,2,1,05,03,37,057,33,06,45,265,34,14,83,151,39,17,47,359,33,6*6A
$GPGSV,2,1,07,01,11,042,,04,02,110,,07,00,169,,09,06,141,,0*62
$GPGSV,2,2,07,09,06,141,,22,13,042,,24,00,309,,0*51
$GLGSV,2,1,08,66,27,116,39,67,08,165,27,77,01,167,10,78,46,197,40,1*72
$GLGSV,2,2,08,79,53,291,41,81,38,345,39,82,22,289,26,88,17,040,11,1*72
$GLGSV,2,1,06,66,27,116,32,78,46,197,34,79,53,291,33,81,38,345,32,3*7B
$GLGSV,2,2,06,82,22,289,19,88,17,040,08,3*77
$GLGSV,1,1,02,65,15,052,,80,08,330,,0*7B
$GAGSV,2,1,06,01,43,314,34,07,15,132,35,13,35,029,35,21,75,208,36,2*76
$GAGSV,2,2,06,26,54,308,35,27,27,156,32,2*7B
$GAGSV,2,1,08,01,43,314,36,07,15,132,34,08,10,083,30,13,35,029,36,7*72
$GAGSV,2,2,08,14,17,083,34,21,75,208,40,26,54,308,39,27,27,156,34,7*7A
$GAGSV,1,1,01,33,21,259,,0*48
$GBGSV,2,1,08,07,75,121,40,08,74,311,38,10,75,328,38,11,44,328,38,1*7E
$GBGSV,2,2,08,13,61,253,39,21,37,095,39,24,30,185,37,25,46,258,42,1*75
$GBGSV,2,1,06,07,75,121,37,08,74,311,36,10,75,328,36,11,44,328,36,3*7C
$GBGSV,2,2,06,12,36,039,36,13,61,253,34,3*7D
$GBGSV,3,1,11,01,47,123,,02,47,236,,03,64,190,,04,33,109,,0*74
$GBGSV,3,2,11,04,33,109,,05,23,255,,06,05,174,,09,04,200,,0*72
$GBGSV,3,3,11,09,04,200,,16,04,180,,22,09,048,,0*47
$GNGLL,2218.09357,N,11411.41725,E,062854.00,A,D*7F
$ªÀ"<?%Xht
$?ÿÿ¶ðÿÿ?
$Y?ÿÿÝýÿÿ??¡W
$GNVTG,318.18,T,,M,2.919,N,5.406,K,D*21
$GNGGA,062855.00,2218.09410,N,11411.41664,E,2,12,0.60,4.5,M,-1.6,M,,0000*53
$GNGSA,A,3,14,30,06,19,28,03,17,50,,,,,1.25,0.60,1.10,1*03
$GNGSA,A,3,66,79,81,78,,,,,,,,,1.25,0.60,1.10,2*0A
$GNGSA,A,3,13,26,27,01,07,21,,,,,,,1.25,0.60,1.10,3*05
$GNGSA,A,3,13,07,10,25,21,24,08,12,11,,,,1.25,0.60,1.10,4*09
$GPGSV,3,1,10,02,15,249,34,03,37,057,36,06,45,265,39,14,83,151,42,1*68
$GPGSV,3,2,10,17,47,359,39,19,36,326,36,28,75,330,39,30,21,200,34,1*6C
$GPGSV,3,3,10,41,46,238,38,50,60,149,37,1*6B
$GPGSV,2,1,05,03,37,057,32,06,45,265,35,14,83,151,39,17,47,359,33,6*6A
$GPGSV,2,2,05,30,21,200,32,6*55
$GPGSV,2,1,07,01,11,042,,04,02,110,,07,00,169,,09,06,141,,0*62
$GPGSV,2,2,07,09,06,141,,22,13,042,,24,00,309,,0*51
$GLGSV,2,1,08,66,27,116,37,67,08,165,28,77,01,167,09,78,46,197,40,1*7B
$GLGSV,2,2,08,79,53,291,42,81,38,345,40,82,22,289,24,88,17,040,11,1*7D
$GLGSV,2,1,06,66,27,116,31,78,46,197,36,79,53,291,34,81,38,345,32,3*7D
$GLGSV,2,2,06,82,22,289,20,88,17,040,07,3*72
$GLGSV,1,1,02,65,15,052,,80,08,330,,0*7B
$GAGSV,2,1,06,01,43,314,33,07,15,132,34,13,35,029,35,21,75,208,36,2*70
$GAGSV,2,2,06,26,54,308,35,27,27,156,32,2*7B
$GAGSV,2,1,08,01,43,314,36,07,15,132,33,08,10,083,31,13,35,029,35,7*77
$GAGSV,2,2,08,14,17,084,33,21,75,208,40,26,54,308,38,27,27,156,34,7*7B
$GAGSV,1,1,01,33,21,259,,0*48
$GBGSV,2,1,08,07,75,121,40,08,74,311,38,10,75,328,38,11,44,328,36,1*70
$GBGSV,2,2,08,13,61,253,38,21,37,095,39,24,30,185,38,25,46,258,40,1*79
$GBGSV,2,1,06,07,75,121,37,08,74,311,36,10,75,328,36,11,44,328,36,3*7C
$GBGSV,2,2,06,12,36,039,37,13,61,253,34,3*7C
$GBGSV,3,1,11,01,47,123,,02,47,236,,03,64,190,,04,33,109,,0*74
$GBGSV,3,2,11,04,33,109,,05,23,255,,06,05,174,,09,04,200,,0*72
$GBGSV,3,3,11,09,04,200,,16,04,180,,22,09,048,,0*47
$GNGLL,2218.09410,N,11411.41664,E,062855.00,A,D*7E
$pUU?
$?ÿÿµðÿÿÿ
$X?ÿÿÝýÿÿ??`X
$t?ÿÿV?ÿÿ?6äÙ
$GNVTG,326.40,T,,M,3.158,N,5.849,K,D*2A
$GNGGA,062856.00,2218.09480,N,11411.41610,E,2,12,0.60,4.5,M,-1.6,M,,0000*5A
$GNGSA,A,3,14,30,06,19,28,03,17,50,,,,,1.25,0.60,1.10,1*03
$GNGSA,A,3,66,79,81,78,,,,,,,,,1.25,0.60,1.10,2*0A
$GNGSA,A,3,13,26,27,01,07,21,,,,,,,1.25,0.60,1.10,3*05
$GNGSA,A,3,13,07,10,25,21,24,08,12,11,,,,1.25,0.60,1.10,4*09
$GPGSV,3,1,10,02,15,249,36,03,37,057,33,06,45,265,38,14,83,151,43,1*6F
$GPGSV,3,2,10,17,47,359,38,19,36,326,35,28,75,330,39,30,21,200,34,1*6E
$GPGSV,3,3,10,41,46,238,38,50,60,149,38,1*64
$GPGSV,2,1,05,03,37,057,32,06,45,265,36,14,83,151,40,17,47,359,33,6*67
$GPGSV,2,2,05,30,21,200,26,6*50
$GPGSV,2,1,07,01,11,042,,04,02,110,,07,00,169,,09,06,141,,0*62
$GPGSV,2,2,07,09,06,141,,22,13,042,,24,00,309,,0*51
$GLGSV,2,1,08,66,27,116,38,67,08,165,32,77,01,167,08,78,46,197,42,1*7C
$GLGSV,2,2,08,79,53,291,42,81,38,345,40,82,22,289,30,88,17,040,09,1*71
$GLGSV,2,1,06,66,27,116,31,78,46,197,35,79,53,291,34,81,38,345,31,3*7D
$GLGSV,2,2,06,82,22,289,20,88,17,040,09,3*7C
$GLGSV,1,1,02,65,15,052,,80,08,330,,0*7B
$GAGSV,2,1,06,01,43,314,33,07,15,132,33,13,35,029,34,21,75,208,37,2*77
$GAGSV,2,2,06,26,54,308,35,27,27,156,33,2*7A
$GAGSV,2,1,08,01,43,314,36,07,15,132,34,08,10,083,32,13,35,029,36,7*70
$GAGSV,2,2,08,14,17,084,33,21,75,208,41,26,54,308,38,27,27,156,34,7*7A
$GAGSV,1,1,01,33,21,259,,0*48
$GBGSV,2,1,08,07,75,121,39,08,74,311,38,10,75,328,39,11,44,328,37,1*7E
$GBGSV,2,2,08,13,61,253,38,21,37,095,39,24,30,185,37,25,46,258,40,1*76
$GBGSV,2,1,06,07,75,121,37,08,74,311,36,10,75,328,36,11,44,328,35,3*7F
$GBGSV,2,2,06,12,36,039,37,13,61,253,33,3*7B
$GBGSV,3,1,11,01,47,123,,02,47,236,,03,64,190,,04,33,109,,0*74
$GBGSV,3,2,11,04,33,109,,05,23,255,,06,05,174,,09,04,200,,0*72
$GBGSV,3,3,11,09,04,200,,16,04,180,,22,09,048,,0*47
$GNGLL,2218.09480,N,11411.41610,E,062856.00,A,D*77
$Z?ÿÿÞýÿÿ?GY
$y?ÿÿ[?ÿÿ?‚å
$GNVTG,330.62,T,,M,3.476,N,6.437,K,D*22
$GNGGA,062857.00,2218.09561,N,11411.41558,E,2,12,0.60,4.5,M,-1.6,M,,0000*5A
$GNGSA,A,3,14,30,06,19,28,03,17,50,,,,,1.25,0.60,1.10,1*03
$GNGSA,A,3,66,79,81,78,,,,,,,,,1.25,0.60,1.10,2*0A
$GNGSA,A,3,13,26,27,01,07,21,,,,,,,1.25,0.60,1.10,3*05
$GNGSA,A,3,13,07,10,25,21,24,08,12,11,,,,1.25,0.60,1.10,4*09
$GPGSV,3,1,10,02,15,249,32,03,37,057,33,06,45,265,38,14,83,151,42,1*6A
$GPGSV,3,2,10,17,47,359,38,19,36,326,35,28,75,330,39,30,21,200,34,1*6E
$GPGSV,3,3,10,41,46,238,38,50,60,149,38,1*64
$GPGSV,2,1,05,03,37,057,32,06,45,265,36,14,83,151,40,17,47,359,32,6*66
$GPGSV,2,2,05,30,21,200,31,6*56
$GPGSV,2,1,07,01,11,042,,04,02,110,,07,00,169,,09,06,141,,0*62
$GPGSV,2,2,07,09,06,141,,22,13,042,,24,00,309,,0*51
$GLGSV,2,1,08,66,27,116,40,67,08,165,32,77,01,167,06,78,46,197,41,1*7E
$GLGSV,2,2,08,79,53,291,42,81,38,345,39,82,22,289,32,88,17,040,12,1*77
$GLGSV,2,1,06,66,27,116,32,78,46,197,35,79,53,291,35,81,38,345,30,3*7E
$GLGSV,2,2,06,82,22,289,21,88,17,040,11,3*74
$GLGSV,1,1,02,65,15,052,,80,08,330,,0*7B
$GAGSV,2,1,06,01,43,314,33,07,15,132,33,13,35,029,33,21,75,208,37,2*70
$GAGSV,2,2,06,26,54,308,35,27,27,156,34,2*7D
$GAGSV,2,1,08,01,43,314,35,07,15,132,33,08,10,083,28,13,35,029,36,7*7F
$GAGSV,2,2,08,14,17,084,34,21,75,208,41,26,54,308,38,27,27,156,34,7*7D
$GAGSV,1,1,01,33,21,259,,0*48
$GBGSV,2,1,08,07,75,121,39,08,74,311,38,10,75,328,39,11,44,328,37,1*7E
$GBGSV,2,2,08,13,61,253,39,21,37,095,39,24,30,185,38,25,46,258,40,1*78
$GBGSV,2,1,06,07,75,121,37,08,74,311,36,10,75,328,36,11,44,328,35,3*7F
$GBGSV,2,2,06,12,36,039,37,13,61,253,33,3*7B
$GBGSV,3,1,11,01,47,123,,02,47,236,,03,64,190,,04,33,109,,0*74
$GBGSV,3,2,11,04,33,109,,05,23,255,,06,05,174,,09,04,200,,0*72
$GBGSV,3,3,11,09,04,200,,16,04,180,,22,09,048,,0*47
$GNGLL,2218.09561,N,11411.41558,E,062857.00,A,D*77
$ÿ?ÿÿ²ðÿÿh
$\?ÿÿàýÿÿ?
$GNVTG,332.11,T,,M,4.109,N,7.611,K,D*29
$GNGGA,062858.00,2218.09657,N,11411.41503,E,2,12,0.60,4.5,M,-1.6,M,,0000*5D
$GNGSA,A,3,14,30,06,19,28,03,17,50,,,,,1.25,0.60,1.10,1*03
$GNGSA,A,3,66,79,81,78,,,,,,,,,1.25,0.60,1.10,2*0A
$GNGSA,A,3,13,26,27,01,07,21,,,,,,,1.25,0.60,1.10,3*05
$GNGSA,A,3,13,07,10,25,21,24,08,12,11,,,,1.25,0.60,1.10,4*09
$GPGSV,3,1,10,02,15,249,36,03,37,057,32,06,45,265,38,14,83,151,42,1*6F
$GPGSV,3,2,10,17,47,359,38,19,36,326,35,28,75,330,39,30,21,200,33,1*69
$GPGSV,3,3,10,41,46,238,38,50,60,149,38,1*64
$GPGSV,2,1,05,03,37,057,31,06,45,265,36,14,83,151,40,17,47,359,32,6*65
$GPGSV,2,2,05,30,21,200,30,6*57
$GPGSV,2,1,07,01,11,042,,04,02,110,,07,00,169,,09,06,141,,0*62
$GPGSV,2,2,07,09,06,141,,22,13,042,,24,00,309,,0*51
$GLGSV,2,1,08,66,27,116,38,67,08,165,31,77,01,167,10,78,46,197,39,1*7A
$GLGSV,2,2,08,79,53,291,42,81,38,345,38,82,22,289,34,88,17,040,09,1*7A
$GLGSV,2,1,06,66,27,116,32,78,46,197,35,79,53,291,35,81,38,345,30,3*7E
$GLGSV,2,2,06,82,22,289,24,88,17,040,10,3*70
$GLGSV,1,1,02,65,15,052,,80,08,330,,0*7B
$GAGSV,2,1,06,01,43,314,33,07,15,132,32,13,35,029,33,21,74,206,37,2*7E
$GAGSV,2,2,06,26,54,308,35,27,27,156,34,2*7D
$GAGSV,2,1,08,01,43,314,35,07,15,132,33,08,10,083,30,13,35,029,35,7*75
$GAGSV,2,2,08,14,17,084,30,21,74,206,41,26,54,308,38,27,27,156,34,7*76
$GAGSV,1,1,01,33,21,259,,0*48
$GBGSV,2,1,08,07,75,121,39,08,74,311,38,10,75,328,39,11,44,328,37,1*7E
$GBGSV,2,2,08,13,61,253,39,21,37,095,39,24,30,185,38,25,46,258,40,1*78
$GBGSV,2,1,06,07,75,121,37,08,74,311,36,10,75,328,36,11,44,328,35,3*7F
$GBGSV,2,2,06,12,36,039,36,13,61,253,32,3*7B
$GBGSV,3,1,11,01,47,123,,02,47,236,,03,64,190,,04,33,109,,0*74
$GBGSV,3,2,11,04,33,109,,05,23,255,,06,05,174,,09,04,200,,0*72
$GBGSV,3,3,11,09,04,200,,16,04,180,,22,09,048,,0*47
$GNGLL,2218.09657,N,11411.41503,E,062858.00,A,D*70
$_?ÿÿâýÿÿ??
$GNVTG,333.68,T,,M,5.655,N,10.472,K,D*18
$GNGGA,062859.00,2218.09786,N,11411.41433,E,2,12,0.60,4.5,M,-1.6,M,,0000*53
$GNGSA,A,3,14,30,06,19,28,03,17,50,,,,,1.25,0.60,1.10,1*03
$GNGSA,A,3,66,79,81,78,,,,,,,,,1.25,0.60,1.10,2*0A
$GNGSA,A,3,13,26,27,01,07,21,,,,,,,1.25,0.60,1.10,3*05
$GNGSA,A,3,13,07,10,25,21,24,08,12,11,,,,1.25,0.60,1.10,4*09
$GPGSV,3,1,10,02,15,249,33,03,37,057,26,06,45,265,38,14,83,151,43,1*6E
$GPGSV,3,2,10,17,47,359,38,19,36,326,35,28,75,330,39,30,21,200,30,1*6A
$GPGSV,3,3,10,41,46,238,38,50,60,149,38,1*64
$GPGSV,2,1,05,03,37,057,23,06,45,265,35,14,83,151,40,17,47,359,32,6*65
$GPGSV,2,2,05,30,21,200,30,6*57
$GPGSV,2,1,07,01,11,042,,04,02,110,,07,00,169,,09,06,141,,0*62
$GPGSV,2,2,07,09,06,141,,22,13,042,,24,00,309,,0*51
$GLGSV,2,1,08,66,27,116,38,67,08,165,32,77,01,167,10,78,46,197,40,1*77
$GLGSV,2,2,08,79,53,291,42,81,38,345,39,82,22,289,35,88,17,040,12,1*70
$GLGSV,2,1,06,66,27,116,33,78,46,197,36,79,53,291,35,81,38,345,30,3*7C
$GLGSV,2,2,06,82,22,289,27,88,17,040,09,3*7B
$GLGSV,1,1,02,65,15,052,,80,08,330,,0*7B
$GAGSV,2,1,06,01,43,314,32,07,15,132,31,13,35,029,34,21,74,206,37,2*7B
$GAGSV,2,2,06,26,54,308,35,27,27,156,34,2*7D
$GAGSV,2,1,08,01,43,314,35,07,15,132,32,08,10,083,31,13,35,029,35,7*75
$GAGSV,2,2,08,14,17,084,32,21,74,206,41,26,54,308,39,27,27,156,34,7*75
$GAGSV,1,1,01,33,21,259,,0*48
$GBGSV,2,1,08,07,75,121,39,08,74,311,38,10,75,328,39,11,44,328,37,1*7E
$GBGSV,2,2,08,13,61,253,39,21,37,095,40,24,30,185,38,25,46,258,40,1*76
$GBGSV,2,1,06,07,75,121,37,08,74,311,36,10,75,328,36,11,44,328,35,3*7F
$GBGSV,2,2,06,12,36,039,36,13,61,253,32,3*7B
$GBGSV,3,1,11,01,47,123,,02,47,236,,03,64,190,,04,33,109,,0*74
$GBGSV,3,2,11,04,33,109,,05,23,255,,06,05,174,,09,04,200,,0*72
$GBGSV,3,3,11,09,04,200,,16,04,180,,22,09,048,,0*47
$GNGLL,2218.09786,N,11411.41433,E,062859.00,A,D*7E
$&C&*-)04/0/4=:AFEHMPPSS]ZZ[\`fkjlnouwxz{~???????????????????????????????????????”¢????????~‚}~‚~zzwuspttqqhf_`^YYTQKED><7210*)()''%%#%%#$#""!""!"!
$b?ÿÿäýÿÿ?~V[
$sA%—æ??A”°l?
$GNVTG,335.69,T,,M,7.202,N,13.338,K,D*11
$GNGGA,062900.00,2218.09957,N,11411.41348,E,2,12,0.60,4.4,M,-1.6,M,,0000*56
$GNGSA,A,3,14,30,06,19,28,03,17,50,,,,,1.25,0.60,1.10,1*03
$GNGSA,A,3,66,79,81,78,,,,,,,,,1.25,0.60,1.10,2*0A
$GNGSA,A,3,13,26,27,01,07,21,,,,,,,1.25,0.60,1.10,3*05
$GNGSA,A,3,13,07,10,25,21,24,08,12,11,,,,1.25,0.60,1.10,4*09
$GPGSV,3,1,10,02,15,249,33,03,37,057,25,06,45,265,38,14,83,151,42,1*6C
$GPGSV,3,2,10,17,47,359,38,19,36,326,35,28,75,330,39,30,21,200,33,1*69
$GPGSV,2,1,05,03,37,057,23,06,45,265,35,14,83,151,40,17,47,359,31,6*66
$GPGSV,2,2,05,30,21,200,31,6*56
$GPGSV,2,1,07,01,11,042,,04,02,110,,07,00,169,,09,06,141,,0*62
$GPGSV,2,2,07,09,06,141,,22,13,042,,24,00,309,,0*51
$GLGSV,2,1,08,66,27,116,39,67,08,165,34,77,01,167,10,78,46,197,40,1*70
$GLGSV,2,2,08,79,53,291,42,81,38,345,39,82,22,289,34,88,17,040,11,1*72
$GLGSV,2,1,06,66,27,116,32,78,46,197,36,79,53,291,35,81,38,345,30,3*7D
$GLGSV,2,2,06,82,22,289,27,88,17,040,09,3*7B
$GLGSV,1,1,02,65,15,052,,80,08,330,,0*7B
$GAGSV,2,1,06,01,43,314,33,07,15,132,32,13,35,029,34,21,74,206,37,2*79
$GAGSV,2,2,06,26,54,308,35,27,27,156,34,2*7D
$GAGSV,2,1,08,01,43,314,35,07,15,132,32,08,10,083,31,13,35,029,35,7*75
$GAGSV,2,2,08,14,17,084,32,21,74,206,41,26,54,308,39,27,27,156,34,7*75
$GAGSV,1,1,01,33,21,259,,0*48
$GBGSV,2,1,08,07,75,121,39,08,74,311,38,10,75,328,39,11,44,328,37,1*7E
$GBGSV,2,2,08,13,61,253,39,21,37,095,41,24,30,185,37,25,46,258,40,1*78
$GBGSV,2,1,06,07,75,121,37,08,74,311,36,10,75,328,36,11,44,328,35,3*7F
$GBGSV,2,2,06,12,36,039,36,13,61,253,32,3*7B
$GBGSV,3,2,11,04,33,109,,05,23,255,,06,05,174,,09,04,200,,0*72
$GNGLL,2218.09957,N,11411.41348,E,062900.00,A,D*7A
$ªÀ"´£%/??°Z›q‡â?_w•²?3?T·õ?{sNµb0
$?ÿÿÀðÿÿN
$GNVTG,336.63,T,,M,8.405,N,15.566,K,D*1D
$GNGGA,062901.00,2218.10162,N,11411.41252,E,2,12,0.62,4.4,M,-1.6,M,,0000*59
$GNGSA,A,3,14,30,06,19,28,02,17,50,,,,,1.26,0.62,1.10,1*03
$GNGSA,A,3,66,79,81,78,,,,,,,,,1.26,0.62,1.10,2*0B
$GNGSA,A,3,13,26,27,01,07,21,,,,,,,1.26,0.62,1.10,3*04
$GNGSA,A,3,13,07,10,25,21,24,08,12,11,,,,1.26,0.62,1.10,4*08
$GPGSV,3,1,10,02,15,249,35,03,37,057,25,06,45,265,38,14,83,151,42,1*6A
$GPGSV,3,2,10,17,47,359,38,19,36,326,35,28,75,330,39,30,21,200,34,1*6E
$GPGSV,3,3,10,41,46,238,39,50,60,149,38,1*65
$GPGSV,2,1,05,03,37,057,22,06,45,265,35,14,83,151,40,17,47,359,31,6*67
$GPGSV,2,2,05,30,21,200,31,6*56
$GPGSV,2,1,07,01,11,042,,04,02,110,,07,00,169,,09,06,141,,0*62
$GPGSV,2,2,07,09,06,141,,22,13,042,,24,00,309,,0*51
$GLGSV,2,1,08,66,27,116,39,67,08,165,34,77,01,167,10,78,46,197,40,1*70
$GLGSV,2,2,08,79,53,291,42,81,38,345,39,82,22,289,34,88,17,040,08,1*7A
$GLGSV,2,1,06,66,27,116,32,78,46,197,36,79,53,291,36,81,38,345,29,3*76
$GLGSV,2,2,06,82,22,289,28,88,17,040,06,3*7B
$GLGSV,1,1,02,65,15,052,,80,08,330,,0*7B
$GAGSV,2,1,06,01,43,314,33,07,15,132,32,13,35,029,35,21,74,206,38,2*77
$GAGSV,2,2,06,26,54,309,35,27,27,156,34,2*7C
$GAGSV,2,1,08,01,43,314,35,07,15,132,33,08,10,083,32,13,35,029,35,7*77
$GAGSV,2,2,08,14,17,084,33,21,74,206,41,26,54,309,39,27,27,156,34,7*75
$GAGSV,1,1,01,33,21,259,,0*48
$GBGSV,2,1,08,07,75,121,39,08,74,311,38,10,75,328,39,11,44,328,37,1*7E
$GBGSV,2,2,08,13,61,253,40,21,37,095,41,24,30,185,37,25,46,258,40,1*76
$GBGSV,2,1,06,07,75,121,37,08,74,311,36,10,75,328,35,11,44,328,35,3*7C
$GBGSV,2,2,06,12,36,039,37,13,61,253,32,3*7A
$GBGSV,3,1,11,01,47,123,,02,47,236,,03,64,190,,04,33,109,,0*74
$GBGSV,3,2,11,04,33,109,,05,23,255,,06,05,174,,09,04,200,,0*72
$GBGSV,3,3,11,09,04,200,,16,04,180,,22,09,048,,0*47
$GNGLL,2218.10162,N,11411.41252,E,062901.00,A,D*77
$?ÿÿÆðÿÿ??
$h?ÿÿéýÿÿ??Ê\
$@UvAQüQ?A`×¹B
$GNVTG,336.55,T,,M,9.336,N,17.291,K,D*13
$GNGGA,062902.00,2218.10394,N,11411.41144,E,2,12,0.62,4.4,M,-1.6,M,,0000*55
$GNGSA,A,3,14,30,06,19,28,02,17,50,,,,,1.26,0.62,1.10,1*03
$GNGSA,A,3,66,79,81,78,,,,,,,,,1.26,0.62,1.10,2*0B
$GNGSA,A,3,13,26,27,01,07,21,,,,,,,1.26,0.62,1.10,3*04
$GNGSA,A,3,13,07,10,25,21,24,08,12,11,,,,1.26,0.62,1.10,4*08
$GPGSV,3,1,10,02,15,249,31,03,37,057,23,06,45,265,37,14,83,151,42,1*67
$GPGSV,3,2,10,17,47,359,38,19,36,326,36,28,75,330,39,30,21,200,33,1*6A
$GPGSV,3,3,10,41,46,238,39,50,60,149,38,1*65
$GPGSV,2,1,05,03,37,057,23,06,45,265,35,14,83,151,40,17,47,359,31,6*66
$GPGSV,2,2,05,30,21,200,32,6*55
$GPGSV,2,1,07,01,11,042,,04,02,110,,07,00,169,,09,06,141,,0*62
$GPGSV,2,2,07,09,06,141,,22,13,042,,24,00,309,,0*51
$GLGSV,2,1,08,66,27,116,39,67,08,165,34,77,01,167,08,78,46,197,40,1*79
$GLGSV,2,2,08,79,53,291,42,81,38,345,39,82,22,289,34,88,17,040,12,1*71
$GLGSV,2,1,06,66,27,116,32,78,46,197,36,79,53,291,36,81,38,345,30,3*7E
$GLGSV,2,2,06,82,22,289,28,88,17,040,09,3*74
$GLGSV,1,1,02,65,15,052,,80,08,330,,0*7B
$GAGSV,2,1,06,01,43,314,33,07,15,132,32,13,35,029,34,21,74,206,37,2*79
$GAGSV,2,2,06,26,54,309,36,27,26,156,34,2*7E
$GAGSV,2,1,08,01,43,314,35,07,15,132,33,08,10,083,30,13,35,029,35,7*75
$GAGSV,2,2,08,14,17,084,33,21,74,206,41,26,54,309,39,27,26,156,34,7*74
$GAGSV,1,1,01,33,21,259,,0*48
$GBGSV,2,1,08,07,75,121,39,08,74,311,37,10,75,328,39,11,44,328,37,1*71
$GBGSV,2,2,08,13,61,253,40,21,37,095,41,24,30,185,37,25,46,258,40,1*76
$GBGSV,2,1,06,07,75,121,37,08,74,311,36,10,75,328,36,11,44,328,35,3*7F
$GBGSV,2,2,06,12,36,039,34,13,61,253,33,3*78
$GBGSV,3,1,11,01,47,123,,02,47,236,,03,64,190,,04,33,109,,0*74
$GBGSV,3,2,11,04,33,109,,05,23,255,,06,05,174,,09,04,200,,0*72
$GBGSV,3,3,11,09,04,200,,16,04,180,,22,09,048,,0*47
$GNGLL,2218.10394,N,11411.41144,E,062902.00,A,D*7B
$?ÿÿÄðÿÿ
$m?ÿÿíýÿÿ??„]
$GNVTG,336.42,T,,M,10.400,N,19.261,K,D*2E
$GNGGA,062903.00,2218.10652,N,11411.41023,E,2,12,0.62,4.4,M,-1.6,M,,0000*5B
$GNGSA,A,3,14,30,06,19,28,02,17,50,,,,,1.26,0.62,1.10,1*03
$GNGSA,A,3,66,79,81,78,,,,,,,,,1.26,0.62,1.10,2*0B
$GNGSA,A,3,13,26,27,01,07,21,,,,,,,1.26,0.62,1.10,3*04
$GNGSA,A,3,13,07,10,25,21,24,08,12,11,,,,1.26,0.62,1.10,4*08
$GPGSV,3,1,10,02,15,249,24,03,37,057,30,06,45,265,38,14,83,151,42,1*6E
$GPGSV,3,2,10,17,47,359,38,19,36,326,36,28,75,330,39,30,21,200,34,1*6D
$GPGSV,3,3,10,41,46,238,39,50,60,149,38,1*65
$GPGSV,2,1,05,03,37,057,23,06,45,265,35,14,83,151,40,17,47,359,32,6*65
$GPGSV,2,2,05,30,21,200,31,6*56
$GPGSV,2,1,07,01,11,042,,04,02,110,,07,00,169,,09,06,141,,0*62
$GPGSV,2,2,07,09,06,141,,22,13,042,,24,00,309,,0*51
$GLGSV,2,1,08,66,27,116,38,67,08,165,35,77,01,167,11,78,46,197,40,1*71
$GLGSV,2,2,08,79,53,291,42,81,38,345,39,82,22,289,34,88,17,040,09,1*7B
$GLGSV,2,1,06,66,27,116,32,78,46,197,36,79,53,291,35,81,38,345,30,3*7D
$GLGSV,2,2,06,82,22,289,28,88,17,040,07,3*7A
$GLGSV,1,1,02,65,15,052,,80,08,330,,0*7B
$GAGSV,2,1,06,01,43,314,33,07,15,132,33,13,35,029,34,21,74,206,38,2*77
$GAGSV,2,2,06,26,54,309,36,27,26,156,34,2*7E
$GAGSV,2,1,08,01,43,314,35,07,15,132,32,08,10,083,23,13,35,029,37,7*74
$GAGSV,2,2,08,14,17,084,29,21,74,206,41,26,54,309,39,27,26,156,34,7*7F
$GAGSV,1,1,01,33,21,259,,0*48
$GBGSV,2,1,08,07,75,121,39,08,74,311,38,10,75,328,39,11,44,328,37,1*7E
$GBGSV,2,2,08,13,61,253,40,21,37,095,41,24,30,185,37,25,46,258,40,1*76
$GBGSV,2,1,06,07,75,121,37,08,74,311,36,10,75,328,36,11,44,328,35,3*7F
$GBGSV,2,2,06,12,36,039,33,13,61,253,33,3*7F
$GBGSV,3,1,11,01,47,123,,02,47,236,,03,64,190,,04,33,109,,0*74
$GBGSV,3,2,11,04,33,109,,05,23,255,,06,05,174,,09,04,200,,0*72
$GBGSV,3,3,11,09,04,200,,16,04,180,,22,09,048,,0*47
$GNGLL,2218.10652,N,11411.41023,E,062903.00,A,D*75
$?ÿÿÅðÿÿ
$l?ÿÿíýÿÿ?d
$GNVTG,335.70,T,,M,11.450,N,21.206,K,D*22
$GNGGA,062904.00,2218.10935,N,11411.40887,E,2,12,0.58,4.4,M,-1.6,M,,0000*5C
$GNGSA,A,3,14,30,06,19,28,17,50,,,,,,1.14,0.58,0.98,1*08
$GNGSA,A,3,66,79,82,81,78,,,,,,,,1.14,0.58,0.98,2*08
$GNGSA,A,3,13,26,27,01,07,21,,,,,,,1.14,0.58,0.98,3*0D
$GNGSA,A,3,13,07,10,25,21,24,08,12,11,,,,1.14,0.58,0.98,4*01
$GPGSV,3,2,10,17,47,359,38,19,36,326,36,28,75,330,39,30,21,200,33,1*6A
$GPGSV,3,3,10,41,46,238,39,50,60,149,38,1*65
$GPGSV,2,1,05,03,37,057,23,06,45,265,35,14,83,151,40,17,47,359,31,6*66
$GPGSV,2,2,05,30,21,200,31,6*56
$GPGSV,2,1,07,01,11,042,,04,02,110,,07,00,169,,09,06,141,,0*62
$GPGSV,2,2,07,09,06,141,,22,13,042,,24,00,309,,0*51
$GLGSV,2,1,08,66,27,116,38,67,08,165,37,77,01,167,11,78,46,197,40,1*73
$GLGSV,2,2,08,79,53,291,42,81,38,345,39,82,22,289,32,88,17,040,10,1*75
$GLGSV,2,1,06,66,27,116,32,78,46,197,36,79,53,291,35,81,38,345,30,3*7D
$GLGSV,2,2,06,82,22,289,28,88,17,040,09,3*74
$GLGSV,1,1,02,65,15,052,,80,08,330,,0*7B
$GAGSV,2,1,06,01,43,314,33,07,15,132,32,13,35,029,31,21,74,206,37,2*7C
$GAGSV,2,2,06,26,54,309,35,27,26,156,35,2*7C
$GAGSV,2,1,08,01,43,314,35,07,15,132,32,08,10,083,20,13,35,029,32,7*72
$GAGSV,2,2,08,14,17,084,21,21,74,206,40,26,54,309,39,27,26,156,34,7*76
$GAGSV,1,1,01,33,21,259,,0*48
$GBGSV,2,1,08,07,75,121,39,08,74,311,38,10,75,328,39,11,44,328,37,1*7E
$GBGSV,2,2,08,13,61,253,40,21,37,095,40,24,30,185,37,25,46,258,40,1*77
$GBGSV,2,1,06,07,75,121,37,08,74,311,36,10,75,328,36,11,44,328,35,3*7F
$GBGSV,2,2,06,12,36,039,36,13,61,253,32,3*7B
$GBGSV,3,1,11,01,47,123,,02,47,236,,03,64,190,,04,33,109,,0*74
$GBGSV,3,2,11,04,33,109,,05,23,255,,06,05,174,,09,04,200,,0*72
$GBGSV,3,3,11,09,04,200,,16,04,180,,22,09,048,,0*47
$GNGLL,2218.10935,N,11411.40887,E,062904.00,A,D*7B
$?ÿÿËðÿÿt€.
$s?ÿÿòýÿÿ?ô^
$GNVTG,335.44,T,,M,12.208,N,22.608,K,D*24
$GNGGA,062905.00,2218.11239,N,11411.40738,E,2,12,0.58,4.4,M,-1.6,M,,0000*50
$GNGSA,A,3,14,30,06,19,28,17,50,,,,,,1.14,0.58,0.98,1*08
$GNGSA,A,3,66,79,82,81,78,,,,,,,,1.14,0.58,0.98,2*08
$GNGSA,A,3,13,26,27,01,07,21,,,,,,,1.14,0.58,0.98,3*0D
$GNGSA,A,3,13,07,10,25,21,24,08,12,11,,,,1.14,0.58,0.98,4*01
$GPGSV,3,1,10,02,15,249,17,03,37,057,32,06,45,265,37,14,83,151,42,1*63
$GPGSV,3,2,10,17,47,359,38,19,36,326,36,28,75,330,39,30,21,200,33,1*6A
$GPGSV,3,3,10,41,46,238,38,50,60,149,38,1*64
$GPGSV,2,1,05,03,37,057,29,06,45,265,36,14,83,151,40,17,47,359,32,6*6C
$GPGSV,2,2,05,30,21,200,32,6*55
$GPGSV,2,1,07,01,11,042,,04,02,110,,07,00,169,,09,06,141,,0*62
$GPGSV,2,2,07,09,06,141,,22,13,042,,24,00,309,,0*51
$GLGSV,2,1,08,66,27,116,38,67,08,165,38,77,01,167,10,78,46,197,40,1*7D
$GLGSV,2,2,08,79,53,291,42,81,38,345,39,82,22,289,33,88,17,040,12,1*76
$GLGSV,2,1,06,66,27,116,32,78,46,197,36,79,53,291,36,81,38,345,30,3*7E
$GLGSV,2,2,06,82,22,289,28,88,17,040,08,3*75
$GLGSV,1,1,02,65,15,052,,80,08,330,,0*7B
$GAGSV,2,1,06,01,43,314,33,07,15,132,32,13,35,029,25,21,74,206,37,2*79
$GAGSV,2,2,06,26,54,309,35,27,26,156,35,2*7C
$GAGSV,2,1,08,01,43,314,35,07,15,132,33,08,10,083,15,13,35,029,26,7*70
$GAGSV,2,2,08,14,17,084,18,21,74,206,41,26,54,309,39,27,26,156,34,7*7D
$GAGSV,1,1,01,33,21,260,,0*42
$GBGSV,2,1,08,07,75,121,39,08,74,311,38,10,75,328,39,11,44,328,37,1*7E
$GBGSV,2,2,08,13,61,253,39,21,37,095,40,24,30,185,37,25,46,258,40,1*79
$GBGSV,2,1,06,07,75,121,37,08,74,311,36,10,75,328,36,11,44,328,35,3*7F
$GBGSV,2,2,06,12,36,039,33,13,61,253,33,3*7F
$GBGSV,3,1,11,01,47,123,,02,47,236,,03,64,190,,04,33,109,,0*74
$GBGSV,3,2,11,04,33,109,,05,23,255,,06,05,174,,09,04,200,,0*72
$GBGSV,3,3,11,09,04,200,,16,04,180,,22,09,048,,0*47
$GNGLL,2218.11239,N,11411.40738,E,062905.00,A,D*77
$0’]R?!?#
$?ÿÿÊðÿÿ??3
$o?ÿÿïýÿÿ??¬_
$GNVTG,335.20,T,,M,12.681,N,23.485,K,D*25
$GNGGA,062906.00,2218.11557,N,11411.40581,E,2,12,0.58,4.3,M,-1.6,M,,0000*5B
$GNGSA,A,3,66,79,82,81,78,,,,,,,,1.15,0.58,0.99,2*08
$GNGSA,A,3,26,27,01,07,21,,,,,,,,1.15,0.58,0.99,3*0F
$GNGSA,A,3,13,07,10,25,21,24,08,12,11,,,,1.15,0.58,0.99,4*01
$GPGSV,3,1,10,02,15,249,07,03,37,057,26,06,45,265,38,14,83,151,42,1*68
$GPGSV,3,2,10,17,47,359,38,19,36,326,35,28,75,330,39,30,21,200,33,1*69
$GPGSV,3,3,10,41,46,238,39,50,60,149,38,1*65
$GPGSV,2,1,05,03,37,057,27,06,45,265,36,14,83,151,40,17,47,359,32,6*62
$GPGSV,2,2,05,30,21,200,32,6*55
$GPGSV,2,1,07,01,11,042,,04,02,110,,07,00,169,,09,06,141,,0*62
$GPGSV,2,2,07,09,06,141,,22,13,042,,24,00,309,,0*51
$GLGSV,2,1,08,66,27,116,38,67,08,165,38,77,01,167,11,78,46,197,40,1*7C
$GLGSV,2,2,08,79,53,291,42,81,38,345,40,82,22,289,33,88,17,040,11,1*7B
$GLGSV,2,1,06,66,27,116,33,78,46,197,36,79,53,291,36,81,38,345,30,3*7F
$GLGSV,2,2,06,82,22,289,29,88,17,040,10,3*7D
$GLGSV,1,1,02,65,15,052,,80,08,330,,0*7B
$GAGSV,2,1,06,01,43,314,33,07,15,132,32,13,35,029,22,21,74,206,38,2*71
$GAGSV,2,2,06,26,54,309,36,27,26,156,35,2*7F
$GAGSV,2,1,07,01,43,314,35,07,15,132,32,13,35,029,23,14,17,084,12,7*71
$GAGSV,2,2,07,21,74,206,41,26,54,309,39,27,26,156,34,7*44
$GAGSV,1,1,02,08,10,083,,33,21,260,,0*73
$GBGSV,2,2,08,13,61,253,40,21,37,095,40,24,30,185,37,25,46,258,40,1*77
$GBGSV,2,1,06,07,75,121,37,08,74,311,36,10,75,328,36,11,44,328,35,3*7F
$GBGSV,2,2,06,12,36,039,23,13,61,253,32,3*7F
$GBGSV,3,1,11,01,47,123,,02,47,236,,03,64,190,,04,33,109,,0*74
$GBGSV,3,2,11,04,33,109,,05,23,255,,06,05,174,,09,04,200,,0*72
$GBGSV,3,3,11,09,04,200,,16,04,180,,22,09,048,,0*47
$GNGLL,2218.11557,N,11411.40581,E,062906.00,A,D*7B
$?ÿÿÇðÿÿ
$p?ÿÿðýÿÿ??c`
$GNVTG,335.29,T,,M,12.376,N,22.919,K,D*28
$GNGGA,062907.00,2218.11872,N,11411.40425,E,2,12,0.58,4.4,M,-1.6,M,,0000*58
$GNGSA,A,3,03,14,30,06,19,28,17,50,,,,,1.15,0.58,0.99,1*0B
$GNGSA,A,3,66,79,82,81,78,,,,,,,,1.15,0.58,0.99,2*08
$GNGSA,A,3,26,27,01,07,21,,,,,,,,1.15,0.58,0.99,3*0F
$GNGSA,A,3,13,07,10,25,21,24,08,12,11,,,,1.15,0.58,0.99,4*01
$GPGSV,3,1,10,02,15,249,12,03,37,057,35,06,45,265,38,14,83,151,42,1*6E
$GPGSV,3,2,10,17,47,359,38,19,36,326,35,28,75,330,39,30,21,200,32,1*68
$GPGSV,3,3,10,41,46,238,39,50,60,149,37,1*6A
$GPGSV,2,1,05,03,37,057,31,06,45,265,36,14,83,151,40,17,47,359,32,6*65
$GPGSV,2,2,05,30,21,200,32,6*55
$GPGSV,2,1,07,01,11,042,,04,02,110,,07,00,169,,09,06,141,,0*62
$GPGSV,2,2,07,09,06,141,,22,13,042,,24,00,309,,0*51
$GLGSV,2,1,08,66,27,116,36,67,08,165,38,77,01,167,08,78,46,197,40,1*7A
$GLGSV,2,2,08,79,53,291,42,81,38,345,40,82,22,289,35,88,17,040,05,1*78
$GLGSV,2,1,06,66,27,116,32,78,46,197,36,79,53,291,36,81,38,345,30,3*7E
$GLGSV,2,2,06,82,22,289,30,88,17,040,12,3*77
$GLGSV,1,1,02,65,15,052,,80,08,330,,0*7B
$GAGSV,2,1,06,01,43,314,33,07,15,132,31,13,35,029,19,21,74,206,37,2*75
$GAGSV,2,2,06,26,54,309,36,27,26,156,35,2*7F
$GAGSV,2,1,07,01,43,314,35,07,15,132,32,13,35,029,18,14,17,084,08,7*72
$GAGSV,2,2,07,21,74,206,41,26,54,309,39,27,26,156,34,7*44
$GAGSV,1,1,02,08,10,083,,33,21,260,,0*73
$GBGSV,2,1,08,07,75,121,39,08,74,311,38,10,75,328,39,11,44,328,37,1*7E
$GBGSV,2,2,08,13,61,253,40,21,37,095,40,24,30,185,37,25,46,258,40,1*77
$GBGSV,2,1,06,07,75,121,37,08,74,311,36,10,75,328,36,11,44,328,35,3*7F
$GBGSV,2,2,06,12,36,039,20,13,61,253,33,3*7D
$GBGSV,3,1,11,01,47,123,,02,47,236,,03,64,190,,04,33,109,,0*74
$GBGSV,3,2,11,04,33,109,,05,23,255,,06,05,174,,09,04,200,,0*72
$GBGSV,3,3,11,09,04,200,,16,04,180,,22,09,048,,0*47
$GNGLL,2218.11872,N,11411.40425,E,062907.00,A,D*7F
$°ñ?5„ôÄ¡
$?ÿÿÇðÿÿM]>
$p?ÿÿðýÿÿ?Ca
$GNVTG,335.62,T,,M,12.121,N,22.448,K,D*2E
$GNGGA,062908.00,2218.12182,N,11411.40274,E,2,12,0.61,4.3,M,-1.6,M,,0000*5D
$GNGSA,A,3,03,14,30,06,19,02,28,17,50,,,,1.17,0.61,1.00,1*00
$GNGSA,A,3,66,79,82,81,78,,,,,,,,1.17,0.61,1.00,2*01
$GNGSA,A,3,26,27,01,07,21,,,,,,,,1.17,0.61,1.00,3*06
$GNGSA,A,3,13,07,10,25,21,24,08,11,,,,,1.17,0.61,1.00,4*0B
$GPGSV,3,1,10,02,15,249,10,03,37,057,26,06,45,265,38,14,83,151,42,1*6E
$GPGSV,3,2,10,17,47,359,38,19,36,326,35,28,75,330,39,30,21,200,33,1*69
$GPGSV,3,3,10,41,46,238,39,50,60,149,37,1*6A
$GPGSV,2,1,05,03,37,057,31,06,45,265,36,14,83,151,40,17,47,359,32,6*65
$GPGSV,2,2,05,30,21,200,32,6*55
$GPGSV,2,1,07,01,11,042,,04,02,110,,07,00,169,,09,06,141,,0*62
$GPGSV,2,2,07,09,06,141,,22,13,042,,24,00,309,,0*51
$GLGSV,2,1,08,66,27,116,37,67,08,165,40,77,01,167,08,78,46,197,40,1*74
$GLGSV,2,2,08,79,53,291,42,81,38,345,37,82,22,289,35,88,17,040,08,1*75
$GLGSV,2,1,06,66,27,116,32,78,46,197,36,79,53,291,36,81,38,345,31,3*7F
$GLGSV,2,2,06,82,22,289,30,88,17,040,11,3*74
$GLGSV,1,1,02,65,15,052,,80,08,330,,0*7B
$GAGSV,2,1,06,01,43,314,33,07,15,132,34,13,35,029,16,21,74,206,38,2*70
$GAGSV,2,2,06,26,54,309,36,27,26,156,35,2*7F
$GAGSV,2,1,07,01,43,314,35,07,15,132,32,13,35,029,16,14,17,084,07,7*73
$GAGSV,2,2,07,21,74,206,40,26,54,309,39,27,26,156,34,7*45
$GAGSV,1,1,02,08,10,083,,33,21,260,,0*73
$GBGSV,2,1,08,07,75,121,39,08,74,311,38,10,75,328,39,11,44,328,38,1*71
$GBGSV,2,2,08,13,61,253,40,21,37,095,40,24,30,185,37,25,46,258,41,1*76
$GBGSV,2,1,06,07,75,121,37,08,74,311,36,10,75,328,36,11,44,328,35,3*7F
$GBGSV,2,2,06,12,36,039,17,13,61,253,33,3*79
$GBGSV,3,1,11,01,47,123,,02,47,236,,03,64,190,,04,33,109,,0*74
$GBGSV,3,2,11,04,33,109,,05,23,255,,06,05,174,,09,04,200,,0*72
$GBGSV,3,3,11,09,04,200,,16,04,180,,22,09,048,,0*47
$GNGLL,2218.12182,N,11411.40274,E,062908.00,A,D*77
$?ÿÿÅðÿÿ?¨C
$k?ÿÿìýÿÿ??Ôa
$GNVTG,335.47,T,,M,11.711,N,21.689,K,D*23
$GNGGA,062909.00,2218.12482,N,11411.40127,E,2,12,0.61,4.3,M,-1.6,M,,0000*5C
$GNGSA,A,3,03,14,30,06,19,02,28,17,50,,,,1.17,0.61,1.00,1*00
$GNGSA,A,3,66,79,82,81,78,,,,,,,,1.17,0.61,1.00,2*01
$GNGSA,A,3,26,27,01,07,21,,,,,,,,1.17,0.61,1.00,3*06
$GNGSA,A,3,13,07,10,25,21,24,08,11,,,,,1.17,0.61,1.00,4*0B
$GPGSV,3,1,10,02,15,249,12,03,37,057,24,06,45,265,38,14,83,151,42,1*6E
$GPGSV,3,2,10,17,47,359,33,19,36,326,36,28,75,330,39,30,21,200,33,1*61
$GPGSV,3,3,10,41,46,238,39,50,60,149,37,1*6A
$GPGSV,2,1,05,03,37,057,22,06,45,265,36,14,83,151,40,17,47,359,26,6*62
$GPGSV,2,2,05,30,21,200,32,6*55
$GPGSV,2,1,07,01,11,042,,04,02,110,,07,00,169,,09,06,141,,0*62
$GPGSV,2,2,07,09,06,141,,22,13,042,,24,00,309,,0*51
$GLGSV,2,1,08,66,27,116,39,67,08,165,39,77,01,167,08,78,46,197,40,1*74
$GLGSV,2,2,08,79,53,291,42,81,38,345,34,82,22,289,34,88,17,040,09,1*76
$GLGSV,2,1,06,66,27,116,32,78,46,197,36,79,53,291,36,81,38,345,29,3*76
$GLGSV,2,2,06,82,22,289,28,88,17,040,10,3*7C
$GLGSV,1,1,02,65,15,052,,80,08,330,,0*7B
$GAGSV,2,1,06,01,43,314,33,07,15,132,31,13,35,029,12,21,74,206,38,2*71
$GAGSV,2,2,06,26,54,309,36,27,26,156,34,2*7E
$GAGSV,2,1,05,01,43,314,35,07,15,132,32,21,74,206,40,26,54,309,39,7*74
$GAGSV,2,2,05,27,26,156,34,7*42
$GAGSV,1,1,03,08,10,083,,14,17,084,,33,21,260,,0*4D
$GBGSV,2,1,08,07,75,121,39,08,74,311,38,10,75,328,39,11,44,328,38,1*71
$GBGSV,2,2,08,13,61,253,40,21,37,095,40,24,30,185,37,25,46,258,41,1*76
$GBGSV,2,1,06,07,75,121,37,08,74,311,36,10,75,328,36,11,44,328,36,3*7C
$GBGSV,2,2,06,12,36,039,13,13,61,253,33,3*7D
$GBGSV,3,1,11,01,47,123,,02,47,236,,03,64,190,,04,33,109,,0*74
$GBGSV,3,2,11,04,33,109,,05,23,255,,06,05,174,,09,04,200,,0*72
$GBGSV,3,3,11,09,04,200,,16,04,180,,22,09,048,,0*47
$GNGLL,2218.12482,N,11411.40127,E,062909.00,A,D*76
$ d`
$?ÿÿÄðÿÿ?óH
$i?ÿÿêýÿÿ??
$GNRMC,062910.00,A,2218.12772,N,11411.39980,E,11.412,334.45,210521,,,D,V*33
$GNVTG,334.45,T,,M,11.412,N,21.135,K,D*20
$GNGGA,062910.00,2218.12772,N,11411.39980,E,2,12,0.61,4.2,M,-1.6,M,,0000*52
$GNGSA,A,3,03,14,30,06,19,02,28,17,50,,,,1.17,0.61,1.00,1*00
$GNGSA,A,3,66,79,82,81,78,,,,,,,,1.17,0.61,1.00,2*01
$GNGSA,A,3,26,27,01,07,21,,,,,,,,1.17,0.61,1.00,3*06
$GNGSA,A,3,13,07,10,25,21,24,08,11,,,,,1.17,0.61,1.00,4*0B
$GPGSV,3,1,10,02,15,249,09,03,37,057,20,06,45,265,38,14,83,151,42,1*60
$GPGSV,3,2,10,17,47,359,27,19,36,326,32,28,75,330,39,30,21,200,33,1*60
$GPGSV,3,3,10,41,46,238,39,50,60,149,37,1*6A
$GPGSV,2,1,05,03,37,057,19,06,45,265,36,14,83,151,40,17,47,359,25,6*69
$GPGSV,2,2,05,30,21,200,31,6*56
$GPGSV,2,1,07,01,11,042,,04,02,110,,07,00,169,,09,06,141,,0*62
$GPGSV,2,2,07,09,06,141,,22,13,042,,24,00,309,,0*51
$GLGSV,2,1,08,66,27,116,38,67,08,165,41,77,01,167,10,78,46,197,40,1*73
$GLGSV,2,2,08,79,53,291,42,81,38,345,25,82,22,289,32,88,17,040,08,1*71
$GLGSV,2,1,06,66,27,116,32,78,46,197,36,79,53,291,36,81,38,345,25,3*7A
$GLGSV,2,2,06,82,22,289,28,88,17,040,10,3*7C
$GLGSV,1,1,02,65,15,052,,80,08,330,,0*7B
$GAGSV,2,1,06,01,43,314,34,07,15,132,33,13,35,029,12,21,74,206,38,2*74
$GAGSV,2,2,06,26,54,309,36,27,26,156,34,2*7E
$GAGSV,2,1,05,01,43,314,35,07,15,132,32,21,74,206,41,26,54,309,39,7*75
$GAGSV,2,2,05,27,26,156,34,7*42
$GAGSV,1,1,03,08,10,083,,14,17,084,,33,21,260,,0*4D
$GBGSV,2,1,08,07,75,121,38,08,74,311,38,10,75,328,39,11,44,328,37,1*7F
$GBGSV,2,2,08,13,61,253,40,21,37,095,42,24,30,185,37,25,46,258,41,1*74
$GBGSV,2,1,06,07,75,121,37,08,74,311,36,10,75,328,36,11,44,328,36,3*7C
$GBGSV,2,2,06,12,36,039,11,13,61,253,33,3*7F
$GBGSV,3,1,11,01,47,123,,02,47,236,,03,64,190,,04,33,109,,0*74
$GBGSV,3,2,11,04,33,109,,05,23,255,,06,05,174,,09,04,200,,0*72
$GBGSV,3,3,11,09,04,200,,16,04,180,,22,09,048,,0*47
$GNGLL,2218.12772,N,11411.39980,E,062910.00,A,D*79
$?ÿÿÅðÿÿ*>N
$i?ÿÿêýÿÿ?nGc
$GNVTG,331.01,T,,M,11.153,N,20.656,K,D*26
$GNGGA,062911.00,2218.13048,N,11411.39822,E,2,12,0.61,4.2,M,-1.6,M,,0000*55
$GNGSA,A,3,03,14,30,06,19,02,28,17,50,,,,1.17,0.61,1.00,1*00
$GNGSA,A,3,66,79,82,81,78,,,,,,,,1.17,0.61,1.00,2*01
$GNGSA,A,3,26,27,01,07,21,,,,,,,,1.17,0.61,1.00,3*06
$GNGSA,A,3,13,07,10,25,21,24,08,11,,,,,1.17,0.61,1.00,4*0B
$GPGSV,3,1,10,02,15,249,12,03,37,057,14,06,45,265,38,14,83,151,42,1*6D
$GPGSV,3,2,10,17,47,359,27,19,36,326,25,28,75,330,39,30,21,200,33,1*66
$GPGSV,3,3,10,41,46,238,39,50,60,149,37,1*6A
$GPGSV,2,1,05,03,37,057,14,06,45,265,36,14,83,151,40,17,47,359,23,6*62
$GPGSV,2,2,05,30,21,200,31,6*56
$GPGSV,2,1,07,01,11,042,,04,02,110,,07,00,169,,09,06,141,,0*62
$GPGSV,2,2,07,09,06,141,,22,13,042,,24,00,309,,0*51
$GLGSV,2,1,08,66,27,116,38,67,08,165,39,77,01,167,09,78,46,197,40,1*74
$GLGSV,2,2,08,79,53,291,42,81,38,345,23,82,22,289,34,88,17,040,10,1*78
$GLGSV,2,1,06,66,27,116,33,78,46,197,36,79,53,291,35,81,38,345,22,3*7F
$GLGSV,2,2,06,82,22,289,27,88,17,040,11,3*72
$GLGSV,1,1,02,65,15,052,,80,08,330,,0*7B
$GAGSV,2,1,06,01,43,314,33,07,15,132,31,13,35,029,09,21,74,206,38,2*7B
$GAGSV,2,2,06,26,54,309,36,27,26,156,34,2*7E
$GAGSV,2,1,05,01,43,314,35,07,15,132,28,21,74,206,41,26,54,309,39,7*7E
$GAGSV,2,2,05,27,26,156,34,7*42
$GAGSV,1,1,03,08,10,083,,14,17,084,,33,21,260,,0*4D
$GBGSV,2,1,08,07,75,121,39,08,74,311,38,10,75,328,39,11,44,328,37,1*7E
$GBGSV,2,2,08,13,61,253,40,21,37,095,39,24,30,185,37,25,46,258,40,1*79
$GBGSV,2,1,06,07,75,121,37,08,74,311,36,10,75,328,36,11,44,328,33,3*79
$GBGSV,2,2,06,12,36,039,11,13,61,253,33,3*7F
$GBGSV,3,1,11,01,47,123,,02,47,236,,03,64,190,,04,33,109,,0*74
$GBGSV,3,2,11,04,33,109,,05,23,255,,06,05,174,,09,04,200,,0*72
$GBGSV,3,3,11,09,04,200,,16,04,180,,22,09,048,,0*47
$GNGLL,2218.13048,N,11411.39822,E,062911.00,A,D*7E
$µb5?(a$=
$pUU?
$?ÿÿÃðÿÿtŠS
$f?ÿÿèýÿÿ?(d
$GNVTG,322.01,T,,M,10.665,N,19.751,K,D*2B
$GNGGA,062912.00,2218.13294,N,11411.39636,E,2,12,0.66,4.2,M,-1.6,M,,0000*59
$GNGSA,A,3,03,14,30,06,19,02,28,17,50,,,,1.20,0.66,1.00,1*03
$GNGSA,A,3,66,79,82,81,78,,,,,,,,1.20,0.66,1.00,2*02
$GNGSA,A,3,26,27,01,07,21,,,,,,,,1.20,0.66,1.00,3*05
$GNGSA,A,3,13,07,10,25,21,24,08,11,,,,,1.20,0.66,1.00,4*08
$GPGSV,3,1,09,02,15,249,15,06,45,265,39,14,83,151,42,17,47,359,28,1*63
$GPGSV,3,2,09,19,36,326,25,28,75,330,38,30,21,200,34,41,46,238,39,1*63
$GPGSV,3,3,09,50,60,149,38,1*59
$GPGSV,2,1,05,03,37,057,13,06,45,265,37,14,83,151,40,17,47,359,24,6*63
$GPGSV,2,2,05,30,21,200,32,6*55
$GPGSV,2,1,07,01,11,042,,04,02,110,,07,00,169,,09,06,141,,0*62
$GPGSV,2,2,07,09,06,141,,22,13,042,,24,00,309,,0*51
$GLGSV,2,1,08,66,27,116,35,67,08,165,35,77,01,167,08,78,46,197,41,1*75
$GLGSV,2,2,08,79,53,291,42,81,38,345,22,82,22,289,30,88,17,040,09,1*75
$GLGSV,2,1,07,66,27,116,32,67,08,165,26,78,46,197,36,79,53,291,35,3*70
$GLGSV,2,2,07,81,38,345,16,82,22,289,25,88,17,040,11,3*46
$GLGSV,1,1,02,65,15,052,,80,08,330,,0*7B
$GAGSV,2,1,07,01,43,314,34,07,15,132,32,13,35,029,10,21,74,206,38,2*76
$GAGSV,2,2,07,26,54,309,35,27,26,156,34,33,21,260,21,2*48
$GAGSV,2,1,06,01,43,314,36,07,15,132,33,21,74,206,41,26,54,309,38,7*75
$GAGSV,2,2,06,27,26,156,34,33,21,260,21,7*75
$GAGSV,1,1,02,08,10,083,,14,17,084,,0*7B
$GBGSV,2,1,08,07,75,121,39,08,74,311,39,10,75,328,39,11,44,328,30,1*78
$GBGSV,2,2,08,13,61,253,39,21,37,095,39,24,30,185,39,25,46,258,40,1*79
$GBGSV,2,1,06,07,75,121,37,08,74,311,36,10,75,328,36,11,44,328,30,3*7A
$GBGSV,2,2,06,12,36,039,12,13,61,253,33,3*7C
$GBGSV,3,1,11,01,47,123,,02,47,236,,03,64,190,,04,33,109,,0*74
$GBGSV,3,2,11,04,33,109,,05,23,255,,06,05,174,,09,04,200,,0*72
$GNGLL,2218.13294,N,11411.39636,E,062912.00,A,D*75
$ªÀ"€?%GJ?=?XéÛ?üÛ?
$?ÿÿÄðÿÿ?ÔX
$e?ÿÿçýÿÿ??¼d
$GNVTG,310.58,T,,M,10.230,N,18.946,K,D*2B
$GNGGA,062913.00,2218.13494,N,11411.39414,E,2,12,0.66,4.1,M,-1.6,M,,0000*5F
$GNGSA,A,3,03,14,30,06,19,02,28,17,50,,,,1.20,0.66,1.00,1*03
$GNGSA,A,3,66,79,82,81,78,,,,,,,,1.20,0.66,1.00,2*02
$GNGSA,A,3,26,27,01,07,21,,,,,,,,1.20,0.66,1.00,3*05
$GNGSA,A,3,13,07,10,25,21,24,08,11,,,,,1.20,0.66,1.00,4*08
$GPGSV,3,1,09,02,15,249,08,06,45,265,39,14,83,151,42,17,47,359,27,1*60
$GPGSV,3,2,09,19,36,326,27,28,75,330,38,30,21,200,34,41,46,238,39,1*61
$GPGSV,3,3,09,50,60,149,38,1*59
$GPGSV,2,1,05,03,37,057,10,06,45,265,37,14,83,151,40,17,47,359,21,6*65
$GPGSV,2,2,05,30,21,200,33,6*54
$GPGSV,2,1,07,01,11,042,,04,02,110,,07,00,169,,09,06,141,,0*62
$GPGSV,2,2,07,09,06,141,,22,13,042,,24,00,309,,0*51
$GLGSV,2,1,07,66,27,116,38,67,08,165,40,77,01,167,12,78,46,197,40,1*7F
$GLGSV,2,2,07,79,53,291,42,81,38,345,20,88,17,040,10,1*4A
$GLGSV,2,1,07,66,27,116,31,67,08,165,26,78,46,197,36,79,53,291,34,3*72
$GLGSV,2,2,07,81,38,345,14,82,22,289,25,88,17,040,11,3*44
$GLGSV,1,1,02,65,15,052,,80,08,330,,0*7B
$GAGSV,2,1,06,01,43,314,34,07,15,132,33,21,74,206,37,26,54,309,35,2*7E
$GAGSV,2,2,06,27,26,156,33,33,21,260,21,2*77
$GAGSV,2,1,06,01,43,314,36,07,15,132,33,21,74,206,41,26,54,309,38,7*75
$GAGSV,2,2,06,27,26,156,34,33,21,260,22,7*76
$GAGSV,1,1,03,08,10,083,,13,35,029,,14,17,084,,0*45
$GBGSV,2,1,08,07,75,123,40,08,74,311,39,10,75,328,38,11,44,328,28,1*7C
$GBGSV,2,2,08,13,61,253,39,21,37,095,41,24,30,185,38,25,46,258,40,1*77
$GBGSV,2,1,06,07,75,123,37,08,74,311,36,10,75,328,36,11,44,328,28,3*71
$GBGSV,2,2,06,12,36,039,12,13,61,253,34,3*7B
$GBGSV,3,1,11,01,47,123,,02,47,236,,03,64,190,,04,33,109,,0*74
$GBGSV,3,2,11,04,33,109,,05,23,255,,06,05,174,,09,04,200,,0*72
$GBGSV,3,3,11,09,04,200,,16,04,180,,22,09,048,,0*47
$GNGLL,2218.13494,N,11411.39414,E,062913.00,A,D*70
$''#$$)C%'4'&+++<.66>ABFLMQQTY[Z\]cemionorsvy{|~€€????????????????????????????????????????????????~…|{~{yuuspssjieba^ZWSUKG?<;430++*(&'%&'&!"$!"!#!"!"!
$?ÿÿÁðÿÿ^
$_?ÿÿâýÿÿ??we
$GNVTG,297.07,T,,M,9.636,N,17.846,K,D*1B
$GNGGA,062914.00,2218.13635,N,11411.39164,E,2,12,0.66,4.1,M,-1.6,M,,0000*53
$GNGSA,A,3,03,14,30,06,19,02,28,17,50,,,,1.20,0.66,1.00,1*03
$GNGSA,A,3,66,79,82,81,78,,,,,,,,1.20,0.66,1.00,2*02
$GNGSA,A,3,26,27,01,07,21,,,,,,,,1.20,0.66,1.00,3*05
$GNGSA,A,3,13,07,10,25,21,24,08,11,,,,,1.20,0.66,1.00,4*08
$GPGSV,3,1,09,02,15,249,08,06,45,265,39,14,83,151,42,17,47,359,24,1*63
$GPGSV,3,2,09,19,36,326,38,28,75,330,38,30,21,200,34,41,46,238,40,1*61
$GPGSV,3,3,09,50,60,149,38,1*59
$GPGSV,2,1,05,03,37,057,10,06,45,265,33,14,83,151,40,17,47,359,19,6*6A
$GPGSV,2,2,05,30,21,200,32,6*55
$GPGSV,2,1,07,01,11,042,,04,02,110,,07,00,169,,09,06,141,,0*62
$GPGSV,2,2,07,09,06,141,,22,13,042,,24,00,309,,0*51
$GLGSV,2,1,08,66,27,116,38,67,08,165,37,77,01,167,06,78,46,197,40,1*75
$GLGSV,2,2,08,79,53,291,40,81,38,345,18,82,22,289,21,88,17,040,11,1*77
$GLGSV,2,1,07,66,27,116,32,67,08,165,27,78,46,197,35,79,53,291,34,3*73
$GLGSV,2,2,07,81,38,345,11,82,22,289,22,88,17,040,08,3*4E
$GLGSV,1,1,02,65,15,052,,80,08,330,,0*7B
$GAGSV,2,1,06,01,43,314,33,07,15,132,30,21,74,206,37,26,54,309,35,2*7A
$GAGSV,2,2,06,27,26,156,32,33,21,260,23,2*74
$GAGSV,2,1,06,01,43,314,36,07,15,132,36,21,74,206,40,26,54,309,38,7*71
$GAGSV,2,2,06,27,26,156,35,33,21,260,24,7*71
$GAGSV,1,1,03,08,10,083,,13,35,029,,14,17,084,,0*45
$GBGSV,2,1,08,07,75,123,40,08,74,312,38,10,75,328,38,11,44,328,33,1*74
$GBGSV,2,2,08,13,61,253,39,21,37,095,38,24,30,185,38,25,46,258,42,1*7B
$GBGSV,2,1,06,07,75,123,37,08,74,312,36,10,75,328,36,11,44,328,32,3*79
$GBGSV,2,2,06,12,36,039,12,13,61,253,35,3*7A
$GBGSV,3,1,11,01,47,123,,02,47,236,,03,64,190,,04,33,109,,0*74
$GBGSV,3,2,11,04,33,109,,05,23,255,,06,05,174,,09,04,200,,0*72
$GBGSV,3,3,11,09,04,200,,16,04,180,,22,09,048,,0*47
$GNGLL,2218.13635,N,11411.39164,E,062914.00,A,D*7C
$Z?ÿÿÞýÿÿ?Z
$GNVTG,282.32,T,,M,9.031,N,16.726,K,D*10
$GNGGA,062915.00,2218.13710,N,11411.38901,E,2,12,0.66,4.1,M,-1.6,M,,0000*5E
$GNGSA,A,3,03,14,30,06,19,28,17,50,,,,,1.16,0.66,0.96,1*0A
$GNGSA,A,3,66,79,82,81,78,,,,,,,,1.16,0.66,0.96,2*09
$GNGSA,A,3,26,27,33,01,07,21,,,,,,,1.16,0.66,0.96,3*0E
$GNGSA,A,3,13,07,10,25,21,24,08,11,,,,,1.16,0.66,0.96,4*03
$GPGSV,3,1,09,02,15,249,07,06,45,265,37,14,83,151,42,17,47,359,21,1*67
$GPGSV,3,2,09,19,36,326,38,28,75,330,39,30,21,200,34,41,46,238,40,1*60
$GPGSV,3,3,09,50,60,149,37,1*56
$GPGSV,2,1,05,03,37,057,09,06,45,265,34,14,83,151,40,17,47,359,16,6*6A
$GPGSV,2,2,05,30,21,200,31,6*56
$GPGSV,2,1,07,01,11,042,,04,02,110,,07,00,169,,09,06,141,,0*62
$GPGSV,2,2,07,09,06,141,,22,13,042,,24,00,309,,0*51
$GLGSV,2,1,08,66,27,116,38,67,08,165,37,77,01,167,09,78,46,197,39,1*74
$GLGSV,2,2,08,79,53,291,41,81,38,345,15,82,22,289,23,88,17,040,07,1*7E
$GLGSV,2,1,07,66,27,116,32,67,08,165,26,78,46,197,35,79,53,291,33,3*75
$GLGSV,2,2,07,81,38,345,09,82,22,289,21,88,17,040,10,3*4D
$GLGSV,1,1,02,65,15,052,,80,08,330,,0*7B
$GAGSV,2,1,06,01,43,314,34,07,15,132,31,21,74,206,37,26,54,309,36,2*7F
$GAGSV,2,2,06,27,26,156,33,33,21,260,26,2*70
$GAGSV,2,1,06,01,43,314,37,07,15,132,35,21,74,206,40,26,54,309,39,7*72
$GAGSV,2,2,06,27,26,156,34,33,21,260,26,7*72
$GAGSV,1,1,03,08,10,083,,13,35,029,,14,17,084,,0*45
$GBGSV,2,1,08,07,75,123,40,08,74,312,38,10,75,328,38,11,44,328,39,1*7E
$GBGSV,2,2,08,13,61,253,40,21,37,095,40,24,30,185,40,25,46,258,39,1*79
$GBGSV,2,1,05,07,75,123,37,08,74,312,37,10,75,328,36,11,44,328,38,3*71
$GBGSV,2,2,05,13,61,253,35,3*46
$GBGSV,3,1,12,01,47,123,,02,47,236,,03,64,190,,04,33,109,,0*77
$GBGSV,3,2,12,04,33,109,,05,23,255,,06,05,174,,09,04,199,,0*72
$GBGSV,3,3,12,09,04,199,,12,36,039,,16,04,180,,22,09,048,,0*7B
$GNGLL,2218.13710,N,11411.38901,E,062915.00,A,D*71
$?#\ŠÞ†~¿i
$P?ÿÿÖýÿÿ?ôf
$GNVTG,268.71,T,,M,8.767,N,16.236,K,D*12
$GNGGA,062916.00,2218.13722,N,11411.38638,E,2,12,0.63,4.1,M,-1.6,M,,0000*5C
$GNGSA,A,3,02,14,30,06,19,28,17,50,,,,,1.13,0.63,0.94,1*09
$GNGSA,A,3,66,79,82,81,78,,,,,,,,1.13,0.63,0.94,2*0B
$GNGSA,A,3,26,27,33,01,07,21,,,,,,,1.13,0.63,0.94,3*0C
$GNGSA,A,3,13,07,10,25,21,24,08,11,,,,,1.13,0.63,0.94,4*01
$GPGSV,3,1,09,02,15,249,10,06,45,265,37,14,83,151,42,17,47,359,18,1*6B
$GPGSV,3,2,09,19,36,326,38,28,75,330,39,30,21,200,34,41,46,238,40,1*60
$GPGSV,3,3,09,50,60,149,37,1*56
$GPGSV,1,1,04,06,45,265,34,14,83,151,39,17,47,359,14,30,21,200,31,6*68
$GPGSV,2,1,08,01,11,042,,03,37,057,,04,02,110,,07,00,169,,0*63
$GPGSV,2,2,08,07,00,169,,09,06,141,,22,13,042,,24,00,309,,0*67
$GLGSV,2,1,08,66,27,116,38,67,08,165,29,77,01,167,07,78,46,197,39,1*75
