     3.03           OBSERVATION DATA    M: Mixed            RINEX VERSION / TYPE
RTKCONV demo5 b33c                      20210524 111707 UTC PGM / RUN BY / DATE 
log: C:\Users\Ivan_PolyU_Dktp\Dropbox\HUAWEI Exp\20210521_  COMMENT             
format: RINEX                                               COMMENT             
                                                            MARKER NAME         
                                                            MARKER NUMBER       
                                                            MARKER TYPE         
                                                            OBSERVER / AGENCY   
BFN16413056         NOV CDSR0G55N       OEM060710RN0000     REC # / TYPE / VERS 
                                                            ANT # / TYPE        
 -2419198.4545  5385470.4273  2405391.4254                  APPROX POSITION XYZ 
        0.0000        0.0000        0.0000                  ANTENNA: DELTA H/E/N
G    8 C1C L1C D1C S1C C2W L2W D2W S2W                      SYS / # / OBS TYPES 
R    8 C1C L1C D1C S1C C2P L2P D2P S2P                      SYS / # / OBS TYPES 
C    8 C2I L2I D2I S2I C7I L7I D7I S7I                      SYS / # / OBS TYPES 
  2021     5    21     6    29    6.0000000     GPS         TIME OF FIRST OBS   
  2021     5    21     6    54   40.0000000     GPS         TIME OF LAST OBS    
G                                                           SYS / PHASE SHIFT   
R                                                           SYS / PHASE SHIFT   
C                                                           SYS / PHASE SHIFT   
  1 R15  0                                                  GLONASS SLOT / FRQ #
 C1C    0.000 C1P    0.000 C2C    0.000 C2P    0.000        GLONASS COD/PHS/BIS 
                                                            END OF HEADER       
> 2021  5 21  6 29  6.0000000  0 24                     
G19  22057758.151 6 115914301.875 6      1435.953          38.000    22057755.931 3  90322826.209 3      1118.920          20.250  
G 3  22220321.275 6 116768567.541 6     -1726.203          39.500    22220322.487 5  90988493.928 5     -1345.097          30.250  
G30  23631937.905 5 124186687.798 5     -2682.245          31.250    23631944.373 5  96768811.830 5     -2090.054          30.750  
G 6  21635260.856 6 113694074.528 6      1080.311          41.000    21635264.702 6  88592797.343 6       841.804          41.750  
G17  21736132.696 6 114224159.997 6       669.667          38.250    21736131.277 6  89005824.676 6       521.817          38.250  
G14  20180337.000 7 106048385.709 7      -467.764          43.250    20180336.403 5  82635101.282 5      -364.494          34.000  
G28  20534934.052 6 107911812.700 6      1110.401          39.750    20534931.984 5  84087114.391 5       865.247          30.500  
R14  20538887.668 6 109483421.416 6     -3196.855          40.000    20538891.691 5  85153791.421 5     -2486.447          34.750  
R 2  21835699.641 6 116519094.729 6      2417.548          36.250    21835704.791 5  90625973.776 5      1880.319          31.250  
R15  20080946.330 6 107306104.648 6       588.444          39.750    20080949.107 5  83460311.330 5       457.679          33.750  
R17  21006598.329 6 112410187.450 6      -684.166          38.500    21006600.333 5  87430143.217 5      -532.129          33.500  
C23  25483282.755 5 132698147.261 5      1648.224          32.500                                                                  
C 3  36370334.043 6 189389869.747 6        25.829          39.000                                                                  
C 4  38310503.968 5 199492863.56515         1.126          32.250                                                                  
C25  23237596.119 6 121004261.635 6      -819.623          40.000                                                                  
C 8  36488073.842 6 190002976.079 6      -454.527          37.500    36488071.637 5 146922348.829 5      -351.511          34.000  
C21  23894917.455 6 124427106.767 6       668.012          40.250                                                                  
C10  35921207.297 6 187051155.596 6       415.779          37.500    35921207.652 5 144639820.209 5       321.734          33.750  
C11  23069610.832 6 120129514.934 6       289.862          36.750    23069612.972 5  92891780.023 5       223.925          34.000  
C12  23472272.375 5 122226277.222 5      -957.131          34.250    23472271.844 5  94513112.485 5      -739.988          33.750  
C13  36543446.530 6 190291315.457 6       -90.724          37.500    36543452.384 5 147145330.584 5       -70.082          32.000  
C24  24493683.746 6 127545026.098 6     -2903.932          38.000                                                                  
C 7  35717127.675 6 185988453.713 6       -13.407          39.250    35717125.018 5 143818072.201 5        -9.990          35.000  
C 1  37380993.658 6 194652640.171 6         3.432          37.750    37380993.629 5 150517767.54515         2.827          32.500  
> 2021  5 21  6 29  7.0000000  0 24                     
G19  22057484.862 6 115912865.827 6      1436.582          37.750    22057482.521 5  90321707.161 5      1119.403          34.000  
G 3  22220649.800 6 116770293.825 6     -1726.231          39.750    22220650.860 5  90989839.071 5     -1345.121          32.000  
G30  23632448.262 5 124189369.734 5     -2682.699          32.500    23632454.797 5  96770901.654 5     -2090.410          34.000  
G 6  21635055.249 6 113692994.124 6      1081.035          41.250    21635059.121 6  88591955.473 6       842.369          41.750  
G17  21736005.176 6 114223489.890 6       670.910          38.500    21736003.764 6  89005302.515 6       522.786          38.750  
G14  20180426.046 7 106048853.612 7      -467.908          43.250    20180425.452 5  82635465.884 5      -364.603          35.000  
G28  20534722.664 6 107910701.865 6      1111.120          39.750    20534720.690 5  84086248.803 5       865.806          34.500  
R14  20539487.420 6 109486618.413 6     -3196.887          40.000    20539491.449 5  85156277.966 5     -2486.472          35.000  
R 2  21835246.647 6 116516677.177 6      2417.519          36.500    21835251.707 5  90624093.462 5      1880.296          32.250  
R15  20080836.242 6 107305516.311 6       588.487          40.000    20080839.000 5  83459853.733 5       457.713          33.750  
R17  21006726.087 6 112410871.086 6      -683.023          38.750    21006728.103 5  87430674.935 5      -531.239          33.250  
C23  25482966.137 5 132696498.676 5      1649.810          32.250                                                                  
C 3  36370329.011 6 189389843.545 6        26.334          38.750    36370328.367 5 146448241.17725        20.259          33.750  
C 4  38310505.921 5 199492862.10425         1.500          31.250                                                                  
C25  23237753.501 6 121005081.129 6      -818.966          39.750                                                                  
C 8  36488161.136 6 190003430.505 6      -453.959          37.500    36488158.891 5 146922700.171 5      -350.614          34.500  
C21  23894789.179 6 124426438.772 6       667.827          40.000                                                                  
C10  35921127.338 6 187050739.262 6       416.746          37.250    35921127.708 5 144639498.276 5       322.385          33.750  
C11  23069555.114 6 120129224.806 6       290.687          37.000    23069557.288 5  92891555.656 5       224.922          34.000  
C12  23472456.123 5 122227234.167 5      -956.380          34.500    23472455.586 5  94513852.462 5      -739.943          33.250  
C13  36543463.925 6 190291405.975 6       -89.854          37.500    36543469.782 5 147145400.594 5       -69.421          32.750  
C24  24494241.411 6 127547929.909 6     -2903.431          38.000                                                                  
C 7  35717130.188 6 185988466.814 6       -12.992          39.250    35717127.520 5 143818082.337 5        -9.862          35.000  
C 1  37380992.934 6 194652636.444 6         4.009          37.750    37380993.926 5 150517764.195 5         2.556          32.500  
> 2021  5 21  6 29  8.0000000  0 24                     
G19  22057211.347 6 115911428.486 6      1437.872          38.000    22057209.002 4  90320587.153 4      1120.415          29.000  
G 3  22220978.468 6 116772021.041 6     -1727.962          39.000    22220979.562 5  90991184.941 5     -1346.469          31.250  
G30  23632958.612 5 124192051.617 5     -2682.258          33.250    23632965.057 5  96772991.444 5     -2090.069          33.250  
G 6  21634849.537 6 113691913.012 6      1081.359          41.250    21634853.380 6  88591113.054 6       842.621          40.750  
G17  21735877.549 6 114222819.110 6       671.613          39.000    21735876.146 6  89004779.836 6       523.336          39.500  
G14  20180515.205 7 106049322.080 7      -468.934          43.000    20180514.625 5  82635830.919 5      -365.404          35.250  
G28  20534511.257 6 107909590.964 6      1110.598          39.500    20534509.154 4  84085383.174 4       865.403          27.000  
R14  20540087.273 6 109489815.962 6     -3198.124          40.000    20540091.305 5  85158764.947 5     -2487.433          33.250  
R 2  21834793.866 6 116514261.202 6      2414.537          37.250    21834799.042 5  90622214.382 5      1877.979          32.250  
R15  20080726.085 6 107304927.712 6       589.025          39.250    20080728.844 5  83459395.933 5       458.130          33.500  
R17  21006853.672 6 112411553.675 6      -682.260          38.250    21006855.660 5  87431205.841 5      -530.645          32.750  
C23  25482649.322 5 132694848.971 5      1650.415          31.750                                                                  
C 3  36370323.975 6 189389817.330 6        26.011          38.750    36370321.924 5 146448220.390 5        20.239          33.000  
C 4  38310504.444 5 199492861.70825        -0.401          32.500                                                                  
C25  23237910.772 6 121005900.092 6      -818.751          40.250                                                                  
C 8  36488248.306 6 190003884.415 6      -453.766          37.000    36488246.102 5 146923051.189 5      -351.166          34.000  
C21  23894661.120 6 124425772.135 6       665.740          38.750                                                                  
C10  35921047.294 6 187050322.494 6       417.010          37.250    35921047.668 5 144639176.037 5       322.272          34.250  
C11  23069499.168 6 120128933.464 6       291.545          37.500    23069501.334 5  92891330.386 5       225.543          34.000  
C12  23472639.897 5 122228191.097 5      -957.292          35.750    23472639.322 5  94514592.339 5      -740.045          33.000  
C13  36543481.201 6 190291495.929 6       -89.673          37.500    36543487.053 5 147145470.159 5       -69.418          32.750  
C24  24494799.149 6 127550834.173 6     -2905.012          37.000                                                                  
C 7  35717132.754 6 185988480.209 6       -14.022          39.250    35717130.067 5 143818092.665 5       -10.613          34.500  
C 1  37380992.377 6 194652633.536 6         2.254          38.000                                                                  
> 2021  5 21  6 29  9.0000000  0 24                     
G19  22056937.665 6 115909990.403 6      1439.057          38.750    22056935.293 5  90319466.618 5      1121.349          34.250  
G 3  22221307.499 6 116773750.226 6     -1729.763          38.000    22221308.606 5  90992532.353 5     -1347.872          32.000  
G30  23633469.067 5 124194733.803 5     -2682.198          34.250    23633475.589 5  96775081.453 5     -2090.022          34.000  
G 6  21634643.718 6 113690831.459 6      1082.077          39.500    21634647.574 6  88590270.287 6       843.181          38.750  
G17  21735749.940 6 114222148.448 6       670.975          39.000    21735748.584 6  89004257.240 6       522.838          38.500  
G14  20180604.595 7 106049791.801 7      -469.709          43.250    20180604.011 5  82636196.946 5      -366.006          34.500  
G28  20534299.985 6 107908480.664 6      1110.418          40.000    20534297.802 5  84084518.030 5       865.266          33.250  
R14  20540687.307 6 109493014.523 6     -3198.239          37.750    20540691.363 5  85161252.726 5     -2487.519          33.750  
R 2  21834341.625 6 116511847.790 6      2412.651          37.250    21834346.759 5  90620337.292 5      1876.512          31.750  
R15  20080615.990 6 107304339.319 6       588.975          39.750    20080618.741 5  83458938.292 5       458.091          33.500  
R17  21006981.145 6 112412235.921 6      -681.335          38.500    21006983.146 5  87431736.480 5      -529.926          31.250  
C23  25482332.411 5 132693198.364 5      1651.446          30.250                                                                  
C 3  36370319.035 6 189389791.687 6        26.151          39.000    36370318.125 5 146448200.568 5        20.251          32.500  
C 4  38310505.766 5 199492863.44925        -2.195          31.750    38310506.477 5 154260533.86525        -1.743          30.500  
C25  23238068.002 6 121006718.813 6      -818.005          40.000                                                                  
C 8  36488335.474 6 190004338.395 6      -453.465          37.000    36488333.271 5 146923402.230 5      -350.598          33.750  
C21  23894533.537 6 124425107.835 6       663.634          37.500                                                                  
C10  35920967.311 6 187049905.939 6       416.757          37.500    35920967.662 5 144638853.886 5       321.961          33.500  
C11  23069443.111 6 120128641.589 6       292.394          38.000    23069445.240 5  92891104.676 5       225.758          35.000  
C12  23472823.874 6 122229149.017 6      -958.032          36.500    23472823.305 5  94515333.059 5      -740.812          34.750  
C13  36543498.418 6 190291585.679 6       -89.079          39.000    36543504.280 5 147145539.535 5       -69.201          32.000  
C24  24495357.058 6 127553739.305 6     -2905.085          37.250                                                                  
C 7  35717135.548 6 185988494.652 6       -14.497          39.500    35717132.855 5 143818103.858 5       -10.998          34.750  
C 1  37380992.135 6 194652632.327 6         1.066          37.750    37380992.033 5 150517763.48115         0.922          31.500  
> 2021  5 21  6 29 10.0000000  0 24                     
G19  22056663.813 6 115908551.379 6      1439.542          38.750    22056661.695 5  90318345.318 5      1121.728          34.750  
G 3  22221636.871 6 116775481.255 6     -1731.955          39.500    22221637.994 5  90993881.210 5     -1349.577          35.750  
G30  23633979.297 5 124197414.916 5     -2680.079          33.750    23633985.831 5  96777170.635 5     -2088.370          33.500  
G 6  21634437.684 6 113689748.635 6      1083.076          38.000    21634441.512 6  88589426.539 6       843.960          37.750  
G17  21735622.288 6 114221477.570 6       670.897          38.750    21735620.921 6  89003734.478 6       522.777          39.000  
G14  20180694.084 7 106050262.057 7      -470.496          43.000    20180693.493 6  82636563.375 6      -366.620          38.000  
G28  20534088.719 6 107907370.429 6      1110.430          40.500    20534086.536 5  84083652.902 5       865.272          32.750  
R14  20541287.321 6 109496212.952 6     -3198.307          38.250    20541291.388 5  85163740.415 5     -2487.567          34.000  
R 2  21833889.717 6 116509436.287 6      2410.524          38.000    21833894.826 5  90618461.676 5      1874.855          31.250  
R15  20080505.795 6 107303750.430 6       589.120          40.000    20080508.537 5  83458480.263 5       458.203          33.500  
R17  21007108.590 6 112412917.664 6      -681.277          38.500    21007110.535 5  87432266.699 5      -529.888          32.750  
C23  25482015.192 5 132691546.637 5      1651.612          31.250                                                                  
C 3  36370314.030 6 189389765.650 6        26.483          39.000                                                                  
C 4  38310506.018 5 199492866.44125        -3.528          33.500    38310505.083 4 154260536.18524        -3.019          29.750  
C25  23238225.047 6 121007536.445 6      -817.671          39.000                                                                  
C 8  36488422.571 6 190004791.876 6      -452.942          36.750    36488420.366 5 146923752.917 5      -350.584          34.250  
C21  23894406.337 6 124424445.476 6       661.313          39.000                                                                  
C10  35920887.243 6 187049489.006 6       416.972          37.750    35920887.617 5 144638531.497 5       322.421          33.500  
C11  23069386.883 6 120128348.806 6       293.000          37.000    23069388.987 5  92890878.275 5       226.800          34.500  
C12  23473007.999 5 122230107.768 5      -958.892          35.500    23473007.428 5  94516074.484 5      -741.853          35.000  
C13  36543515.454 6 190291674.374 6       -88.280          39.500    36543521.313 5 147145608.086 5       -68.193          31.750  
C24  24495914.887 6 127556644.089 6     -2905.020          37.250                                                                  
C 7  35717138.389 6 185988509.479 6       -15.384          39.750    35717135.707 5 143818115.299 5       -11.695          34.750  
C 1  37380992.069 6 194652632.048 6        -0.332          38.250    37380992.740 5 150517763.30225        -0.111          32.750  
> 2021  5 21  6 29 11.0000000  0 24                     
G19  22056389.844 6 115907111.562 6      1439.808          38.750    22056387.703 5  90317223.406 5      1121.941          34.000  
G 3  22221966.585 6 116777213.937 6     -1732.893          39.750    22221967.884 4  90995231.356 4     -1350.306          29.750  
G30  23634489.489 5 124200095.940 5     -2682.153          33.500    23634496.234 5  96779259.744 5     -2089.990          33.750  
G 6  21634231.489 6 113688665.159 6      1083.552          38.250    21634235.331 6  88588582.269 6       844.327          38.500  
G17  21735494.626 6 114220806.707 6       670.973          38.750    21735493.257 6  89003211.699 6       522.829          38.000  
G14  20180783.717 7 106050733.111 7      -471.353          43.000    20180783.102 5  82636930.419 5      -367.290          35.000  
G28  20533877.509 6 107906260.521 6      1109.787          40.500    20533875.268 5  84082788.043 5       864.772          32.750  
R14  20541887.407 6 109499411.789 6     -3199.384          38.250    20541891.503 5  85166228.406 5     -2488.405          33.750  
R 2  21833438.166 6 116507026.658 6      2409.310          38.000    21833443.282 5  90616587.494 5      1873.905          32.750  
R15  20080395.612 6 107303161.497 6       588.772          40.250    20080398.330 5  83458022.193 5       457.930          33.250  
R17  21007235.935 6 112413599.018 6      -680.806          38.250    21007237.849 5  87432796.616 5      -529.525          32.500  
C23  25481697.837 4 132689894.131 4      1651.854          29.500                                                                  
C 3  36370309.049 6 189389739.713 6        25.760          39.000    36370306.765 5 146448156.90715        19.515          31.750  
C 4  38310507.760 5 199492866.95315        -5.070          32.250    38310506.967 4 154260539.68924        -3.804          29.750  
C25  23238381.974 6 121008353.588 6      -817.332          39.750                                                                  
C 8  36488509.615 6 190005245.229 6      -453.616          36.750    36488507.413 5 146924103.464 5      -350.678          33.750  
C21  23894279.480 6 124423784.939 6       660.162          38.500                                                                  
C10  35920807.167 6 187049072.021 6       416.715          37.750    35920807.517 5 144638209.048 5       322.404          33.750  
C11  23069330.542 6 120128055.421 6       293.592          37.250    23069332.638 5  92890651.436 5       227.084          35.000  
C12  23473192.280 6 122231067.360 6      -959.721          37.000    23473191.720 5  94516816.489 5      -741.945          35.000  
C13  36543532.398 6 190291762.586 6       -88.127          40.000    36543538.267 5 147145676.359 5       -68.957          31.500  
C24  24496472.758 6 127559549.094 6     -2905.430          37.750                                                                  
C 7  35717141.357 6 185988524.897 6       -15.533          39.750    35717138.659 5 143818127.253 5       -12.069          34.750  
C 1  37380992.220 6 194652632.850 6        -1.337          38.250    37380992.707 5 150517763.435 5        -1.314          32.250  
> 2021  5 21  6 29 12.0000000  0 24                     
G19  22056115.742 6 115905671.082 6      1441.478          37.750    22056113.739 4  90316100.960 4      1123.237          26.000  
G 3  22222296.262 6 116778946.482 6     -1731.389          39.000    22222297.613 5  90996581.384 5     -1349.136          31.500  
G30  23634999.964 5 124202778.535 5     -2683.028          33.750    23635006.574 5  96781350.067 5     -2090.674          32.500  
G 6  21634025.504 6 113687582.726 6      1082.145          40.750    21634029.335 6  88587738.815 6       843.234          40.750  
G17  21735366.783 6 114220134.905 6       673.305          39.500    21735365.379 6  89002688.208 6       524.647          39.750  
G14  20180873.541 7 106051205.119 7      -471.888          43.000    20180872.927 5  82637298.218 5      -367.707          35.000  
G28  20533666.364 6 107905151.017 6      1110.026          39.750    20533664.122 5  84081923.476 5       864.950          30.750  
R14  20542487.853 6 109502612.414 6     -3201.342          39.500    20542491.924 5  85168717.781 5     -2489.929          34.000  
R 2  21832986.767 6 116504617.892 6      2409.074          37.500    21832991.866 5  90614714.009 5      1873.723          30.750  
R15  20080285.571 6 107302573.602 6       588.099          39.000    20080288.316 5  83457564.942 5       457.409          33.250  
R17  21007363.111 6 112414279.505 6      -679.197          38.000    21007365.001 5  87433325.875 5      -528.271          33.000  
C23  25481380.532 5 132688241.677 5      1653.139          31.750                                                                  
C 3  36370304.209 6 189389714.593 6        25.329          38.750    36370301.874 5 146448137.46625        19.492          33.500  
C 4  38310508.584 5 199492871.62425        -4.318          31.500    38310507.320 4 154260543.32824        -2.602          29.000  
C25  23238539.120 6 121009171.925 6      -818.852          40.750                                                                  
C 8  36488596.689 6 190005698.650 6      -452.769          37.500    36488594.470 5 146924454.065 5      -350.230          34.750  
C21  23894152.708 6 124423124.763 6       661.242          39.500                                                                  
C10  35920727.074 6 187048655.026 6       417.975          37.250    35920727.425 5 144637886.597 5       323.129          34.250  
C11  23069274.083 6 120127761.432 6       295.062          37.750    23069276.162 5  92890424.074 5       228.189          34.000  
C12  23473376.353 5 122232025.884 5      -956.864          35.250    23473375.824 5  94517557.684 5      -740.324          33.750  
C13  36543549.481 6 190291851.505 6       -88.703          38.250    36543555.338 5 147145745.083 5       -68.433          32.500  
C24  24497030.936 6 127562455.712 6     -2906.963          37.000                                                                  
C 7  35717144.397 6 185988540.723 6       -15.285          39.250    35717141.700 5 143818139.497 5       -12.034          35.000  
C 1  37380992.460 6 194652634.115 6        -0.987          37.750                                                                  
> 2021  5 21  6 29 13.0000000  0 24                     
G19  22055841.329 6 115904229.058 6      1442.880          36.250    22055839.667 4  90314977.319 4      1124.331          25.250  
G 3  22222625.620 6 116780677.284 6     -1730.262          37.500    22222627.050 4  90997930.044 4     -1348.265          28.750  
G30  23635510.794 5 124205462.783 5     -2685.228          35.000    23635517.443 5  96783441.670 5     -2092.389          33.750  
G 6  21633819.644 6 113686500.927 6      1081.233          39.750    21633823.476 6  88586895.859 6       842.522          39.250  
G17  21735238.551 6 114219461.107 6       674.467          39.250    21735237.212 6  89002163.192 6       525.559          39.750  
G14  20180963.405 7 106051677.366 7      -472.721          43.000    20180962.801 5  82637666.205 5      -368.356          35.000  
G28  20533455.142 6 107904041.089 6      1109.623          39.500    20533453.001 5  84081058.576 5       864.634          31.000  
R14  20543088.601 6 109505814.771 6     -3203.614          39.250    20543092.674 5  85171208.483 5     -2491.703          34.750  
R 2  21832535.346 5 116502208.973 5      2408.963          36.000    21832540.389 4  90612840.409 4      1873.637          29.250  
R15  20080175.670 6 107301986.161 6       586.910          40.750    20080178.383 5  83457108.048 5       456.485          33.750  
R17  21007489.879 6 112414957.862 6      -677.603          38.500    21007491.769 5  87433853.502 5      -527.027          31.500  
C23  25481063.163 4 132686582.05914      1654.191          28.000                                                                  
C 3  36370299.479 6 189389689.941 6        24.387          37.500                                                                  
C 4  38310509.370 5 199492875.61925        -3.910          32.500    38310506.582 4 154260546.39424        -2.677          29.750  
C25  23238696.450 6 121009991.184 6      -819.958          39.250                                                                  
C 8  36488683.638 6 190006151.418 6      -452.844          37.750    36488681.410 5 146924804.176 5      -349.935          33.000  
C21  23894025.754 6 124422463.761 6       660.835          38.500                                                                  
C10  35920646.874 6 187048237.262 6       417.764          37.750    35920647.199 5 144637563.556 5       323.114          32.250  
C11  23069217.331 5 120127465.898 5       295.926          36.000    23069219.375 5  92890195.583 5       229.063          32.000  
C12  23473559.925 5 122232981.848 5      -955.042          35.500    23473559.404 5  94518296.923 5      -738.668          33.750  
C13  36543566.618 6 190291940.727 6       -89.473          37.000    36543572.499 5 147145814.116 5       -69.293          30.250  
C24  24497589.419 6 127565363.901 6     -2909.207          37.000                                                                  
C 7  35717147.361 6 185988556.224 6       -15.626          38.750    35717144.662 5 143818151.497 5       -12.236          34.000  
C 1  37380992.635 6 194652635.042 6        -0.742          37.500    37380992.312 5 150517770.62315        -0.718          32.000  
> 2021  5 21  6 29 14.0000000  0 25                     
G19  22055566.787 5 115902786.294 5      1442.661          35.500    22055565.020 3  90313853.096 3      1124.160          23.750  
G 3  22222954.880 5 116782407.627 5     -1730.033          35.250    22222956.434 4  90999278.376 4     -1348.076          24.250  
G30  23636021.915 5 124208148.737 5     -2686.634          35.500    23636028.506 5  96785534.646 5     -2093.476          34.750  
G 6  21633613.977 6 113685420.069 6      1080.193          39.500    21633617.764 6  88586053.634 6       841.713          39.750  
G17  21735110.123 6 114218786.224 6       674.844          39.000    21735108.785 6  89001637.312 6       525.853          38.500  
G14  20181053.420 7 106052150.408 7      -473.569          43.500    20181052.764 5  82638034.812 5      -369.014          33.250  
G28  20533243.988 6 107902931.376 6      1109.152          40.000    20533241.825 4  84080193.852 4       864.268          29.750  
R14  20543689.703 6 109509018.870 6     -3205.364          40.500    20543693.767 5  85173700.546 5     -2493.065          34.750  
R 2  21832084.028 6 116499800.643 6      2408.331          36.500    21832089.085 5  90610967.268 5      1873.147          31.250  
R15  20080065.898 6 107301399.679 6       585.700          41.000    20080068.620 5  83456651.898 5       455.545          34.250  
R17  21007616.479 6 112415635.178 6      -677.109          37.250    21007618.352 5  87434380.320 5      -526.638          31.000  
C23  25480745.648 4 132684928.88124      1652.377          29.500                                                                  
C 2  37062964.311 5 192996576.33915        22.805          33.500                                                                  
C 3  36370294.897 6 189389666.041 6        23.528          37.250    36370294.823 5 146448104.95315        18.445          31.250  
C 4  38310510.319 5 199492879.584 5        -4.189          34.750    38310508.992 4 154260549.50624        -3.400          28.750  
C25  23238854.013 6 121010811.621 6      -820.993          39.000                                                                  
C 8  36488770.578 6 190006604.145 6      -453.079          37.750    36488768.368 5 146925154.263 5      -350.384          32.250  
C21  23893898.842 6 124421802.891 6       660.478          38.250                                                                  
C10  35920566.614 6 187047819.327 6       417.770          38.000    35920566.905 5 144637240.412 5       322.693          31.750  
C11  23069160.430 6 120127169.612 6       296.377          36.250    23069162.436 5  92889966.455 5       229.204          31.000  
C12  23473743.272 5 122233936.518 5      -953.894          34.500    23473742.749 5  94519035.126 5      -737.947          33.000  
C13  36543583.888 6 190292030.620 6       -90.469          37.750    36543589.772 4 147145883.613 4       -69.261          28.500  
C24  24498148.184 6 127568273.587 6     -2910.463          36.750                                                                  
C 7  35717150.391 6 185988572.042 6       -16.178          38.500    35717147.682 5 143818163.696 5       -12.333          32.750  
C 1  37380992.867 6 194652636.276 6        -1.266          38.000    37380992.291 5 150517771.064 5        -0.858          31.750  
> 2021  5 21  6 29 15.0000000  0 25                     
G19  22055292.110 6 115901343.016 6      1444.017          36.000    22055290.534 4  90312728.443 4      1125.205          29.250  
G 3  22223284.138 5 116784137.936 5     -1729.683          34.750    22223285.637 4  91000626.735 4     -1347.787          28.250  
G30  23636533.230 5 124210835.707 5     -2687.998          34.500    23636539.725 5  96787628.400 5     -2094.539          31.000  
G 6  21633408.404 6 113684339.876 6      1080.528          39.500    21633412.213 6  88585211.942 6       841.976          39.000  
G17  21734981.541 6 114218110.641 6       676.388          39.000    21734980.176 6  89001110.886 6       527.056          39.000  
G14  20181143.572 7 106052624.110 7      -473.568          43.250    20181142.913 5  82638403.940 5      -369.011          33.250  
G28  20533032.865 6 107901821.954 6      1109.883          39.750    20533030.839 5  84079329.373 5       864.840          31.750  
R14  20544291.060 6 109512224.312 6     -3205.745          39.500    20544295.096 5  85176193.662 5     -2493.362          35.000  
R 2  21831632.849 6 116497392.872 6      2407.510          38.000    21831637.863 5  90609094.557 5      1872.508          32.250  
R18  22355467.707 5 119334619.13015       848.723          31.750                                                                  
R15  20079956.313 6 107300813.987 6       585.762          40.750    20079959.037 5  83456196.363 5       455.593          35.000  
R17  21007742.942 6 112416311.750 6      -676.293          36.250    21007744.826 5  87434906.558 5      -526.001          30.250  
C23  25480428.132 4 132683274.15714      1654.041          28.000                                                                  
C 3  36370290.382 6 189389642.643 6        23.697          38.000    36370288.957 5 146448086.368 5        18.327          32.000  
C 4  38310510.805 5 199492883.601 5        -3.640          34.500    38310510.206 4 154260552.59124        -2.426          29.000  
C25  23239011.718 6 121011632.883 6      -821.314          39.250                                                                  
C 8  36488857.521 6 190007056.827 6      -452.312          37.250    36488855.314 5 146925504.304 5      -349.696          32.000  
C21  23893771.981 6 124421142.326 6       660.902          38.750                                                                  
C10  35920486.330 6 187047401.327 6       418.192          38.000    35920486.640 5 144636917.152 5       323.684          32.250  
C11  23069103.420 5 120126872.799 5       297.246          35.750    23069105.390 5  92889736.934 5       230.194          31.500  
C12  23473926.459 5 122234890.455 5      -952.944          35.250    23473925.950 5  94519772.750 5      -737.357          32.500  
C13  36543601.225 6 190292120.926 6       -90.709          38.250    36543607.130 4 147145953.464 4       -69.981          29.250  
C24  24498707.169 6 127571184.352 6     -2910.860          37.000                                                                  
C 7  35717153.460 6 185988588.000 6       -15.575          38.500    35717150.746 5 143818176.038 5       -12.009          33.000  
C 1  37380993.123 6 194652637.715 6        -0.875          37.750                                                                  
> 2021  5 21  6 29 16.0000000  0 25                     
G19  22055017.200 6 115899898.325 6      1446.124          36.250    22055015.731 5  90311602.721 5      1126.856          31.250  
G 3  22223613.331 5 116785868.009 5     -1729.304          32.000    22223614.756 4  91001974.874 4     -1347.494          29.250  
G30  23637044.628 5 124213523.087 5     -2688.447          33.750    23637051.054 5  96789722.466 5     -2094.890          33.250  
G 6  21633202.811 6 113683259.469 6      1080.565          39.000    21633206.623 6  88584370.075 6       842.006          39.250  
G17  21734852.733 6 114217433.777 6       678.112          39.500    21734851.356 6  89000583.459 6       528.399          39.000  
G14  20181233.777 7 106053098.080 7      -474.322          43.250    20181233.082 5  82638773.270 5      -369.599          35.000  
G28  20532821.685 6 107900712.224 6      1110.040          39.500    20532819.630 5  84078464.669 5       864.968          31.250  
R14  20544892.553 6 109515430.521 6     -3207.196          38.750    20544896.586 5  85178687.378 5     -2494.489          34.750  
R 2  21831181.734 6 116494985.632 6      2405.838          37.750    21831186.773 5  90607222.263 5      1871.208          32.250  
R18  22355307.221 5 119333769.61525       850.994          33.500                                                                  
R15  20079846.722 6 107300228.331 6       586.193          40.500    20079849.438 5  83455740.855 5       455.929          35.250  
R17  21007869.081 6 112416986.821 6      -673.362          36.000    21007870.964 4  87435431.618 4      -523.721          29.750  
C23  25480110.535 4 132681620.157 4      1655.107          29.000                                                                  
C 3  36370285.884 6 189389619.197 6        22.931          38.000    36370284.620 5 146448068.258 5        17.403          32.500  
C 4  38310511.542 5 199492887.714 5        -4.884          33.750    38310511.275 4 154260555.77824        -3.717          28.750  
C25  23239169.434 6 121012454.143 6      -820.975          39.250                                                                  
C 8  36488944.308 6 190007508.805 6      -451.437          37.500    36488942.113 5 146925853.852 5      -349.614          32.000  
C21  23893645.131 6 124420481.940 6       660.184          38.750                                                                  
C10  35920405.911 6 187046982.588 6       419.434          38.000    35920406.253 5 144636593.389 5       324.298          32.250  
C11  23069046.186 6 120126574.696 6       299.267          36.000    23069048.159 5  92889506.431 5       231.880          31.500  
C12  23474109.443 5 122235843.168 5      -951.414          35.000    23474108.917 5  94520509.432 5      -736.029          32.750  
C13  36543618.474 6 190292210.835 6       -89.528          38.250    36543624.440 4 147146023.000 4       -69.728          28.000  
C24  24499266.244 6 127574095.685 6     -2912.391          37.000                                                                  
C 7  35717156.487 6 185988603.784 6       -16.123          38.250    35717153.760 5 143818188.241 5       -12.580          33.250  
C 1  37380993.429 6 194652639.253 6        -2.611          37.500    37380993.075 5 150517776.89215        -1.904          32.750  
> 2021  5 21  6 29 17.0000000  0 24                     
G19  22054741.646 6 115898450.513 6      1449.158          36.250    22054740.194 5  90310474.546 5      1129.221          34.000  
G30  23637556.505 5 124216213.054 5     -2690.813          33.250    23637563.256 5  96791818.540 5     -2096.733          31.500  
G 6  21632997.110 6 113682178.509 6      1081.140          39.250    21633000.912 6  88583527.778 6       842.454          39.000  
G17  21734723.466 6 114216754.357 6       680.545          38.750    21734722.095 6  89000054.041 6       530.295          38.500  
G14  20181324.151 7 106053573.046 7      -475.335          43.250    20181323.448 5  82639143.376 5      -370.389          34.750  
G28  20532610.398 6 107899601.938 6      1110.390          40.000    20532608.328 5  84077599.511 5       865.240          30.250  
R14  20545494.500 6 109518639.412 6     -3210.415          39.250    20545498.568 5  85181183.178 5     -2496.993          35.750  
R 2  21830731.165 6 116492581.335 6      2402.412          37.250    21830736.194 5  90605352.256 5      1868.544          33.000  
R18  22355147.141 5 119332917.78825       852.591          34.000                                                                  
R15  20079736.939 6 107299641.845 6       586.809          40.500    20079739.687 5  83455284.703 5       456.409          35.000  
R17  21007994.654 6 112417658.714 6      -670.805          36.750    21007996.533 4  87435954.205 4      -521.733          29.250  
C23  25479792.379 4 132679963.316 4      1658.853          29.750                                                                  
C 3  36370281.604 6 189389597.060 6        21.834          38.250    36370280.547 5 146448051.146 5        16.582          31.750  
C 4  38310512.726 5 199492893.849 5        -6.469          33.750    38310512.007 4 154260560.54924        -5.583          28.500  
C25  23239327.142 6 121013275.370 6      -821.216          39.250                                                                  
C 8  36489030.907 6 190007959.846 6      -450.543          36.750    36489028.718 5 146926202.587 5      -348.322          32.500  
C21  23893518.643 6 124419823.345 6       657.778          39.750                                                                  
C10  35920325.307 6 187046562.932 6       420.062          38.000    35920325.663 5 144636268.860 5       324.788          32.250  
C11  23068988.387 6 120126273.709 6       302.261          36.500    23068990.353 5  92889273.692 5       233.896          31.500  
C12  23474292.104 5 122236794.298 5      -950.262          35.750    23474291.618 5  94521244.941 5      -734.905          32.000  
C13  36543635.704 6 190292300.576 6       -89.572          38.500    36543641.656 4 147146092.366 4       -69.175          28.500  
C24  24499825.924 6 127577010.027 6     -2915.776          37.250                                                                  
C 7  35717159.684 6 185988620.434 6       -17.161          38.500    35717156.967 5 143818201.109 5       -13.073          33.250  
C 1  37380994.118 6 194652642.834 6        -4.464          37.000    37380995.474 5 150517779.160 5        -3.333          32.000  
> 2021  5 21  6 29 18.0000000  0 23                     
G19  22054465.591 6 115896999.818 6      1451.363          36.250    22054464.230 4  90309344.174 4      1130.940          28.750  
G30  23638068.989 5 124218906.452 5     -2695.483          34.500    23638075.721 5  96793917.294 5     -2100.375          33.000  
G 6  21632791.431 6 113681097.572 6      1080.124          38.750    21632795.227 6  88582685.497 6       841.662          38.500  
G17  21734593.752 6 114216072.647 6       682.312          38.500    21734592.365 6  88999522.845 6       531.674          38.750  
G14  20181414.808 7 106054049.506 7      -477.773          43.000    20181414.134 5  82639514.645 5      -372.289          34.500  
G28  20532399.085 6 107898491.441 6      1110.078          40.000    20532397.044 5  84076734.194 5       865.000          34.000  
R14  20546097.089 6 109521851.468 6     -3214.092          39.250    20546101.144 5  85183681.444 5     -2499.852          35.500  
R 2  21830281.246 6 116490180.278 6      2398.689          37.250    21830286.224 5  90603484.765 5      1865.648          32.250  
R18  22354988.508 5 119332063.84225       855.004          32.000                                                                  
R15  20079627.139 6 107299054.987 6       586.380          40.500    20079629.848 5  83454828.261 5       456.076          35.250  
R17  21008119.629 6 112418327.598 6      -668.073          37.250    21008121.561 4  87436474.452 4      -519.608          28.750  
C23  25479473.717 4 132678304.054 4      1659.138          29.250                                                                  
C 3  36370277.702 6 189389576.842 6        18.935          38.500                                                                  
C25  23239484.971 6 121014097.116 6      -822.433          39.750                                                                  
C 8  36489117.388 6 190008410.312 6      -450.643          37.000    36489115.249 5 146926550.944 5      -349.051          32.500  
C21  23893392.525 6 124419166.690 6       655.336          39.750                                                                  
C10  35920244.553 6 187046142.596 6       420.221          38.000    35920244.965 5 144635943.854 5       324.781          32.250  
C11  23068930.085 6 120125970.151 6       304.191          36.250    23068932.046 5  92889038.941 5       235.645          31.500  
C12  23474474.461 5 122237743.945 5      -949.565          34.750    23474473.973 5  94521979.271 5      -734.233          32.750  
C13  36543653.001 6 190292390.655 6       -91.009          38.750    36543658.990 4 147146162.045 4       -70.646          28.500  
C24  24500386.305 6 127579928.141 6     -2920.428          36.000                                                                  
C 7  35717163.123 6 185988638.331 6       -18.734          38.250    35717160.426 5 143818214.985 5       -14.907          33.500  
C 1  37380995.292 6 194652648.917 6        -7.971          37.000    37380996.351 5 150517783.826 5        -5.712          31.500  
> 2021  5 21  6 29 19.0000000  0 23                     
G19  22054189.103 5 115895546.908 5      1453.703          34.750    22054187.795 4  90308212.040 4      1132.769          27.250  
G30  23638582.178 5 124221603.006 5     -2697.945          33.250    23638588.725 5  96796018.504 5     -2102.292          33.750  
G 6  21632585.817 6 113680016.997 6      1080.452          37.000    21632589.596 6  88581843.492 6       841.916          36.750  
G17  21734463.663 6 114215389.111 6       684.542          37.000    21734462.316 6  88998990.219 6       533.410          36.750  
G14  20181505.767 6 106054527.571 6      -478.538          41.500    20181505.129 6  82639887.168 6      -372.884          37.250  
G28  20532187.817 6 107897381.127 6      1110.272          38.000    20532185.767 4  84075869.025 4       865.153          28.750  
R14  20546700.285 6 109525066.768 6     -3216.469          39.500    20546704.336 5  85186182.234 5     -2501.700          35.750  
R 2  21829831.870 6 116487782.431 6      2396.499          37.750    21829836.934 5  90601619.777 5      1863.945          31.750  
R18  22354830.107 5 119331208.696 5       855.965          32.250                                                                  
R15  20079517.374 6 107298468.262 6       587.188          40.500    20079520.060 5  83454371.925 5       456.705          36.000  
R17  21008244.165 6 112418994.122 6      -665.235          37.000    21008246.121 4  87436992.859 4      -517.402          28.750  
C23  25479154.729 5 132676642.818 5      1661.968          33.500                                                                  
C 3  36370274.177 6 189389558.563 6        17.996          40.750    36370273.672 5 146448021.82625        14.013          31.750  
C25  23239642.961 6 121014919.733 6      -822.818          41.750                                                                  
C 8  36489203.856 6 190008860.595 6      -449.946          39.250    36489201.706 5 146926899.099 5      -347.911          32.250  
C21  23893266.826 7 124418512.113 7       653.828          42.500                                                                  
C10  35920163.801 6 187045722.100 6       420.847          40.500    35920164.194 5 144635618.691 5       325.067          32.000  
C11  23068871.391 6 120125664.625 6       306.178          38.750    23068873.377 5  92888802.711 5       237.096          31.750  
C12  23474656.629 6 122238692.472 6      -948.128          39.000    23474656.116 5  94522712.712 5      -733.022          33.250  
C13  36543670.411 6 190292481.361 6       -90.853          41.500    36543676.381 4 147146232.194 4       -70.318          29.000  
C24  24500947.363 6 127582849.695 6     -2922.328          38.250                                                                  
C 7  35717166.837 6 185988657.654 6       -19.588          40.750    35717164.114 5 143818229.897 5       -15.353          33.500  
C 1  37380996.930 6 194652657.408 6        -9.439          39.500                                                                  
> 2021  5 21  6 29 20.0000000  0 24                     
G19  22053912.240 5 115894091.726 5      1456.299          36.000    22053910.990 4  90307078.123 4      1134.777          29.500  
G30  23639095.616 5 124224301.328 5     -2699.779          32.750    23639102.195 5  96798121.100 5     -2103.724          32.500  
G 6  21632380.101 6 113678936.075 6      1081.031          37.500    21632383.896 6  88581001.222 6       842.368          38.000  
G17  21734333.246 6 114214703.817 6       685.997          38.000    21734331.895 6  88998456.228 6       534.545          37.250  
G14  20181596.898 7 106055006.431 7      -478.969          42.250    20181596.292 5  82640260.307 5      -373.221          35.000  
G28  20531976.468 6 107896270.505 6      1110.669          39.000    20531974.474 5  84075003.591 5       865.455          34.250  
R14  20547303.805 6 109528283.902 6     -3217.722          39.500    20547307.858 5  85188684.449 5     -2502.674          35.250  
R 2  21829382.923 6 116485386.597 6      2395.203          37.750    21829387.964 5  90599756.358 5      1862.939          32.000  
R18  22354667.179 5 119330351.866 5       857.861          32.500                                                                  
R15  20079407.532 6 107297881.206 6       587.606          40.250    20079410.204 5  83453915.329 5       457.030          35.500  
R17  21008368.346 6 112419658.433 6      -663.267          37.250    21008370.233 4  87437509.545 4      -515.872          29.750  
C23  25478835.384 4 132674979.843 4      1663.467          29.250                                                                  
C 3  36370270.827 6 189389541.119 6        17.114          38.000    36370268.740 5 146448007.859 5        13.438          32.000  
C 4  38310518.809 5 199492915.12915       -12.236          32.500                                                                  
C25  23239800.943 6 121015742.375 6      -822.070          39.250                                                                  
C 8  36489290.202 6 190009310.141 6      -449.026          36.000    36489288.032 5 146927246.697 5      -346.874          32.250  
C21  23893141.359 6 124417858.765 6       653.397          39.500                                                                  
C10  35920082.892 6 187045300.855 6       421.700          37.500    35920083.318 5 144635292.956 5       325.837          32.000  
C11  23068812.323 5 120125357.052 5       308.380          35.750    23068814.313 5  92888564.898 5       238.408          31.250  
C12  23474838.554 5 122239639.853 5      -946.872          34.000    23474838.039 5  94523445.187 5      -731.735          30.250  
C13  36543687.798 6 190292571.894 6       -90.268          38.250    36543693.726 4 147146302.172 4       -70.059          29.250  
C24  24501508.823 5 127585773.396 5     -2924.727          35.750                                                                  
C 7  35717170.654 6 185988677.550 6       -20.170          38.250    35717167.934 5 143818245.275 5       -15.587          33.000  
C 1  37380998.824 6 194652667.305 6       -10.530          36.500    37381000.332 5 150517796.51615        -7.689          32.250  
> 2021  5 21  6 29 21.0000000  0 24                     
G19  22053634.939 5 115892634.545 5      1458.561          35.500    22053633.597 5  90305942.607 5      1136.529          30.000  
G30  23639609.412 5 124227001.556 5     -2701.468          33.500    23639615.992 5  96800225.159 5     -2105.040          33.000  
G 6  21632174.385 6 113677855.047 6      1081.036          37.750    21632178.172 6  88580158.866 6       842.371          38.000  
G17  21734202.522 6 114214016.934 6       687.745          37.750    21734201.200 6  88997920.994 6       535.906          38.000  
G14  20181688.225 7 106055486.439 7      -480.699          42.000    20181687.656 5  82640634.335 5      -374.571          35.500  
G28  20531765.161 6 107895159.820 6      1110.997          39.000    20531763.142 5  84074138.105 5       865.709          31.000  
R14  20547907.734 6 109531503.239 6     -3220.157          39.750    20547911.799 5  85191188.378 5     -2504.568          35.750  
R 2  21828934.446 6 116482993.265 6      2391.672          37.000    21828939.488 5  90597894.883 5      1860.193          31.000  
R18  22354507.381 5 119329493.502 5       859.300          33.000                                                                  
R15  20079297.671 6 107297294.061 6       586.913          40.250    20079300.340 5  83453458.661 5       456.490          35.250  
R17  21008492.065 6 112420320.656 6      -661.186          37.500    21008494.009 4  87438024.615 4      -514.252          29.000  
C23  25478515.687 4 132673314.991 4      1666.350          29.250                                                                  
C 3  36370267.691 6 189389524.802 6        15.558          37.750    36370265.703 5 146447995.234 5        11.962          32.000  
C 4  38310521.026 5 199492929.18225       -15.090          32.750                                                                  
C25  23239958.980 6 121016565.308 6      -823.392          39.000                                                                  
C 8  36489376.440 6 190009759.251 6      -448.920          36.250    36489374.316 5 146927594.014 5      -347.315          32.500  
C21  23893016.200 6 124417207.033 6       650.824          39.250                                                                  
C10  35920001.924 6 187044879.142 6       422.225          37.250    35920002.337 5 144634966.866 5       326.067          32.250  
C11  23068752.906 6 120125047.630 6       310.328          36.000    23068754.877 5  92888325.615 5       240.015          31.250  
C12  23475020.301 5 122240586.364 5      -946.411          32.750    23475019.874 5  94524177.178 5      -731.812          30.250  
C13  36543705.200 6 190292662.485 6       -90.801          38.250    36543711.147 4 147146372.261 4       -70.515          29.000  
C24  24502070.711 6 127588699.313 6     -2926.952          36.250                                                                  
C 7  35717174.624 6 185988698.252 6       -21.221          38.000    35717171.885 5 143818261.294 5       -16.756          33.500  
C 1  37381001.047 6 194652678.808 6       -13.056          36.500    37381002.611 5 150517804.956 5        -9.919          32.000  
> 2021  5 21  6 29 22.0000000  0 24                     
G19  22053357.276 5 115891175.458 5      1459.382          35.750    22053355.998 3  90304805.608 3      1137.158          23.500  
G30  23640123.647 5 124229703.933 5     -2703.995          33.000    23640130.273 5  96802330.913 5     -2107.010          33.750  
G 6  21631968.650 6 113676773.961 6      1081.206          37.750    21631972.433 6  88579316.459 6       842.502          36.500  
G17  21734071.564 6 114213328.709 6       688.386          37.750    21734070.197 6  88997384.723 6       536.408          37.000  
G14  20181779.834 7 106055967.793 7      -482.176          42.000    20181779.260 6  82641009.412 6      -375.721          36.250  
G28  20531553.824 6 107894049.321 6      1110.431          39.000    20531551.870 5  84073272.784 5       865.270          34.000  
R14  20548512.113 6 109534724.953 6     -3222.878          39.000    20548516.180 5  85193694.149 5     -2506.686          35.250  
R 2  21828486.505 6 116480602.730 6      2389.210          36.750    21828491.539 5  90596035.580 5      1858.277          31.500  
R18  22354345.167 5 119328633.542 5       860.132          32.500                                                                  
R15  20079187.814 6 107296706.857 6       586.823          40.000    20079190.469 5  83453001.946 5       456.420          35.000  
R17  21008615.458 6 112420981.020 6      -660.077          37.000    21008617.432 4  87438538.235 4      -513.390          29.000  
C23  25478195.679 4 132671648.498 4      1667.470          29.250                                                                  
C 3  36370264.804 6 189389509.818 6        14.474          37.750                                                                  
C 4  38310526.404 5 199492945.28225       -17.507          33.250                                                                  
C25  23240117.068 6 121017388.545 6      -823.387          39.000                                                                  
C 8  36489462.639 6 190010208.054 6      -448.367          36.500    36489460.500 5 146927941.065 5      -347.130          32.250  
C21  23892891.441 6 124416557.361 6       648.627          39.000                                                                  
C10  35919920.895 6 187044457.221 6       421.829          37.500    35919921.303 5 144634640.587 5       326.081          32.250  
C11  23068693.173 6 120124736.518 6       311.585          36.250    23068695.126 5  92888085.022 5       241.269          31.750  
C12  23475201.951 6 122241532.257 6      -945.944          36.000    23475201.535 5  94524908.599 5      -731.514          34.000  
C13  36543722.645 6 190292753.231 6       -90.648          38.250    36543728.568 4 147146442.362 4       -69.750          29.000  
C24  24502633.096 6 127591627.787 6     -2929.542          36.000                                                                  
C 7  35717178.823 6 185988720.148 6       -22.954          37.750    35717176.095 5 143818278.201 5       -17.236          34.000  
C 1  37381003.651 6 194652692.394 6       -14.597          36.250    37381003.733 5 150517815.456 5       -11.287          32.250  
> 2021  5 21  6 29 23.0000000  0 23                     
G19  22053079.260 5 115889714.433 5      1462.063          35.750    22053078.238 4  90303667.160 4      1139.261          27.500  
G30  23640638.091 5 124232407.620 5     -2704.075          33.500    23640644.690 5  96804437.675 5     -2107.073          32.750  
G 6  21631762.869 6 113675692.476 6      1082.138          37.750    21631766.611 6  88578473.742 6       843.226          39.000  
G17  21733940.346 6 114212639.098 6       690.038          38.000    21733938.962 6  88996847.368 6       537.695          37.000  
G14  20181871.611 7 106056450.074 7      -482.720          42.250    20181871.029 5  82641385.217 5      -376.145          35.000  
G28  20531342.483 6 107892938.726 6      1110.654          38.750    20531340.517 5  84072407.413 5       865.450          31.500  
R14  20549116.760 6 109537948.221 6     -3223.529          39.000    20549120.843 5  85196201.124 5     -2507.195          35.250  
R 2  21828038.906 6 116478214.328 6      2387.697          36.500    21828043.932 5  90594177.942 5      1857.102          32.250  
R18  22354185.396 5 119327772.082 5       862.131          32.000                                                                  
R15  20079077.833 6 107296119.387 6       587.504          40.000    20079080.540 5  83452545.027 5       456.949          35.500  
R17  21008738.503 6 112421639.514 6      -657.457          36.750    21008740.486 4  87439050.393 4      -511.353          29.250  
C23  25477875.346 4 132669980.415 4      1669.161          28.250                                                                  
C 3  36370262.084 6 189389495.580 6        14.249          37.750    36370260.069 5 146447967.13615        11.079          32.500  
C25  23240275.132 6 121018211.702 6      -823.023          39.000                                                                  
C 8  36489548.721 6 190010656.378 6      -447.648          36.500    36489546.588 5 146928287.725 5      -346.284          32.250  
C21  23892766.965 6 124415909.105 6       647.641          39.000                                                                  
C10  35919839.767 6 187044034.750 6       422.536          37.500    35919840.166 5 144634313.930 5       326.826          32.500  
C11  23068633.096 6 120124423.701 6       313.576          36.000    23068635.032 5  92887843.169 5       242.038          32.250  
C12  23475383.457 5 122242477.476 5      -945.507          32.500    23475383.089 5  94525639.478 5      -730.875          30.250  
C13  36543740.055 6 190292843.836 6       -90.766          38.250    36543745.954 4 147146512.412 4       -69.733          29.250  
