     3.03           OBSERVATION DATA    M: Mixed            RINEX VERSION / TYPE
RTKCONV demo5 b33c                      20210524 112129 UTC PGM / RUN BY / DATE 
log: C:\Users\Ivan_PolyU_Dktp\Dropbox\HUAWEI Exp\20210521_  COMMENT             
format: RINEX                                               COMMENT             
                                                            MARKER NAME         
                                                            MARKER NUMBER       
                                                            MARKER TYPE         
                                                            OBSERVER / AGENCY   
                                                            REC # / TYPE / VERS 
                                                            ANT # / TYPE        
        0.0000        0.0000        0.0000                  APPROX POSITION XYZ 
        0.0000        0.0000        0.0000                  ANTENNA: DELTA H/E/N
G    4 C1C L1C D1C S1C                                      SYS / # / OBS TYPES 
R    4 C1C L1C D1C S1C                                      SYS / # / OBS TYPES 
J    4 C1C L1C D1C S1C                                      SYS / # / OBS TYPES 
  2021     5    21     6    29    5.9960000     GPS         TIME OF FIRST OBS   
  2021     5    21     6    54   39.9960000     GPS         TIME OF LAST OBS    
G                                                           SYS / PHASE SHIFT   
R                                                           SYS / PHASE SHIFT   
J                                                           SYS / PHASE SHIFT   
  0                                                         GLONASS SLOT / FRQ #
 C1C    0.000 C1P    0.000 C2C    0.000 C2P    0.000        GLONASS COD/PHS/BIS 
                                                            END OF HEADER       
> 2021  5 21  6 29  5.9960000  0 15                     
G 6  20441654.646 4 107421623.71125       733.785          25.000  
R14  19345284.397 9                     -3543.217          21.000  
G19  20864155.862 9                      1074.340          24.000  
J 3  38510698.481 9                         2.915          20.000  
G28  19341329.735 9                       758.557          23.000  
R15  18887342.760 9                       224.707          22.000  
J 2  34759624.123 9                      -137.652          22.000  
G14  18986734.557 9                      -813.799          23.000  
J 1  36221764.344 9                      -320.757          17.000  
R17  19812995.484 9                     -1036.190          26.000  
G17  20542525.263 9                       323.117          25.000  
G 3  21026712.371 9                     -2069.890          19.000  
R 2  20642146.345 9                      2069.561          20.000  
G30  22438336.619 9                     -3028.469          23.000  
G 2  23059923.270 9                      1517.186          24.000  
> 2021  5 21  6 29  6.9960000  0 15                     
G 6  20441516.108 4 107420889.48914       733.477          25.000  
R14  19345949.861 9                     -3552.597          21.000  
G19  20863947.577 9                      1085.518          24.000  
J 3  38510695.933 9                         5.591          21.000  
G28  19341183.398 9                       764.036          23.000  
R15  18887299.955 9                       238.480          22.000  
J 2  34759651.363 9                      -148.230          22.000  
G14  18986889.812 9                      -810.149          23.000  
J 1  36221826.118 9                      -320.757          16.000  
R17  19813189.652 8 106024350.96635     -1036.349          26.000  
G17  20542463.890 9                       323.869          26.000  
G 3  21027107.217 9                     -2074.265          19.000  
R 2  20641762.073 9                      2063.403          20.000  
G30  22438915.042 9                     -3021.358          23.000  
G 2  23059635.149 9                      1515.324          24.000  
> 2021  5 21  6 29  7.9960000  0 15                     
G 6  20441376.821 4 107420154.996 4       735.602          25.000  
R14  19346617.053 9                     -3546.601          21.000  
G19  20863741.106 9                      1084.540          24.000  
J 3  38510694.101 9                        10.491          21.000  
G28  19341037.060 9                       761.014          23.000  
R15  18887257.306 9                       237.257          23.000  
J 2  34759677.835 9                      -138.886          21.000  
G14  18987046.445 9                      -817.835          23.000  
J 1  36221889.200 9                      -323.843          16.000  
R17  19813381.744 4 106025387.21524     -1035.926          26.000  
G17  20542401.645 9                       322.969          25.000  
G 3  21027503.669 9                     -2071.974          19.000  
R 2  20641377.994 9                      2067.928          18.000  
G30  22439491.004 9                     -3023.778          22.000  
G 2  23059345.772 9                      1516.875          24.000  
> 2021  5 21  6 29  8.9960000  0 15                     
G 6  20441233.240 4 107419419.377 5       735.907          25.000  
R14  19347282.622 9                     -3556.177          21.000  
G19  20863532.872 9                      1096.554          23.000  
J 3  38510693.525 9                         6.983          21.000  
G28  19340890.845 9                       763.478          23.000  
R15  18887211.063 9                       226.242          23.000  
J 2  34759705.581 9                      -132.887          21.000  
G14  18987202.485 9                      -814.344          23.000  
J 1  36221949.194 9                      -321.612          16.000  
R17  19813575.267 4 106026422.89124     -1035.464          27.000  
G17  20542343.554 9                       327.537          24.000  
G 3  21027896.386 9                     -2079.004          19.000  
R 2  20640993.985 9                      2063.582          18.000  
G30  22440065.814 9                     -3034.695          21.000  
G 2  23059058.646 9                      1518.213          22.000  
> 2021  5 21  6 29  9.9960000  0 15                     
G 6  20441092.469 9                       736.348          23.000  
R14  19347949.499 9                     -3551.777          20.000  
G19  20863326.279 9                      1092.420          22.000  
J 3  38510693.473 9                         6.133          20.000  
G28  19340747.439 9                       767.553          22.000  
R15  18887168.973 9                       237.323          22.000  
J 2  34759730.622 9                      -144.875          21.000  
G14  18987357.495 9                      -820.751          23.000  
J 1  36222010.235 9                      -319.889          15.000  
R17  19813769.698 9                     -1034.948          26.000  
G17  20542280.262 9                       323.446          23.000  
G 3  21028291.389 9                     -2085.557          19.000  
R 2  20640611.598 9                      2058.360          17.000  
G30  22440641.741 9                     -3026.239          20.000  
G 2  23058769.060 9                      1515.448          20.000  
> 2021  5 21  6 29 10.9960000  0 15                     
G 6  20440953.129 9                       733.623          22.000  
R14  19348614.265 9                     -3546.198          20.000  
G19  20863117.487 9                      1096.058          22.000  
J 3  38510692.059 9                         7.195          20.000  
G28  19340602.742 9                       767.169          22.000  
R15  18887124.039 9                       234.782          23.000  
J 2  34759758.630 9                      -139.766          23.000  
G14  18987516.048 9                      -816.160          24.000  
J 1  36222071.153 9                      -319.889          16.000  
R17  19813964.669 9                     -1032.025          26.000  
G17  20542215.713 9                       323.374          23.000  
G 3  21028688.294 9                     -2078.898          20.000  
R 2  20640227.048 9                      2060.397          17.000  
G30  22441218.436 9                     -3027.039          22.000  
G 2  23058476.175 9                      1540.319          19.000  
> 2021  5 21  6 29 11.9960000  0 15                     
G 6  20440813.720 9                       735.553          30.000  
R14  19349280.218 9                     -3552.830          22.000  
G19  20862909.934 9                      1096.395          25.000  
J 3  38510692.146 9                         5.285          23.000  
G28  19340455.881 9                       766.055          24.000  
R15  18887078.215 9                       235.448          23.000  
J 2  34759788.487 9                      -145.607          24.000  
G14  18987668.790 9                      -817.419          26.000  
J 1  36222134.061 9                      -323.384          17.000  
R17  19814156.011 9 106029530.78035     -1028.741          31.000  
G17  20542153.695 9                       329.451          26.000  
G 3  21029083.175 9                     -2079.254          19.000  
R 2  20639839.565 9                      2048.071          18.000  
G30  22441793.071 9                     -3026.668          23.000  
G 2  23058186.467 9                      1516.209          29.000  
> 2021  5 21  6 29 12.9960000  0 15                     
G 6  20440673.368 9                       733.904          28.000  
R14  19349946.903 9                     -3557.476          22.000  
G19  20862696.361 9                      1095.758          26.000  
J 3  38510690.628 9                         6.985          24.000  
G28  19340310.485 9                       763.119          24.000  
R15  18887035.113 9                       244.133          23.000  
J 2  34759819.199 9                      -145.264          25.000  
G14  18987823.835 9                      -819.653          26.000  
J 1  36222198.453 9                      -330.625          18.000  
R17  19814351.366 8 106030560.85524     -1029.629          26.000  
G17  20542093.649 9 107949430.03635       328.973          27.000  
G 3  21029480.674 9                     -2080.148          20.000  
R 2  20639453.706 9                      2057.231          19.000  
G30  22442370.691 9                     -3023.786          24.000  
G 2  23057899.446 9                      1514.006          28.000  
> 2021  5 21  6 29 13.9960000  0 15                     
G 6  20440531.410 8 107415729.22435       733.807          29.000  
R14  19350614.967 9                     -3559.108          23.000  
G19  20862488.738 8 109633112.53035      1096.493          28.000  
J 3  38510690.873 8 202375045.55335         7.749          27.000  
G28  19340166.556 9                       763.549          25.000  
R15  18886988.660 9                       234.890          25.000  
J 2  34759848.446 9 182664236.12334      -144.672          29.000  
G14  18987978.775 8  99782501.15935      -819.842          27.000  
J 1  36222261.535 9                      -325.303          19.000  
R17  19814542.201 8 106031590.42225     -1028.464          26.000  
G17  20542031.998 8 107949101.12423       329.020          29.000  
G 3  21029877.317 9                     -2077.983          23.000  
R 2  20639061.408 9                      2062.015          29.000  
G30  22442945.972 9                     -3033.100          26.000  
G 2  23057613.733 8 121168564.78235      1513.771          28.000  
> 2021  5 21  6 29 14.9960000  0 15                     
G 6  20440393.763 8 107414995.24824       735.237          29.000  
R14  19351282.648 9                     -3547.025          23.000  
G19  20862279.755 8 109632015.16125      1098.667          28.000  
J 3  38510694.101 8 202375038.08024         7.579          28.000  
G28  19340021.405 9                       768.365          24.000  
R15  18886945.436 9                       232.389          26.000  
J 2  34759874.272 9                      -145.361          28.000  
G14  18988136.892 8  99783320.87024      -819.048          28.000  
J 1  36222324.949 9                      -327.718          20.000  
R17  19814731.274 8 106032619.22524     -1028.415          26.000  
G17  20541974.656 8 107948771.33623       330.124          29.000  
G 3  21030273.018 9                     -2077.408          24.000  
R 2  20638670.122 9                      2056.260          29.000  
G30  22443522.039 9                     -3032.630          25.000  
G 2  23057325.979 8 121167050.92124      1513.351          27.000  
> 2021  5 21  6 29 15.9960000  0 15                     
G 6  20440256.604 8 107414261.58924       734.033          29.000  
R14  19351949.630 9                     -3560.256          23.000  
G19  20862069.794 8 109630917.07724      1099.738          28.000  
J 3  38510689.791 4 202375030.31423         7.785          28.000  
G28  19339876.202 9                       763.140          24.000  
R15  18886900.048 9                       233.468          25.000  
J 2  34759901.023 8 182664518.67535      -147.809          27.000  
G14  18988290.820 4  99784141.43524      -821.052          28.000  
J 1  36222386.793 9                      -332.970          21.000  
R17  19814927.816 9                     -1026.153          26.000  
G17  20541909.480 8 107948441.00323       330.818          30.000  
G 3  21030669.278 9                     -2076.567          22.000  
R 2  20638280.982 9 110129767.54035      2053.865          27.000  
G30  22444098.908 9                     -3035.009          25.000  
G 2  23057035.677 4 121165537.18024      1513.698          27.000  
> 2021  5 21  6 29 16.9960000  0 15                     
G 6  20440117.264 8 107413527.76423       734.235          31.000  
R14  19352616.926 9                     -3563.907          25.000  
G19  20861858.611 8 109629816.38024      1101.421          29.000  
J 3  38510687.958 8 202375022.03724         8.767          31.000  
G28  19339730.789 9                       763.478          25.000  
R15  18886857.033 9                       232.955          25.000  
J 2  34759929.781 8 182664668.42124      -151.044          27.000  
G14  18988447.837 8  99784963.41523      -823.217          29.000  
J 1  36222450.521 9                      -344.315          22.000  
R17  19815119.995 9                     -1025.088          26.000  
G17  20541843.483 8 107948108.56923       332.565          31.000  
G 3  21031062.047 9                     -2076.567          20.000  
R 2  20637893.255 8 110127715.39725      2050.826          26.000  
G30  22444679.390 9                     -3038.092          27.000  
G 2  23056749.214 4 121164024.22623      1512.250          28.000  
> 2021  5 21  6 29 17.9960000  0 15                     
G 6  20439977.592 8 107412793.66824       733.579          30.000  
R14  19353285.601 9                     -3565.365          26.000  
G19  20861653.205 4 109628712.32024      1105.558          28.000  
J 3  38510686.126 8 202375012.81523         9.419          30.000  
G28  19339585.045 9                       763.519          25.000  
R15  18886812.954 9                       234.374          25.000  
J 2  34759962.535 9                      -153.512          26.000  
G14  18988602.359 9                      -823.851          27.000  
J 1  36222514.843 9                      -339.587          22.000  
R17  19815309.714 9                     -1020.658          25.000  
G17  20541780.104 8 107947773.44824       336.572          30.000  
G 3  21031454.852 9                     -2072.485          16.000  
R 2  20637507.937 9                      2046.848          25.000  
G30  22445255.282 8 117950625.65035     -3041.783          27.000  
G 2  23056463.572 8 121162511.48524      1512.818          28.000  
> 2021  5 21  6 29 18.9960000  0 15                     
G 6  20439840.765 8 107412059.04523       735.158          32.000  
R14  19353955.445 8 103167413.81435     -3567.270          27.000  
G19  20861441.656 8 109627605.31524      1108.433          30.000  
J 3  38510684.678 4 202375002.38522        11.045          31.000  
G28  19339440.522 9                       765.353          26.000  
R15  18886769.136 9                       235.541          26.000  
J 2  34759988.519 8 182664971.89735      -155.798          27.000  
G14  18988757.928 8  99786595.49334      -824.158          29.000  
J 1  36222578.379 9                      -354.304          23.000  
R17  19815500.951 8 106036721.45035     -1017.490          26.000  
G17  20541713.775 4 107947435.73922       339.203          33.000  
G 3  21031849.628 9                     -2073.256          15.000  
R 2  20637120.263 9                      2044.363          25.000  
G30  22445837.822 8 117953668.22724     -3043.508          28.000  
G 2  23056171.525 8 121160998.93823      1515.109          31.000  
> 2021  5 21  6 29 19.9960000  0 15                     
G 6  20439699.331 4 107411324.23422       734.680          34.000  
R14  19354624.696 4 103170982.03623     -3569.325          29.000  
G19  20861228.588 8 109626496.24523      1109.546          32.000  
J 3  38510682.601 4 202374991.54922        11.198          34.000  
G28  19339296.418 8 101628680.64434       764.171          29.000  
R15  18886724.918 8 100924879.17535       235.003          27.000  
J 2  34760018.149 8 182665128.66623      -158.087          30.000  
G14  18988916.690 4  99787420.47022      -825.780          33.000  
J 1  36222643.556 9                      -340.319          25.000  
R17  19815689.466 8 106037738.18624     -1015.527          27.000  
G17  20541650.763 4 107947096.52521       339.823          36.000  
G 3  21032245.172 9                     -2073.256          16.000  
R 2  20636736.760 9                      2043.760          26.000  
G30  22446417.222 8 117956712.60724     -3045.971          30.000  
G 2  23055885.952 8 121159486.82924      1512.059          29.000  
> 2021  5 21  6 29 20.9960000  0 15                     
G 6  20439559.834 4 107410589.03922       736.095          34.000  
R14  19355294.139 4 103174552.18023     -3571.015          29.000  
G19  20861016.673 8 109625384.91822      1112.740          32.000  
J 3  38510681.537 4 202374980.07522        12.215          34.000  
G28  19339149.191 8 101627915.82623       765.109          29.000  
R15  18886681.327 4 100924643.72924       235.426          27.000  
J 2  34760050.676 8 182665287.35223      -160.052          31.000  
G14  18989073.637 8  99788246.33422      -825.385          33.000  
J 1  36222707.336 9 190351611.49435      -342.982          27.000  
R17  19815876.968 4 106038752.62924     -1012.699          28.000  
G17  20541586.301 4 107946755.56221       341.592          33.000  
G 3  21032642.287 9                     -2081.427          21.000  
R 2  20636353.989 9                      2042.438          26.000  
G30  22446996.220 8 117959758.68424     -3047.193          31.000  
G 2  23055598.687 9                      1517.607          17.000  
> 2021  5 21  6 29 21.9960000  0 15                     
G 6  20439419.430 4 107409853.24822       736.861          33.000  
R14  19355962.604 4 103178124.21724     -3573.347          29.000  
G19  20860807.689 8 109624271.15623      1115.588          31.000  
J 3  38510680.210 4 202374967.99722        12.813          33.000  
G28  19339006.396 4 101627150.68323       765.620          29.000  
R15  18886636.061 4 100924407.65424       237.201          27.000  
J 2  34760075.979 8 182665447.82923      -161.987          30.000  
G14  18989231.020 8  99789073.06523      -826.811          32.000  
J 1  36222772.076 8 190351955.78224      -345.602          27.000  
R17  19816064.122 4 106039764.65223     -1010.921          28.000  
G17  20541521.561 4 107946412.65522       344.215          33.000  
G 3  21033038.040 9                     -2073.636          22.000  
R 2  20635969.212 9                      2039.095          26.000  
G30  22447577.417 9                     -3048.520          30.000  
G 2  23055313.498 9                      1517.607          14.000  
> 2021  5 21  6 29 22.9960000  0 14                     
G 6  20439276.670 8 107409116.87123       735.752          32.000  
R14  19356632.064 4 103181697.48124     -3574.310          28.000  
G19  20860595.826 8 109623155.23823      1116.957          31.000  
J 3  38510672.986 4 202374955.25122        12.204          32.000  
G28  19338860.739 4 101626385.14823       765.480          28.000  
R15  18886592.889 4 100924171.11224       236.577          27.000  
J 2  34760112.276 8 182665609.62524      -162.323          29.000  
G14  18989387.113 8  99789900.34623      -826.963          30.000  
J 1  36222840.010 8 190352301.45725      -346.574          26.000  
R17  19816253.387 4 106040774.56024     -1008.986          27.000  
G17  20541457.048 4 107946068.18022       344.709          33.000  
G 3  21033434.963 9                     -2079.924          24.000  
R 2  20635586.110 9                      2036.464          25.000  
G30  22448156.468 9 117965864.07734     -3048.998          30.000  
> 2021  5 21  6 29 23.9960000  0 12                     
G 6  20439137.295 4 107408380.22222       736.338          33.000  
R14  19357305.904 4 103185272.02824     -3575.184          28.000  
G19  20860382.898 8 109622038.01523      1116.145          32.000  
J 3  38510671.032 4 202374942.10522        12.912          33.000  
G28  19338716.722 4 101625619.63223       765.281          28.000  
R15  18886549.700 4 100923934.58224       236.242          26.000  
J 2  34760142.779 8 182665772.57323      -163.586          29.000  
G14  18989549.295 8  99790728.51823      -829.072          31.000  
R17  19816442.181 4 106041783.15425     -1007.985          26.000  
G17  20541390.144 4 107945722.61122       346.237          33.000  
G 3  21033830.681 9                     -2081.864          22.000  
G30  22448737.717 9                     -3050.781          30.000  
> 2021  5 21  6 29 24.9960000  0 12                     
G 6  20438998.845 4 107407644.113 1       735.992          34.000  
R14  19357979.029 4 103188847.10723     -3575.175          29.000  
G19  20860169.273 4 109620920.42012      1117.173          32.000  
J 3  38510671.171 4 202374928.981 2        13.388          36.000  
G28  19338568.657 4 101624854.75623       764.803          28.000  
R15  18886506.022 4 100923699.23523       234.265          28.000  
G14  18989704.794 8  99791557.29423      -828.660          31.000  
R17  19816629.893 4 106042792.10324     -1008.648          28.000  
G17  20541324.688 4 107945377.355 2       345.030          34.000  
G 3  21034225.719 9                     -2078.056          31.000  
R18  21161500.580 9                       511.863          24.000  
G30  22449314.185 9 117971942.16635     -3049.156          31.000  
> 2021  5 21  6 29 25.9960000  0 14                     
G 6  20438859.871 4 107406908.645 2       734.210          35.000  
R14  19358651.299 8 103192422.24923     -3575.191          32.000  
G19  20859956.276 4 109619804.060 2      1115.170          33.000  
J 3  38510669.042 4 202374915.608 2        12.387          35.000  
G28  19338421.203 8 101624090.45124       763.738          29.000  
R15  18886458.680 4 100923464.99123       232.684          32.000  
J 2  34760200.713 9                      -162.756          30.000  
G14  18989864.777 4  99792386.43622      -830.069          32.000  
J 1  36223029.432 9                      -342.799          26.000  
R17  19816818.635 8 106043801.38524     -1009.068          29.000  
G17  20541259.215 4 107945032.270 2       343.214          36.000  
G 3  21034621.787 9                     -2080.284          25.000  
R18  21161405.930 9 112960946.81935       509.554          27.000  
G30  22449900.407 9                     -3051.465          31.000  
> 2021  5 21  6 29 26.9960000  0 13                     
G 6  20438718.106 4 107406173.887 2       735.419          34.000  
R14  19359320.724 8 103195997.11613     -3574.787          32.000  
G19  20859744.709 4 109618688.531 2      1115.457          33.000  
J 3  38510664.243 4 202374902.409 2        14.923          34.000  
G28  19338274.883 8 101623327.03323       764.430          29.000  
R15  18886411.704 8 100923231.80413       232.577          32.000  
G14  18990019.229 8  99793216.24622      -829.383          32.000  
J 1  36223088.850 9                      -342.799          27.000  
R17  19817004.375 9                     -1013.225          27.000  
G17  20541194.579 9                       341.796          27.000  
G 3  21035018.936 9                     -2075.015          22.000  
R18  21161311.804 8 112960436.64425       510.022          27.000  
G30  22450478.202 9                     -3053.906          31.000  
> 2021  5 21  6 29 27.9960000  0 14                     
G 6  20438579.219 4 107405439.675 2       733.943          33.000  
R14  19359991.179 8 103199572.482 3     -3574.671          31.000  
G19  20859534.417 8 109617573.997 3      1114.290          29.000  
J 3  38510663.441 4 202374889.878 2        12.482          32.000  
G28  19338134.705 8 101622564.65624       761.898          29.000  
R15  18886371.760 8 100923000.250 4       231.802          30.000  
J 2  34760274.929 9                      -160.381          29.000  
G14  18990179.562 8  99794046.77723      -830.134          31.000  
J 1  36223156.348 9                      -342.799          26.000  
R17  19817202.941 9                     -1022.954          24.000  
G17  20541128.146 9                       357.907          25.000  
G 3  21035413.783 9                     -2075.015          18.000  
R18  21161215.182 9                       509.954          25.000  
G30  22451063.709 9                     -3053.350          30.000  
> 2021  5 21  6 29 28.9960000  0 14                     
G 6  20438439.827 4 107404705.073 2       734.668          33.000  
R14  19360662.349 8 103203147.271 4     -3573.362          30.000  
G19  20859322.536 8 109616460.187 5      1113.423          26.000  
J 3  38510660.038 4 202374878.596 2        10.232          32.000  
G28  19337987.861 8 101621803.03924       762.004          29.000  
R15  18886330.735 8 100922769.557 3       231.268          30.000  
J 2  34760305.170 9                      -160.381          29.000  
G14  18990337.731 8  99794878.16023      -831.493          31.000  
J 1  36223226.881 9                      -342.799          26.000  
R17  19817398.505 9                     -1022.648          21.000  
G17  20541063.161 9                       335.026          23.000  
G 3  21035806.988 9                     -2075.015          11.000  
R18  21161118.682 9                       511.196          24.000  
G30  22451636.355 9 117984145.15735     -3045.550          31.000  
> 2021  5 21  6 29 29.9960000  0 13                     
G 6  20438300.539 4 107403968.413 2       738.164          34.000  
R14  19361328.633 8 103206719.538 5     -3569.629          28.000  
G19  20859110.272 4 109615347.152 5      1112.681          26.000  
J 3  38510660.038 4 202374869.450 2         9.552          32.000  
G28  19337840.913 8 101621042.31323       760.729          30.000  
R15  18886286.132 8 100922538.553 3       231.206          30.000  
J 2  34760326.180 9                      -160.381          31.000  
G14  18990494.137 8  99795709.96922      -831.725          31.000  
J 1  36223291.133 9                      -342.799          25.000  
R17  19817584.437 9                     -1022.648          16.000  
G17  20540999.520 9                       336.990          21.000  
R 2  20632888.934 9                      2032.721          28.000  
G30  22452214.760 9 117987187.11625     -3037.131          31.000  
> 2021  5 21  6 29 30.9960000  0 13                     
G 6  20438159.768 4 107403229.480 2       739.232          34.000  
R14  19361998.390 8 103210288.383 5     -3566.109          29.000  
G19  20858899.333 4 109614235.728 5      1109.645          27.000  
J 3  38510657.979 9                         6.156          27.000  
G28  19337698.101 8 101620282.07913       759.716          31.000  
R15  18886242.855 4 100922307.488 4       230.625          29.000  
J 2  34760358.777 9                      -156.915          33.000  
G14  18990653.126 8  99796541.41313      -831.844          33.000  
J 1  36223361.754 9                      -342.799          25.000  
R17  19817780.421 9                     -1022.648          14.000  
G17  20540936.804 9                       332.668          21.000  
R 2  20632510.980 9                      2033.312          26.000  
G30  22452791.106 9                     -3032.740          32.000  
> 2021  5 21  6 29 31.9960000  0 13                     
G 6  20438018.963 4 107402488.573 2       742.003          34.000  
R14  19362666.350 8 103213852.596 4     -3561.083          29.000  
G19  20858686.563 4 109613127.445 2      1106.281          35.000  
J 3  38510661.556 9                        -6.054          24.000  
G28  19337551.414 8 101619523.598 3       757.652          31.000  
R15  18886206.035 4 100922076.935 3       230.115          29.000  
J 2  34760386.663 9 182667071.87234      -152.216          31.000  
G14  18990811.975 4  99797373.076 2      -831.330          33.000  
J 1  36223424.592 9                      -342.799          26.000  
G17  20540872.099 9                       339.646          18.000  
R 2  20632133.933 9                      2032.239          26.000  
G30  22453366.213 9 117993235.41435     -3025.697          29.000  
G 9  24004911.681 9                      1292.737          16.000  
> 2021  5 21  6 29 32.9960000  0 14                     
G 6  20437877.755 4 107401747.343 3       741.552          31.000  
R14  19363337.345 8 103217412.739 4     -3557.365          28.000  
G19  20858475.502 8 109612023.499 3      1101.485          31.000  
J 3  38510656.600 9                        -2.880          21.000  
G28  19337408.305 8 101618766.998 2       755.285          31.000  
R15  18886163.823 4 100921848.258 3       228.386          29.000  
J 2  34760418.335 8 182667222.57923      -148.639          32.000  
G14  18990970.039 4  99798204.665 2      -831.367          33.000  
J 1  36223491.270 9                      -342.799          25.000  
G17  20540808.336 9                       339.646          16.000  
R 2  20631754.391 9                      2035.562          25.000  
G30  22453941.826 9                     -3022.457          28.000  
R 3  22496933.238 9                      3219.761          26.000  
G 9  24004657.292 9                      1292.737          18.000  
> 2021  5 21  6 29 33.9960000  0 13                     
G 6  20437736.286 8 107401006.670 3       741.082          31.000  
R14  19364002.774 8 103220969.880 5     -3555.068          27.000  
G19  20858267.409 8 109610924.006 3      1097.448          31.000  
J 3  38510658.328 9                        -1.289          21.000  
G28  19337264.463 8 101618012.528 3       753.210          31.000  
R15  18886113.793 8 100921622.234 3       225.534          31.000  
J 2  34760441.945 8 182667370.01924      -145.367          30.000  
G14  18991128.906 4  99799036.480 2      -831.358          33.000  
J 1  36223557.842 9                      -342.799          25.000  
G17  20540742.339 9                       339.646          13.000  
R 2  20631372.249 9                      2036.508          25.000  
G30  22454517.595 9 117999286.33035     -3016.525          30.000  
G 9  24004409.080 9                      1292.737          19.000  
> 2021  5 21  6 29 34.9960000  0 15                     
G 6  20437595.708 8 107400266.869 3       740.083          30.000  
R14  19364668.431 8 103224523.693 5     -3552.205          26.000  
G19  20858056.313 8 109609828.691 4      1092.778          31.000  
J 3  38510657.333 9                        -3.592          25.000  
G28  19337123.046 8 101617259.655 4       751.722          29.000  
R15  18886071.704 4 100921398.809 2       221.710          32.000  
J 2  34760470.581 8 182667513.75323      -141.895          31.000  
G14  18991285.033 4  99799868.097 2      -831.942          33.000  
J 1  36223622.548 9                      -342.799          26.000  
R17  19818547.742 9                     -1040.396          29.000  
G17  20540679.745 9                       339.646          11.000  
R 2  20630986.721 9                      2040.529          25.000  
G30  22455092.615 8 118002301.04025     -3013.549          30.000  
R 3  22495739.940 9                      3217.645          24.000  
G 9  24004160.153 9                      1292.737          16.000  
> 2021  5 21  6 29 35.9960000  0 14                     
G 6  20437454.186 4 107399528.254 2       737.361          34.000  
R14  19365337.070 4 103228075.100 4     -3550.505          32.000  
G19  20857847.399 8 109608736.921 3      1090.088          32.000  
J 3  38510658.450 9 202374873.47233        -2.809          30.000  
G28  19336979.692 4 101616508.066 3       750.966          29.000  
R15  18886034.535 4 100921177.860 2       219.323          35.000  
J 2  34760497.943 8 182667653.95723      -138.867          32.000  
G14  18991442.487 4  99800699.260 2      -830.321          33.000  
J 1  36223685.944 9                      -330.226          28.000  
R17  19818739.712 9 106054051.77233     -1041.441          36.000  
G17  20540616.087 9                       339.646          12.000  
R 2  20630602.310 8 110088771.49335      2043.305          32.000  
G30  22455668.560 8 118005311.84923     -3009.161          31.000  
G 9  24003911.767 9                      1292.737          17.000  
> 2021  5 21  6 29 36.9960000  0 15                     
G 6  20437314.934 4 107398790.564 1       738.467          35.000  
R14  19366001.104 4 103231625.964 4     -3549.991          30.000  
G19  20857641.731 8 109607646.821 3      1090.728          30.000  
J 3  38510660.335 8 202374877.24523        -3.462          34.000  
G28  19336834.699 8 101615757.630 4       749.104          32.000  
R15  18885994.870 4 100920958.826 1       218.639          35.000  
J 2  34760523.316 8 182667793.07422      -138.281          32.000  
G14  18991598.980 8  99801530.882 2      -831.252          30.000  
J 1  36223748.154 9                      -330.226          30.000  
R17  19818932.362 8 106055082.72932     -1041.657          34.000  
G17  20540558.588 9                       315.272          28.000  
R 2  20630221.878 8 110086728.89423      2042.048          31.000  
G30  22456238.292 8 118008321.60323     -3009.981          24.000  
R 3  22494538.493 9                      3220.111          26.000  
G 9  24003664.689 9                      1292.737          19.000  
> 2021  5 21  6 29 37.9960000  0 15                     
G 6  20437176.553 4 107398053.206 2       737.664          33.000  
R14  19366667.964 8 103235176.977 5     -3551.082          28.000  
G19  20857437.110 8 109606557.278 3      1090.853          31.000  
J 3  38510662.237 8 202374881.07722        -3.063          32.000  
G28  19336693.265 8 101615007.669 4       750.448          31.000  
R15  18885955.799 4 100920740.716 1       217.573          35.000  
J 2  34760551.672 8 182667931.82023      -138.776          31.000  
G14  18991757.637 8  99802362.987 3      -831.852          31.000  
J 1  36223810.713 9                      -330.226          29.000  
R17  19819126.251 8 106056125.32023     -1042.943          34.000  
G17  20540502.311 9 107941068.03735       315.607          29.000  
R 2  20629837.136 8 110084686.40223      2042.631          31.000  
G30  22456811.113 9                     -3008.588          25.000  
R 3  22493936.094 9                      3223.273          26.000  
G 9  24003417.803 9                      1292.737          20.000  
> 2021  5 21  6 29 38.9960000  0 15                     
G 6  20437038.138 4 107397316.926 2       735.619          32.000  
R14  19367334.545 8 103238728.837 5     -3552.217          27.000  
G19  20857229.505 8 109605467.933 4      1089.090          31.000  
J 3  38510662.376 8 202374884.46923        -3.708          31.000  
G28  19336551.220 8 101614258.292 4       748.742          31.000  
R15  18885914.407 4 100920523.864 2       215.764          35.000  
J 2  34760576.731 8 182668070.84324      -140.527          30.000  
G14  18991917.499 8  99803195.755 3      -833.425          31.000  
J 1  36223874.738 9                      -330.226          29.000  
R17  19819318.169 8 106057167.79623     -1042.061          32.000  
G17  20540441.515 8 107940752.26424       316.667          28.000  
R 2  20629447.996 8 110082611.95635      2041.814          31.000  
G30  22457385.591 9                     -3009.734          26.000  
R 3  22493333.869 9                      3221.674          26.000  
G 9  24003171.738 9                      1292.737          20.000  
> 2021  5 21  6 29 39.9960000  0 14                     
G 6  20436895.413 4 107396582.110 2       734.541          33.000  
R14  19368000.340 8 103242282.233 5     -3554.189          27.000  
G19  20857024.168 8 109604378.792 3      1088.289          31.000  
J 3  38510660.335 8 202374886.87523        -2.415          32.000  
G28  19336409.681 8 101613509.470 4       748.609          31.000  
R15  18885874.987 4 100920308.722 2       214.313          35.000  
J 2  34760603.168 8 182668210.13323      -139.380          31.000  
G14  18992076.680 8  99804029.117 3      -833.478          30.000  
J 1  36223939.025 9                      -330.226          29.000  
R17  19819515.077 8 106058210.17723     -1042.191          32.000  
G17  20540384.889 8 107940436.12624       316.251          29.000  
R 2  20629069.134 8 110080569.13225      2040.817          30.000  
G30  22457955.899 9                     -3011.686          26.000  
R 3  22492732.395 8                      3221.252          26.000  
> 2021  5 21  6 29 40.9960000  0 13                     
G 6  20436754.834 4 107395848.461 2       733.223          32.000  
R14  19368667.654 8 103245838.21615     -3555.201          26.000  
G19  20856813.648 8 109603289.778 3      1088.494          31.000  
J 3  38510660.457 8 202374888.69323        -1.352          32.000  
G28  19336267.549 8 101612761.270 3       748.157          30.000  
R15  18885835.358 4 100920094.914 2       213.087          33.000  
J 2  34760629.203 9                      -139.832          30.000  
G14  18992236.751 8  99804863.215 3      -834.159          30.000  
J 1  36224000.345 9                      -330.226          29.000  
R17  19819709.141 8 106059252.36623     -1042.944          31.000  
G17  20540323.516 8                       316.831          28.000  
R 2  20628683.676 8 110078525.99525      2043.631          29.000  
G30  22458531.896 8                     -3011.725          26.000  
> 2021  5 21  6 29 41.9960000  0 14                     
G 6  20436616.122 4 107395116.429 2       731.415          33.000  
R14  19369336.119 8 103249394.100 5     -3556.185          26.000  
G19  20856606.113 8 109602200.935 4      1089.662          31.000  
J 3  38510661.905 8 202374889.54023        -0.203          33.000  
G28  19336121.630 8 101612013.596 3       747.484          31.000  
R15  18885795.816 4 100919882.805 2       211.273          34.000  
J 2  34760655.431 9 182668479.08835      -139.215          31.000  
G14  18992394.117 8  99805697.993 3      -834.116          33.000  
J 1  36224061.298 9                      -330.226          30.000  
R17  19819899.959 8 106060294.23823     -1042.821          31.000  
G17  20540266.088 8                       316.649          29.000  
G 3  21040944.298 9                     -2089.000          12.000  
R 2  20628303.820 8 110076482.38724      2046.112          29.000  
G30  22459106.235 9                     -3042.274          25.000  
> 2021  5 21  6 29 42.9960000  0 14                     
G 6  20436476.939 4 107394385.156 2       730.633          33.000  
R14  19370002.683 8 103252954.67135     -3557.033          26.000  
G19  20856396.239 8 109601112.339 3      1089.746          31.000  
J 3  38510657.961 8 202374889.30213         0.595          33.000  
G28  19335981.889 8 101611266.375 3       746.403          32.000  
R15  18885756.204 4 100919671.773 2       210.973          34.000  
J 2  34760683.788 8 182668618.89423      -139.240          33.000  
G14  18992552.338 8  99806533.198 2      -834.996          32.000  
J 1  36224123.142 9                      -330.226          30.000  
R17  19820099.537 8 106061336.04323     -1041.606          32.000  
G17  20540214.016 9                       323.551          29.000  
G 3  21041363.626 9                     -2107.783          29.000  
R 2  20627920.700 8 110074438.61224      2043.792          30.000  
G30  22459681.464 9                     -3012.503          25.000  
> 2021  5 21  6 29 43.9960000  0 15                     
G 6  20436337.599 4 107393653.829 2       732.176          33.000  
R14  19370669.299 8 103256511.22025     -3556.220          25.000  
G19  20856194.096 8 109600024.241 4      1087.672          31.000  
J 3  38510662.568 8 202374890.412 3        -1.321          32.000  
G28  19335842.340 8 101610519.982 3       745.680          31.000  
R15  18885716.714 4 100919461.622 3       209.833          33.000  
J 2  34760710.103 8 182668758.80225      -140.009          29.000  
G14  18992712.897 8  99807369.264 3      -836.514          31.000  
J 1  36224185.509 9                      -330.226          30.000  
R17  19820292.013 8 106062378.71924     -1042.923          31.000  
G17  20540155.017 9                       324.528          29.000  
G 3  21041777.476 9                     -2109.663          28.000  
R 2  20627538.523 8 110072395.86125      2041.770          29.000  
G30  22460255.855 9                     -3013.125          24.000  
R 3  22490326.499 9                      3219.798          24.000  
> 2021  5 21  6 29 44.9960000  0 15                     
G 6  20436198.120 4 107392921.741 3       732.222          26.000  
R14  19371336.263 9                     -3550.196          24.000  
G19  20855986.578 8 109598935.721 4      1089.039          29.000  
J 3  38510660.404 8 202374892.298 4        -2.796          30.000  
G28  19335699.196 8 101609773.919 3       745.818          29.000  
R15  18885677.398 4 100919251.454 3       210.303          31.000  
J 2  34760739.803 8                      -140.143          28.000  
G14  18992870.752 8  99808205.979 4      -838.820          29.000  
J 1  36224247.231 9                      -330.226          21.000  
R17  19820487.822 8 106063421.12414     -1044.601          29.000  
G17  20540099.717 9                       338.412          28.000  
G 3  21042186.718 9                     -2112.688          27.000  
R 2  20627161.180 9                      2040.736          27.000  
G30  22460828.694 9                     -3008.997          23.000  
G 9  24001682.344 9                      1308.330          19.000  
> 2021  5 21  6 29 45.9960000  0 14                     
G 6  20436057.715 9                       764.272          24.000  
R14  19372003.315 9                     -3538.884          22.000  
G19  20855780.473 8 109597846.152 5      1091.239          27.000  
J 3  38510663.929 8 202374895.299 4        -3.228          28.000  
G28  19335560.257 9                       747.265          27.000  
R15  18885637.350 4 100919040.592 3       211.437          30.000  
J 2  34760765.594 8                      -140.198          27.000  
G14  18993024.855 8  99809043.230 4      -837.943          27.000  
J 1  36224309.161 9                      -330.226          20.000  
R17  19820682.689 9                     -1041.553          28.000  
G17  20540039.898 9                       332.512          26.000  
G 3  21042592.279 9                     -2114.851          25.000  
G30  22461398.879 9                     -3017.109          20.000  
G 9  24001438.582 9                      1286.602          17.000  
> 2021  5 21  6 29 46.9960000  0 12                     
G 6  20435917.956 9                       733.022          19.000  
R14  19372671.048 9                     -3550.580          20.000  
G19  20855566.394 9                      1088.805          24.000  
J 3  38510666.407 9                        -2.300          25.000  
G28  19335421.964 9                       745.792          23.000  
R15  18885597.511 9                       205.365          27.000  
J 2  34760792.031 9                      -149.357          24.000  
G14  18993185.955 9                      -847.778          24.000  
R17  19820873.437 9                     -1031.157          26.000  
G17  20539978.055 9                       332.072          22.000  
G 3  21042994.227 9                     -2108.008          21.000  
G30  22461973.794 9                     -3007.467          17.000  
> 2021  5 21  6 29 47.9960000  0 12                     
R14  19373336.320 9                     -3542.928          18.000  
G19  20855359.592 9                      1102.910          23.000  
J 3  38510664.941 9                         1.999          23.000  
G28  19335282.886 9                       746.527          21.000  
R15  18885555.683 9                       214.779          25.000  
J 2  34760815.345 9                      -142.890          23.000  
G14  18993346.968 9                      -839.916          24.000  
R17  19821068.757 9                     -1027.583          25.000  
G17  20539915.705 9                       338.665          21.000  
G 3  21043397.554 9                     -2114.495          19.000  
G30  22462547.627 9                     -3007.467          13.000  
G 9  24000949.732 9                      1281.475          14.000  
> 2021  5 21  6 29 48.9960000  0 11                     
R14  19374000.388 9                     -3542.928          16.000  
G19  20855149.002 9                      1116.756          20.000  
J 3  38510662.062 9                         0.386          20.000  
G28  19335133.128 9                       753.477          19.000  
R15  18885515.181 9                       218.290          24.000  
J 2  34760846.912 9                      -154.753          21.000  
G14  18993504.945 9                      -835.048          23.000  
R17  19821260.989 9                     -1029.170          24.000  
G17  20539847.492 9                       320.065          21.000  
G 3  21043801.003 9                     -2117.696          17.000  
G 9  24000706.441 9                      1281.475          14.000  
> 2021  5 21  6 29 49.9960000  0 11                     
R14  19374668.609 9                     -3561.318          15.000  
G19  20854934.679 9                      1111.035          21.000  
J 3  38510662.778 9                         4.753          19.000  
G28  19334990.141 9                       746.363          21.000  
R15  18885476.651 9                       218.216          22.000  
J 2  34760875.827 9                      -160.335          21.000  
G14  18993666.517 9                      -842.133          24.000  
R17  19821450.149 9                     -1024.233          24.000  
G17  20539784.724 9                       337.900          22.000  
G 3  21044206.546 9                     -2110.964          17.000  
G 9  24000463.691 9                      1281.475          11.000  
> 2021  5 21  6 29 50.9960000  0 11                     
R14  19375336.045 9                     -3561.318          13.000  
G19  20854721.542 9                      1111.423          21.000  
J 3  38510659.375 9                         9.490          20.000  
G28  19334848.218 9                       747.652          22.000  
R15  18885436.167 9                       225.559          21.000  
J 2  34760905.388 9                      -154.883          21.000  
G14  18993828.490 9                      -847.087          25.000  
R17  19821640.112 9                     -1024.144          24.000  
G17  20539720.786 9                       340.829          22.000  
G 3  21044609.663 9                     -2110.280          18.000  
G 9  24000218.079 9                      1281.475          10.000  
> 2021  5 21  6 29 51.9960000  0 10                     
G 6  20435218.744 9                       735.261          20.000  
G19  20854514.390 9                      1116.005          25.000  
J 3  38510662.272 9                         9.816          21.000  
G28  19334704.900 9                       755.909          22.000  
R15  18885395.577 9                       214.251          19.000  
J 2  34760935.019 9                      -165.829          21.000  
G14  18993990.724 9                      -839.404          25.000  
R17  19821831.070 9                     -1014.546          25.000  
G17  20539657.424 9                       338.242          25.000  
G 3  21045012.537 9                     -2104.865          19.000  
> 2021  5 21  6 29 52.9960000  0 10                     
G 6  20435076.210 9                       737.147          21.000  
G19  20854302.248 9                      1112.125          25.000  
J 3  38510660.439 9                        -5.988          22.000  
G28  19334561.127 9                       748.480          22.000  
R15  18885354.238 9                       221.857          19.000  
J 2  34760967.476 9                      -162.208          22.000  
G14  18994150.568 9                      -846.714          26.000  
R17  19822022.481 9                     -1017.583          25.000  
G17  20539592.911 9                       337.015          26.000  
G 3  21045416.736 9                     -2106.232          20.000  
> 2021  5 21  6 29 53.9960000  0 11                     
G 6  20434937.900 9                       732.487          21.000  
G19  20854090.856 9                      1106.212          23.000  
J 3  38510660.387 9                         3.437          21.000  
G28  19334418.925 9                       750.386          20.000  
R15  18885313.736 9                       221.287          17.000  
J 2  34760999.166 9                      -157.720          19.000  
G14  18994312.576 9                      -835.137          24.000  
R17  19822213.282 9                     -1013.661          23.000  
G17  20539530.613 9                       334.546          24.000  
G 3  21045820.709 9                     -2113.109          18.000  
G 4  24387033.810 9                      1050.000          10.000  
> 2021  5 21  6 29 54.9960000  0 11                     
G 6  20434795.977 9                       737.105          22.000  
G19  20853880.302 9                      1112.262          22.000  
J 3  38510658.625 9                        11.564          19.000  
G28  19334275.153 9                       746.295          19.000  
R15  18885271.384 9                       215.436          17.000  
J 2  34761029.215 9                      -157.720          17.000  
G14  18994472.071 9                      -851.206          23.000  
R17  19822403.193 9                     -1006.836          22.000  
G17  20539467.304 9                       335.991          23.000  
G 3  21046223.320 9                     -2106.134          18.000  
G 4  24386832.853 9                      1050.000          11.000  
> 2021  5 21  6 29 55.9960000  0 10                     
G 6  20434655.834 9                       722.323          23.000  
G19  20853671.772 9                      1101.347          21.000  
J 3  38510657.752 9                        13.362          19.000  
G28  19334134.382 9                       748.946          19.000  
R15  18885230.900 9                       215.018          17.000  
J 2  34761059.229 9                      -157.720          12.000  
G14  18994635.911 9                      -845.960          23.000  
R17  19822595.023 9                     -1029.517          21.000  
G17  20539403.471 9                       328.932          23.000  
G 3  21046624.989 9                     -2105.715          18.000  
> 2021  5 21  6 29 56.9960000  0 10                     
G 6  20434517.140 9                       725.912          24.000  
G19  20853463.067 9                      1107.152          22.000  
J 3  38510654.175 9                        30.099          19.000  
G28  19333989.493 9                       760.678          20.000  
R15  18885191.724 9                       209.093          18.000  
G14  18994796.157 9                      -834.015          23.000  
R17  19822787.464 9                     -1025.178          23.000  
G17  20539339.254 9                       320.887          24.000  
G 3  21047026.833 9                     -2105.715          16.000  
G 9  23998756.257 9                      1281.475          10.000  
> 2021  5 21  6 29 57.9960000  0 10                     
G 6  20434378.062 9                       724.117          25.000  
G19  20853253.385 9                      1095.371          23.000  
J 3  38510651.767 9                         8.852          20.000  
G28  19333849.472 9                       745.519          21.000  
R15  18885151.309 9                       195.261          19.000  
G14  18994955.879 9                      -847.022          23.000  
R17  19822979.870 9                     -1031.036          26.000  
G17  20539277.707 9                       335.199          24.000  
G 3  21047430.543 9                     -2102.307          18.000  
G 9  23998512.425 9                      1281.475          11.000  
> 2021  5 21  6 29 58.9960000  0 11                     
G 6  20434240.135 9                       718.538          25.000  
R14  19380686.840 9                     -3585.156          17.000  
G19  20853044.785 9                      1096.309          24.000  
J 3  38510650.179 9                        10.403          21.000  
G28  19333706.695 9                       739.720          22.000  
R15  18885116.740 9                       212.604          20.000  
G14  18995118.096 9                      -849.393          24.000  
R17  19823172.102 9 106077771.30035     -1033.701          26.000  
G17  20539215.201 9                       330.230          24.000  
G 3  21047832.021 9                     -2108.547          18.000  
G 9  23998276.184 9                      1232.524          11.000  
> 2021  5 21  6 29 59.9960000  0 11                     
G 6  20434100.726 9                       716.419          25.000  
R14  19381359.058 9                     -3585.986          19.000  
G19  20852839.291 9                      1101.507          24.000  
J 3  38510648.294 9                         1.639          22.000  
G28  19333565.278 9                       742.036          22.000  
R15  18885082.625 9                       196.605          21.000  
G14  18995280.069 9                      -855.432          25.000  
R17  19823366.602 8 106078805.23825     -1034.720          26.000  
G17  20539151.455 9                       325.882          23.000  
G 3  21048233.742 9                     -2108.397          18.000  
G 9  23998043.887 9                      1232.524          12.000  
> 2021  5 21  6 30  0.9960000  0 10                     
G 6  20433965.661 9                       714.324          25.000  
R14  19382031.467 9                     -3578.606          19.000  
G19  20852631.494 9                      1087.231          24.000  
J 3  38510647.928 9                         4.092          21.000  
G28  19333425.153 9                       742.601          23.000  
R15  18885045.648 9                       190.347          23.000  
G14  18995443.856 9                      -847.900          26.000  
R17  19823560.230 8 106079847.75535     -1037.433          26.000  
G17  20539088.268 9                       324.112          23.000  
G 3  21048636.702 9                     -2112.970          19.000  
> 2021  5 21  6 30  1.9960000  0 11                     
G 6  20433829.811 9                       716.907          27.000  
R14  19382702.341 9                     -3566.437          20.000  
G19  20852424.779 9 109580230.95835      1087.450          26.000  
J 3  38510647.509 9                         6.123          24.000  
G28  19333284.993 9                       742.986          24.000  
R15  18885008.095 9                       189.627          25.000  
G14  18995607.190 9  99822589.43334      -847.690          29.000  
J 1  36225358.495 9                      -329.941          21.000  
R17  19823754.520 4 106080886.86224     -1040.721          28.000  
G17  20539027.768 9                       319.757          25.000  
G 3  21049041.146 9                     -2110.494          21.000  
> 2021  5 21  6 30  2.9960000  0 11                     
G 6  20433699.091 8 107379783.56333       714.652          31.000  
R14  19383373.057 9                     -3567.845          22.000  
G19  20852218.081 9 109579144.60224      1085.136          28.000  
J 3  38510648.346 8 202374822.10235         6.016          27.000  
G28  19333146.054 9                       735.503          27.000  
R15  18884975.655 9 100915530.17634       186.613          31.000  
G14  18995766.493 8  99823437.95723      -848.132          31.000  
J 1  36225420.670 9                      -329.941          25.000  
R17  19823945.652 4 106081927.96923     -1042.507          29.000  
G17  20538966.937 8 107932999.20635       318.563          27.000  
G 3  21049443.758 9                     -2111.044          24.000  
> 2021  5 21  6 30  3.9960000  0 11                     
G 6  20433561.636 4 107379069.97522       713.020          32.000  
R14  19384044.384 9                     -3575.149          25.000  
G19  20852008.644 8 109578059.57725      1085.542          28.000  
J 3  38510645.973 8 202374814.78923         8.241          27.000  
G28  19333009.855 9 101595632.66334       733.332          30.000  
R15  18884940.772 8 100915344.51222       184.445          33.000  
G14  18995929.828 8  99824286.90722      -849.971          30.000  
J 1  36225480.961 9                      -329.941          24.000  
R17  19824143.904 4 106082969.90623     -1041.217          30.000  
G17  20538905.355 8 107932680.04623       319.234          30.000  
G 3  21049846.927 9                     -2108.842          26.000  
> 2021  5 21  6 30  4.9960000  0 11                     
G 6  20433430.515 8 107378358.60522       710.398          33.000  
R14  19384715.904 9                     -3581.056          24.000  
G19  20851801.387 8 109576973.19024      1087.459          29.000  
J 3  38510649.760 4 202374805.28923        10.295          27.000  
G28  19332865.053 9                       734.353          28.000  
R15  18884908.472 4 100915160.37522       183.313          32.000  
G14  18996090.195 8  99825136.85623      -851.104          31.000  
J 1  36225544.619 9                      -329.941          26.000  
R17  19824341.546 4 106084009.41723     -1038.074          30.000  
G17  20538842.778 8 107932358.52923       323.227          30.000  
