$GNVTG,,T,,M,0.062,N,0.116,K,A*3F
$GNGGA,062844.00,2218.11506,N,11411.40714,E,1,12,0.72,-13.4,M,-1.6,M,,*41
$GNGSA,A,3,14,28,03,17,01,19,30,06,02,,,,1.49,0.72,1.31*12
$GNGSA,A,3,78,81,79,82,66,,,,,,,,1.49,0.72,1.31*14
$GPGSV,4,1,14,01,11,042,12,02,15,249,25,03,37,057,20,04,02,110,*72
$GPGSV,4,2,14,06,45,265,26,07,00,168,,09,06,141,,14,83,151,24*76
$GPGSV,4,3,14,17,47,359,26,19,36,326,25,22,13,042,,24,00,309,*70
$GPGSV,4,4,14,28,75,330,23,30,21,200,23*76
$GLGSV,3,1,10,65,15,052,,66,27,116,19,67,08,165,,77,01,167,*67
$GLGSV,3,2,10,78,46,197,20,79,53,291,22,80,08,330,,81,38,345,26*63
$GLGSV,3,3,10,82,22,289,15,88,17,040,*6B
$GNGLL,2218.11506,N,11411.40714,E,062844.00,A,A*73
$GNZDA,062844.00,21,05,2021,00,00*73
$GNVTG,,T,,M,0.060,N,0.112,K,A*39
$GNGGA,062845.00,2218.11487,N,11411.40722,E,1,12,0.72,-13.3,M,-1.6,M,,*4A
$GNGSA,A,3,14,28,03,17,19,30,06,02,,,,,1.49,0.72,1.31*13
$GNGSA,A,3,78,81,79,82,66,,,,,,,,1.49,0.72,1.31*14
$GPGSV,4,1,14,01,11,042,08,02,15,249,25,03,37,057,20,04,02,110,*79
$GPGSV,4,2,14,06,45,265,26,07,00,168,,09,06,141,,14,83,151,24*76
$GPGSV,4,3,14,17,47,359,26,19,36,326,25,22,13,042,,24,00,309,*70
$GPGSV,4,4,14,28,75,330,23,30,21,200,24*71
$GLGSV,3,1,10,65,15,051,,66,27,116,20,67,08,165,,77,01,167,*6E
$GLGSV,3,2,10,78,46,197,21,79,53,291,22,80,08,330,,81,38,345,26*62
$GLGSV,3,3,10,82,22,289,17,88,17,040,*69
$GNGLL,2218.11487,N,11411.40722,E,062845.00,A,A*7F
$GNZDA,062845.00,21,05,2021,00,00*72
$GNVTG,,T,,M,0.058,N,0.108,K,A*39
$GNGGA,062846.00,2218.11470,N,11411.40731,E,1,12,0.65,-13.0,M,-1.6,M,,*46
$GNGSA,A,3,14,28,03,17,01,19,30,06,02,,,,1.26,0.65,1.08*17
$GNGSA,A,3,78,81,79,82,66,,,,,,,,1.26,0.65,1.08*11
$GPGSV,4,1,14,01,11,042,11,02,15,249,24,03,37,057,20,04,02,110,*70
$GPGSV,4,2,14,06,45,265,26,07,00,168,,09,06,141,,14,83,151,24*76
$GPGSV,4,3,14,17,47,359,26,19,36,326,25,22,13,042,,24,00,309,*70
$GPGSV,4,4,14,28,75,330,23,30,21,200,23*76
$GLGSV,3,1,10,65,15,051,,66,27,115,20,67,08,165,,77,01,167,*6D
$GLGSV,3,2,10,78,46,197,21,79,53,291,22,80,08,330,,81,38,345,26*62
$GLGSV,3,3,10,82,22,289,18,88,17,040,*66
$GNGLL,2218.11470,N,11411.40731,E,062846.00,A,A*76
$GNZDA,062846.00,21,05,2021,00,00*71
$GNVTG,,T,,M,0.057,N,0.105,K,A*3B
$GNGGA,062847.00,2218.11453,N,11411.40739,E,1,12,0.72,-12.9,M,-1.6,M,,*40
$GNGSA,A,3,14,28,03,17,01,19,30,06,02,,,,1.49,0.72,1.31*12
$GNGSA,A,3,78,81,79,82,66,,,,,,,,1.49,0.72,1.31*14
$GPGSV,4,1,14,01,11,042,12,02,15,249,25,03,37,057,20,04,02,110,*72
$GPGSV,4,2,14,06,45,265,26,07,00,168,,09,06,141,,14,83,151,24*76
$GPGSV,4,3,14,17,47,359,26,19,36,326,24,22,13,042,,24,00,309,*71
$GPGSV,4,4,14,28,75,330,23,30,21,200,24*71
$GLGSV,3,1,10,65,15,051,,66,27,115,21,67,09,164,,77,01,167,*6C
$GLGSV,3,2,10,78,46,197,21,79,53,291,23,80,08,330,,81,38,345,26*63
$GLGSV,3,3,10,82,22,289,16,88,17,040,*68
$GNGLL,2218.11453,N,11411.40739,E,062847.00,A,A*7E
$GNZDA,062847.00,21,05,2021,00,00*70
$GNVTG,,T,,M,0.055,N,0.102,K,A*3E
$GNGGA,062848.00,2218.11438,N,11411.40746,E,1,12,0.72,-12.7,M,-1.6,M,,*44
$GNGSA,A,3,14,28,03,17,01,19,30,06,02,,,,1.49,0.72,1.31*12
$GNGSA,A,3,78,81,79,82,66,,,,,,,,1.49,0.72,1.31*14
$GPGSV,4,1,14,01,11,042,09,02,15,249,24,03,37,057,19,04,02,110,*73
$GPGSV,4,2,14,06,45,265,25,07,00,168,,09,06,141,,14,83,151,23*72
$GPGSV,4,3,14,17,47,359,25,19,36,326,24,22,13,042,,24,00,309,*72
$GPGSV,4,4,14,28,75,330,23,30,21,200,23*76
$GLGSV,3,1,10,65,15,051,,66,27,115,20,67,09,164,,77,01,167,*6D
$GLGSV,3,2,10,78,46,197,21,79,53,291,22,80,08,330,,81,38,345,26*62
$GLGSV,3,3,10,82,22,289,16,88,17,040,*68
$GNGLL,2218.11438,N,11411.40746,E,062848.00,A,A*74
$GNZDA,062848.00,21,05,2021,00,00*7F
$GNVTG,,T,,M,0.054,N,0.099,K,A*3C
$GNGGA,062849.00,2218.11423,N,11411.40753,E,1,12,0.72,-12.5,M,-1.6,M,,*49
$GNGSA,A,3,14,28,03,17,01,19,30,06,02,,,,1.49,0.72,1.31*12
$GNGSA,A,3,78,81,79,82,66,,,,,,,,1.49,0.72,1.31*14
$GPGSV,4,1,14,01,11,042,09,02,15,249,24,03,37,057,19,04,02,110,*73
$GPGSV,4,2,14,06,45,265,25,07,00,168,,09,06,141,,14,83,151,23*72
$GPGSV,4,3,14,17,47,359,26,19,36,326,24,22,13,042,,24,00,309,*71
$GPGSV,4,4,14,28,75,330,23,30,21,200,23*76
$GLGSV,3,1,10,65,15,051,,66,27,115,20,67,09,164,,77,01,167,*6D
$GLGSV,3,2,10,78,46,197,21,79,53,291,22,80,08,330,,81,38,345,26*62
$GLGSV,3,3,10,82,22,289,15,88,17,040,*6B
$GNGLL,2218.11423,N,11411.40753,E,062849.00,A,A*7B
$GNZDA,062849.00,21,05,2021,00,00*7E
$GNVTG,,T,,M,0.052,N,0.097,K,A*34
$GNGGA,062850.00,2218.11409,N,11411.40760,E,1,12,0.72,-12.3,M,-1.6,M,,*4F
$GNGSA,A,3,14,28,03,17,19,30,06,02,,,,,1.49,0.72,1.31*13
$GNGSA,A,3,78,81,79,82,66,,,,,,,,1.49,0.72,1.31*14
$GPGSV,4,1,14,01,11,042,07,02,15,249,24,03,37,057,19,04,02,110,*7D
$GPGSV,4,2,14,06,45,265,25,07,00,168,,09,06,141,,14,83,151,23*72
$GPGSV,4,3,14,17,47,359,25,19,36,326,24,22,13,042,,24,00,309,*72
$GPGSV,4,4,14,28,75,330,23,30,21,200,22*77
$GLGSV,3,1,10,65,15,051,,66,27,115,18,67,09,164,,77,01,167,*66
$GLGSV,3,2,10,78,46,197,21,79,53,291,23,80,08,330,,81,38,345,26*63
$GLGSV,3,3,10,82,22,289,15,88,17,040,*6B
$GNGLL,2218.11409,N,11411.40760,E,062850.00,A,A*7B
$GNZDA,062850.00,21,05,2021,00,00*76
$GNVTG,,T,,M,0.051,N,0.094,K,A*34
$GNGGA,062851.00,2218.11395,N,11411.40765,E,1,12,0.72,-12.1,M,-1.6,M,,*4B
$GNGSA,A,3,14,28,03,17,01,19,30,06,02,,,,1.49,0.72,1.31*12
$GNGSA,A,3,78,81,79,82,66,,,,,,,,1.49,0.72,1.31*14
$GPGSV,4,1,14,01,11,042,10,02,15,249,22,03,37,057,19,04,02,110,*7D
$GPGSV,4,2,14,06,45,265,25,07,00,168,,09,06,141,,14,83,151,23*72
$GPGSV,4,3,14,17,47,359,24,19,36,326,23,22,13,042,,24,00,309,*74
$GPGSV,4,4,14,28,75,330,23,30,21,200,21*74
$GLGSV,3,1,10,65,15,051,,66,27,115,18,67,09,164,,77,01,167,*66
$GLGSV,3,2,10,78,46,197,21,79,53,291,23,80,08,330,,81,38,345,27*62
$GLGSV,3,3,10,82,22,289,15,88,17,040,*6B
$GNGLL,2218.11395,N,11411.40765,E,062851.00,A,A*7D
$GNZDA,062851.00,21,05,2021,00,00*77
$GNVTG,,T,,M,0.050,N,0.092,K,A*33
$GNGGA,062852.00,2218.11382,N,11411.40769,E,1,12,0.72,-11.9,M,-1.6,M,,*49
$GNGSA,A,3,14,28,03,17,01,19,30,06,02,,,,1.49,0.72,1.31*12
$GNGSA,A,3,78,81,79,82,66,,,,,,,,1.49,0.72,1.31*14
$GPGSV,4,1,14,01,11,042,11,02,15,249,20,03,37,057,19,04,02,110,*7E
$GPGSV,4,2,14,06,45,265,23,07,00,168,,09,06,141,,14,83,151,23*74
$GPGSV,4,3,14,17,47,359,23,19,36,326,22,22,13,042,,24,00,309,*72
$GPGSV,4,4,14,28,75,330,22,30,21,200,20*74
$GLGSV,3,1,10,65,15,051,,66,27,115,17,67,09,164,,77,01,167,*69
$GLGSV,3,2,10,78,46,197,20,79,53,291,22,80,08,330,,81,38,345,26*63
$GLGSV,3,3,10,82,22,289,13,88,17,040,*6D
$GNGLL,2218.11382,N,11411.40769,E,062852.00,A,A*74
$GNZDA,062852.00,21,05,2021,00,00*74
$GNVTG,,T,,M,0.048,N,0.090,K,A*38
$GNGGA,062853.00,2218.11368,N,11411.40773,E,1,12,0.72,-11.8,M,-1.6,M,,*46
$GNGSA,A,3,14,28,03,17,19,30,06,02,,,,,1.49,0.72,1.31*13
$GNGSA,A,3,78,81,79,82,66,,,,,,,,1.49,0.72,1.31*14
$GPGSV,4,1,14,01,11,042,08,02,15,249,19,03,37,057,20,04,02,110,*76
$GPGSV,4,2,14,06,45,265,22,07,00,168,,09,06,141,,14,83,151,24*72
$GPGSV,4,3,14,17,47,359,23,19,36,326,22,22,13,042,,24,00,309,*72
$GPGSV,4,4,14,28,75,330,22,30,21,200,22*76
$GLGSV,3,1,10,65,15,051,,66,27,115,17,67,09,164,,77,01,167,*69
$GLGSV,3,2,10,78,46,197,20,79,53,291,23,80,08,330,,81,38,345,26*62
$GLGSV,3,3,10,82,22,289,12,88,17,040,*6C
$GNGLL,2218.11368,N,11411.40773,E,062853.00,A,A*7A
$GNZDA,062853.00,21,05,2021,00,00*75
$GNVTG,,T,,M,0.047,N,0.087,K,A*31
$GNGGA,062854.00,2218.11354,N,11411.40778,E,1,12,1.01,-11.5,M,-1.6,M,,*4D
$GNGSA,A,3,14,28,03,17,01,19,30,06,02,,,,1.92,1.01,1.64*11
$GNGSA,A,3,78,81,79,82,66,,,,,,,,1.92,1.01,1.64*17
$GPGSV,4,1,14,01,11,042,10,02,15,249,29,03,37,057,19,04,02,110,*76
$GPGSV,4,2,14,06,45,265,30,07,00,168,,09,06,141,,14,83,151,26*73
$GPGSV,4,3,14,17,47,359,26,19,36,326,25,22,13,042,,24,00,309,*70
$GPGSV,4,4,14,28,75,330,24,30,21,200,23*71
$GLGSV,3,1,10,65,15,051,,66,27,115,18,67,09,164,,77,01,167,*66
$GLGSV,3,2,10,78,46,197,22,79,53,291,23,80,08,330,,81,38,345,31*66
$GLGSV,3,3,10,82,22,289,10,88,17,040,*6E
$GNGLL,2218.11354,N,11411.40778,E,062854.00,A,A*79
$GNZDA,062854.00,21,05,2021,00,00*72
$GNVTG,,T,,M,0.046,N,0.086,K,A*31
$GNGGA,062855.00,2218.11342,N,11411.40783,E,1,12,0.90,-11.3,M,-1.6,M,,*40
$GNGSA,A,3,14,28,03,17,19,30,06,02,,,,,1.75,0.90,1.49*1F
$GNGSA,A,3,78,81,79,82,66,,,,,,,,1.75,0.90,1.49*18
$GPGSV,4,1,14,01,11,042,07,02,15,249,28,03,37,057,20,04,02,110,*7B
$GPGSV,4,2,14,06,45,265,28,07,00,168,,09,06,141,,14,83,151,26*7A
$GPGSV,4,3,14,17,47,359,27,19,36,326,26,22,13,042,,24,00,309,*72
$GPGSV,4,4,14,28,75,330,24,30,21,200,24*76
$GLGSV,3,1,10,65,15,051,,66,27,115,19,67,09,164,,77,01,167,*67
$GLGSV,3,2,10,78,46,197,22,79,53,291,23,80,08,330,,81,38,345,26*60
$GLGSV,3,3,10,82,22,289,12,88,17,040,*6C
$GNGLL,2218.11342,N,11411.40783,E,062855.00,A,A*7B
$GNZDA,062855.00,21,05,2021,00,00*73
$GNVTG,,T,,M,0.045,N,0.084,K,A*30
$GNGGA,062856.00,2218.11327,N,11411.40791,E,1,12,0.90,-11.1,M,-1.6,M,,*41
$GNGSA,A,3,14,28,03,17,01,19,30,06,02,,,,1.75,0.90,1.49*1E
$GNGSA,A,3,78,81,79,82,66,,,,,,,,1.75,0.90,1.49*18
$GPGSV,4,1,14,01,11,042,09,02,15,249,28,03,37,057,23,04,02,110,*76
$GPGSV,4,2,14,06,45,265,29,07,00,168,,09,06,141,,14,83,151,27*7A
$GPGSV,4,3,14,17,47,359,29,19,36,326,28,22,13,042,,24,00,309,*72
$GPGSV,4,4,14,28,75,330,25,30,21,200,26*75
$GLGSV,3,1,10,65,15,051,,66,27,115,29,67,09,164,,77,01,167,*64
$GLGSV,3,2,10,78,46,197,23,79,53,291,25,80,08,330,,81,38,345,26*67
$GLGSV,3,3,10,82,22,289,12,88,17,040,*6C
$GNGLL,2218.11327,N,11411.40791,E,062856.00,A,A*78
$GNZDA,062856.00,21,05,2021,00,00*70
$GNVTG,,T,,M,0.044,N,0.082,K,A*37
$GNGGA,062857.00,2218.11318,N,11411.40790,E,1,12,0.81,-10.8,M,-1.6,M,,*45
$GNGSA,A,3,14,28,03,17,01,19,30,06,02,,,,1.59,0.81,1.37*19
$GNGSA,A,3,78,81,79,82,66,,,,,,,,1.59,0.81,1.37*1F
$GPGSV,4,1,14,01,11,042,09,02,15,249,27,03,37,057,24,04,02,110,*7E
$GPGSV,4,2,14,06,45,265,29,07,00,168,,09,06,141,,14,83,151,28*75
$GPGSV,4,3,14,17,47,359,29,19,36,326,28,22,13,042,,24,00,309,*72
$GPGSV,4,4,14,28,75,330,24,30,21,200,25*77
$GLGSV,3,1,10,65,15,051,,66,27,115,29,67,09,164,,77,01,167,*64
$GLGSV,3,2,10,78,46,197,23,79,53,291,26,80,08,330,,81,38,345,26*64
$GLGSV,3,3,10,82,22,289,17,88,17,040,*69
$GNGLL,2218.11318,N,11411.40790,E,062857.00,A,A*74
$GNZDA,062857.00,21,05,2021,00,00*71
$GNVTG,,T,,M,0.044,N,0.081,K,A*34
$GNGGA,062858.00,2218.11315,N,11411.40783,E,1,12,0.80,-10.5,M,-1.6,M,,*49
$GNGSA,A,3,14,28,03,17,19,30,06,02,,,,,1.58,0.80,1.36*19
$GNGSA,A,3,78,81,79,82,66,,,,,,,,1.58,0.80,1.36*1E
$GPGSV,4,1,14,01,11,042,,02,15,249,27,03,37,057,22,04,02,110,*71
$GPGSV,4,2,14,06,45,265,29,07,00,168,,09,06,141,,14,83,151,28*75
$GPGSV,4,3,14,17,47,359,30,19,36,326,28,22,13,042,,24,00,309,*7A
$GPGSV,4,4,14,28,75,330,24,30,21,200,25*77
$GLGSV,3,1,10,65,15,051,,66,27,115,27,67,09,164,,77,01,167,*6A
$GLGSV,3,2,10,78,45,197,23,79,53,291,25,80,08,330,,81,38,345,26*64
$GLGSV,3,3,10,82,22,289,19,88,17,040,*67
$GNGLL,2218.11315,N,11411.40783,E,062858.00,A,A*74
$GNZDA,062858.00,21,05,2021,00,00*7E
$GNVTG,,T,,M,0.043,N,0.080,K,A*32
$GNGGA,062859.00,2218.11317,N,11411.40777,E,1,12,0.80,-10.3,M,-1.6,M,,*47
$GNGSA,A,3,14,28,03,17,19,30,06,02,,,,,1.58,0.80,1.36*19
$GNGSA,A,3,78,81,79,82,66,,,,,,,,1.58,0.80,1.36*1E
$GPGSV,4,1,14,01,11,042,,02,15,249,28,03,37,057,20,04,02,110,*7C
$GPGSV,4,2,14,06,45,265,31,07,00,168,,09,06,141,,14,83,151,29*7D
$GPGSV,4,3,14,17,47,359,31,19,36,326,29,22,13,042,,24,00,309,*7A
$GPGSV,4,4,14,28,75,330,25,30,21,200,27*74
$GLGSV,3,1,10,65,15,051,,66,27,115,26,67,09,164,,77,01,167,*6B
$GLGSV,3,2,10,78,45,197,25,79,54,290,25,80,08,330,,81,38,345,26*64
$GLGSV,3,3,10,82,22,289,20,88,17,040,*6D
$GNGLL,2218.11317,N,11411.40777,E,062859.00,A,A*7C
$GNZDA,062859.00,21,05,2021,00,00*7F
$GNVTG,,T,,M,0.044,N,0.081,K,A*34
$GNGGA,062900.00,2218.11321,N,11411.40777,E,1,12,0.75,-9.9,M,-1.6,M,,*77
$GNGSA,A,3,14,28,03,17,19,30,06,02,,,,,1.52,0.75,1.32*1D
$GNGSA,A,3,78,81,79,82,66,,,,,,,,1.52,0.75,1.32*1A
$GPGSV,4,1,14,01,11,042,,02,15,249,28,03,37,057,16,04,02,110,*79
$GPGSV,4,2,14,06,45,265,30,07,00,168,,09,06,141,,14,83,151,27*72
$GPGSV,4,3,14,17,47,359,30,19,36,326,28,22,13,042,,24,00,309,*7A
$GPGSV,4,4,14,28,75,330,25,30,21,200,27*74
$GLGSV,3,1,10,65,15,051,,66,27,115,25,67,09,164,,77,01,167,*68
$GLGSV,3,2,10,78,45,197,26,79,54,290,25,80,08,330,,81,38,345,25*64
$GLGSV,3,3,10,82,22,289,21,88,17,040,*6C
$GNGLL,2218.11321,N,11411.40777,E,062900.00,A,A*74
$GNZDA,062900.00,21,05,2021,00,00*72
$GNVTG,,T,,M,0.045,N,0.083,K,A*37
$GNGGA,062901.00,2218.11331,N,11411.40780,E,1,12,0.75,-9.4,M,-1.6,M,,*72
$GNGSA,A,3,14,28,03,17,19,30,06,02,,,,,1.52,0.75,1.32*1D
$GNGSA,A,3,78,81,79,82,66,,,,,,,,1.52,0.75,1.32*1A
$GPGSV,4,1,14,01,11,042,,02,15,249,31,03,37,057,15,04,02,110,*72
$GPGSV,4,2,14,06,45,265,32,07,00,168,,09,06,141,,14,83,151,29*7E
$GPGSV,4,3,14,17,47,359,33,19,36,326,30,22,13,042,,24,00,309,*70
$GPGSV,4,4,14,28,75,330,26,30,21,200,28*78
$GLGSV,3,1,10,65,15,051,,66,27,115,25,67,09,164,,77,01,167,*68
$GLGSV,3,2,10,78,45,197,27,79,54,290,26,80,08,330,,81,38,346,26*66
$GLGSV,3,3,10,82,22,289,22,88,17,040,*6F
$GNGLL,2218.11331,N,11411.40780,E,062901.00,A,A*7C
$GNZDA,062901.00,21,05,2021,00,00*73
$GNVTG,,T,,M,0.048,N,0.090,K,A*38
$GNGGA,062902.00,2218.11362,N,11411.40780,E,1,12,0.77,-9.2,M,-1.6,M,,*73
$GNGSA,A,3,14,28,03,17,19,30,06,02,,,,,1.60,0.77,1.40*1B
$GNGSA,A,3,78,81,79,82,66,,,,,,,,1.60,0.77,1.40*1C
$GPGSV,4,1,14,01,11,042,,02,15,249,29,03,37,057,16,04,02,110,*78
$GPGSV,4,2,14,06,45,265,34,07,00,168,,09,06,141,,14,83,151,33*73
$GPGSV,4,3,14,17,47,359,36,19,36,326,32,22,13,042,,24,00,309,*77
$GPGSV,4,4,14,28,75,330,29,30,21,200,30*7E
$GLGSV,3,1,10,65,15,051,,66,27,115,26,67,09,164,,77,01,167,*6B
$GLGSV,3,2,10,78,45,197,29,79,54,290,27,80,08,330,,81,38,346,27*68
$GLGSV,3,3,10,82,22,290,23,88,17,040,*66
$GNGLL,2218.11362,N,11411.40780,E,062902.00,A,A*79
$GNZDA,062902.00,21,05,2021,00,00*70
$GNVTG,,T,,M,0.050,N,0.092,K,A*33
$GNGGA,062903.00,2218.11374,N,11411.40777,E,1,12,0.96,-9.5,M,-1.6,M,,*75
$GNGSA,A,3,14,28,03,17,19,30,06,02,,,,,1.78,0.96,1.50*1C
$GNGSA,A,3,78,81,79,82,66,,,,,,,,1.78,0.96,1.50*1B
$GPGSV,4,1,14,01,11,042,,02,15,249,17,03,37,057,21,04,02,110,*71
$GPGSV,4,2,14,06,45,265,34,07,00,168,,09,06,141,,14,83,151,33*73
$GPGSV,4,3,14,17,47,359,33,19,36,326,32,22,13,042,,24,00,309,*72
$GPGSV,4,4,14,28,75,330,29,30,21,200,31*7F
$GLGSV,3,1,10,65,15,051,,66,27,115,26,67,09,164,,77,01,167,*6B
$GLGSV,3,2,10,78,45,197,29,79,54,290,27,80,08,330,,81,38,346,28*67
$GLGSV,3,3,10,82,22,290,24,88,17,040,*61
$GNGLL,2218.11374,N,11411.40777,E,062903.00,A,A*77
$GNZDA,062903.00,21,05,2021,00,00*71
$GNVTG,,T,,M,0.051,N,0.095,K,A*35
$GNGGA,062904.00,2218.11394,N,11411.40765,E,1,12,0.85,-9.7,M,-1.6,M,,*7F
$GNGSA,A,3,14,28,03,17,19,30,06,02,,,,,1.63,0.85,1.39*1B
$GNGSA,A,3,78,81,79,82,66,,,,,,,,1.63,0.85,1.39*1C
$GPGSV,4,1,14,01,11,042,,02,15,249,14,03,37,057,22,04,02,110,*71
$GPGSV,4,2,14,06,45,265,33,07,00,168,,09,06,141,,14,83,151,32*75
$GPGSV,4,3,14,17,47,359,33,19,36,326,31,22,13,042,,24,00,309,*71
$GPGSV,4,4,14,28,75,330,29,30,21,200,30*7E
$GLGSV,3,1,10,65,15,051,,66,27,115,26,67,09,164,,77,01,167,*6B
$GLGSV,3,2,10,78,45,197,29,79,54,290,27,80,08,330,,81,38,346,28*67
$GLGSV,3,3,10,82,22,290,23,88,17,040,*66
$GNGLL,2218.11394,N,11411.40765,E,062904.00,A,A*7D
$GNZDA,062904.00,21,05,2021,00,00*76
$GNVTG,,T,,M,0.052,N,0.097,K,A*34
$GNGGA,062905.00,2218.11407,N,11411.40761,E,1,12,1.61,-10.2,M,-1.6,M,,*41
$GNGSA,A,3,14,28,03,17,19,30,06,,,,,,2.86,1.61,2.36*16
$GNGSA,A,3,78,81,79,82,66,,,,,,,,2.86,1.61,2.36*13
$GPGSV,4,1,14,01,11,042,,02,15,249,10,03,37,057,24,04,02,110,*73
$GPGSV,4,2,14,06,45,265,32,07,00,168,,09,06,141,,14,83,151,30*76
$GPGSV,4,3,14,17,47,359,33,19,36,326,31,22,13,042,,24,00,309,*71
$GPGSV,4,4,14,28,75,330,28,30,21,200,30*7F
$GLGSV,3,1,10,65,15,051,,66,27,115,25,67,09,164,,77,01,167,*68
$GLGSV,3,2,10,78,45,197,28,79,54,290,27,80,08,330,,81,38,346,27*69
$GLGSV,3,3,10,82,22,290,22,88,17,040,*67
$GNGLL,2218.11407,N,11411.40761,E,062905.00,A,A*75
$GNZDA,062905.00,21,05,2021,00,00*77
$GNRMC,062906.00,A,2218.11425,N,11411.40758,E,0.054,,210521,,,A*61
$GNVTG,,T,,M,0.054,N,0.100,K,A*3D
$GNGGA,062906.00,2218.11425,N,11411.40758,E,1,11,1.61,-11.0,M,-1.6,M,,*48
$GNGSA,A,3,14,28,03,17,19,30,06,,,,,,2.86,1.61,2.36*16
$GNGSA,A,3,78,81,79,82,,,,,,,,,2.86,1.61,2.36*13
$GPGSV,4,1,14,01,11,042,,02,15,249,09,03,37,057,22,04,02,110,*7D
$GPGSV,4,2,14,06,45,265,33,07,00,168,,09,06,141,,14,83,151,31*76
$GPGSV,4,3,14,17,47,359,33,19,36,326,32,22,13,042,,24,00,309,*72
$GPGSV,4,4,14,28,75,330,28,30,21,200,30*7F
$GLGSV,3,1,10,65,15,051,,66,27,115,,67,09,164,,77,01,167,*6F
$GLGSV,3,2,10,78,45,197,28,79,54,290,26,80,08,330,,81,38,346,26*69
$GLGSV,3,3,10,82,22,290,22,88,17,040,*67
$GNGLL,2218.11425,N,11411.40758,E,062906.00,A,A*7C
$GNZDA,062906.00,21,05,2021,00,00*74
$GNRMC,062907.00,A,2218.11444,N,11411.40746,E,0.056,,210521,,,A*6A
$GNVTG,,T,,M,0.056,N,0.103,K,A*3C
$GNGGA,062907.00,2218.11444,N,11411.40746,E,1,11,1.61,-11.8,M,-1.6,M,,*49
$GNGSA,A,3,14,28,03,17,19,30,06,,,,,,2.86,1.61,2.36*16
$GNGSA,A,3,78,81,79,82,,,,,,,,,2.86,1.61,2.36*13
$GPGSV,4,1,14,01,11,042,,02,15,249,08,03,37,057,31,04,02,110,*7E
$GPGSV,4,2,14,06,45,265,34,07,00,168,,09,06,141,,14,83,151,31*71
$GPGSV,4,3,14,17,47,359,34,19,36,326,32,22,13,042,,24,00,309,*75
$GPGSV,4,4,14,28,75,330,28,30,21,200,31*7E
$GLGSV,3,1,10,65,15,051,,66,27,115,26,67,09,164,,77,01,167,*6B
$GLGSV,3,2,10,78,45,197,29,79,54,290,28,80,08,330,,81,38,346,28*68
$GLGSV,3,3,10,82,22,290,24,88,17,040,*61
$GNGLL,2218.11444,N,11411.40746,E,062907.00,A,A*75
$GNZDA,062907.00,21,05,2021,00,00*75
$GNVTG,,T,,M,0.058,N,0.108,K,A*39
$GNGGA,062908.00,2218.11470,N,11411.40738,E,1,12,1.61,-12.8,M,-1.6,M,,*48
$GNGSA,A,3,14,28,03,17,19,30,06,,,,,,2.86,1.61,2.36*16
$GNGSA,A,3,78,81,79,82,66,,,,,,,,2.86,1.61,2.36*13
$GPGSV,4,1,14,01,11,042,,02,15,249,07,03,37,057,25,04,02,110,*74
$GPGSV,4,2,14,06,45,265,35,07,00,168,,09,06,141,,14,83,151,32*73
$GPGSV,4,3,14,17,47,359,36,19,36,326,33,22,13,042,,24,00,309,*76
$GPGSV,4,4,14,28,75,330,29,30,21,200,31*7F
$GLGSV,3,1,10,65,15,051,,66,27,115,27,67,09,164,,77,01,167,*6A
$GLGSV,3,2,10,78,45,197,32,79,54,290,32,80,08,330,,81,38,346,29*68
$GLGSV,3,3,10,82,22,290,27,88,17,040,*62
$GNGLL,2218.11470,N,11411.40738,E,062908.00,A,A*74
$GNZDA,062908.00,21,05,2021,00,00*7A
$GNVTG,,T,,M,0.060,N,0.111,K,A*3A
$GNGGA,062909.00,2218.11488,N,11411.40725,E,1,11,1.61,-13.7,M,-1.6,M,,*4F
$GNGSA,A,3,14,28,03,17,19,30,06,,,,,,2.86,1.61,2.36*16
$GNGSA,A,3,78,81,79,82,,,,,,,,,2.86,1.61,2.36*13
$GPGSV,4,1,14,01,11,042,,02,15,249,09,03,37,057,22,04,02,110,*7D
$GPGSV,4,2,14,06,45,265,34,07,00,168,,09,06,141,,14,83,151,32*72
$GPGSV,4,3,14,17,47,359,27,19,36,326,33,22,13,042,,24,00,309,*76
$GPGSV,4,4,14,28,75,330,29,30,21,200,31*7F
$GLGSV,3,1,10,65,15,051,,66,27,115,,67,09,164,,77,01,167,*6F
$GLGSV,3,2,10,78,45,197,32,79,54,290,32,80,08,330,,81,38,346,27*66
$GLGSV,3,3,10,82,22,290,27,88,17,040,*62
$GNGLL,2218.11488,N,11411.40725,E,062909.00,A,A*7E
$GNZDA,062909.00,21,05,2021,00,00*7B
$GNVTG,,T,,M,0.061,N,0.114,K,A*3E
$GNGGA,062910.00,2218.11506,N,11411.40711,E,1,11,0.94,-14.4,M,-1.6,M,,*48
$GNGSA,A,3,14,28,03,17,19,30,06,,,,,,1.99,0.94,1.75*14
$GNGSA,A,3,78,81,79,82,,,,,,,,,1.99,0.94,1.75*11
$GPGSV,4,1,14,01,11,042,,02,15,249,09,03,37,057,18,04,02,110,*74
$GPGSV,4,2,14,06,45,265,33,07,00,168,,09,06,141,17,14,83,151,31*70
$GPGSV,4,3,14,17,47,359,25,19,36,326,29,22,13,042,,24,00,309,*7F
$GPGSV,4,4,14,28,75,330,29,30,21,200,30*7E
$GLGSV,3,1,10,65,15,051,,66,27,115,25,67,09,164,,77,01,167,*68
$GLGSV,3,2,10,78,45,197,31,79,54,290,30,80,08,330,,81,38,346,24*64
$GLGSV,3,3,10,82,22,290,25,88,17,040,*60
$GNGLL,2218.11506,N,11411.40711,E,062910.00,A,A*76
$GNZDA,062910.00,21,05,2021,00,00*73
$GNVTG,,T,,M,0.065,N,0.121,K,A*3C
$GNGGA,062911.00,2218.11540,N,11411.40703,E,1,12,0.94,-15.0,M,-1.6,M,,*4E
$GNGSA,A,3,14,28,03,17,19,30,06,,,,,,1.86,0.94,1.60*1E
$GNGSA,A,3,78,81,79,82,66,,,,,,,,1.86,0.94,1.60*1B
$GPGSV,4,1,14,01,11,042,,02,15,249,08,03,37,057,11,04,02,110,*7C
$GPGSV,4,2,14,06,45,265,33,07,00,168,,09,06,141,16,14,83,151,31*71
$GPGSV,4,3,14,17,47,359,23,19,36,326,26,22,13,042,,24,00,309,*76
$GPGSV,4,4,14,28,75,330,29,30,21,200,31*7F
$GLGSV,3,1,10,65,15,051,,66,27,115,27,67,09,164,,77,01,167,*6A
$GLGSV,3,2,10,78,45,197,30,79,54,290,30,80,08,330,,81,38,346,21*60
$GLGSV,3,3,10,82,22,290,24,88,17,040,*61
$GNGLL,2218.11540,N,11411.40703,E,062911.00,A,A*76
$GNZDA,062911.00,21,05,2021,00,00*72
$GNVTG,,T,,M,0.068,N,0.126,K,A*36
$GNGGA,062912.00,2218.11570,N,11411.40691,E,1,11,1.21,-15.5,M,-1.6,M,,*4D
$GNGSA,A,3,14,28,17,19,30,06,,,,,,,2.21,1.21,1.85*17
$GNGSA,A,3,78,81,79,82,66,,,,,,,,2.21,1.21,1.85*11
$GPGSV,4,1,14,01,11,042,,02,15,249,08,03,37,057,08,04,03,109,*7D
$GPGSV,4,2,14,06,45,265,34,07,00,168,,09,06,141,17,14,83,151,31*77
$GPGSV,4,3,14,17,47,359,21,19,36,326,26,22,13,042,,24,00,309,*74
$GPGSV,4,4,14,28,75,330,30,30,21,200,31*77
$GLGSV,3,1,10,65,15,051,,66,27,115,28,67,09,164,,77,01,167,*65
$GLGSV,3,2,10,78,45,197,28,79,54,290,30,80,08,330,,81,38,346,16*6D
$GLGSV,3,3,10,82,22,290,22,88,17,040,*67
$GNGLL,2218.11570,N,11411.40691,E,062912.00,A,A*7C
$GNZDA,062912.00,21,05,2021,00,00*71
$GNVTG,,T,,M,0.072,N,0.133,K,A*39
$GNGGA,062913.00,2218.11605,N,11411.40680,E,1,11,1.21,-16.1,M,-1.6,M,,*4A
$GNGSA,A,3,14,28,17,19,30,06,,,,,,,2.21,1.21,1.85*17
$GNGSA,A,3,78,81,79,82,66,,,,,,,,2.21,1.21,1.85*11
$GPGSV,4,1,14,01,11,042,,02,15,249,09,03,37,057,08,04,03,109,*7C
$GPGSV,4,2,14,06,45,265,34,07,00,168,,09,06,141,16,14,83,151,33*74
$GPGSV,4,3,14,17,47,359,21,19,36,326,27,22,13,042,,24,00,309,*75
$GPGSV,4,4,14,28,75,330,31,30,21,200,32*75
$GLGSV,3,1,10,65,15,051,,66,27,115,26,67,09,164,26,77,01,167,*6F
$GLGSV,3,2,10,78,45,197,29,79,54,290,29,80,08,330,,81,38,346,14*66
$GLGSV,3,3,10,82,22,290,22,88,17,040,*67
$GNGLL,2218.11605,N,11411.40680,E,062913.00,A,A*7C
$GNZDA,062913.00,21,05,2021,00,00*70
$GNVTG,,T,,M,0.077,N,0.142,K,A*3A
$GNGGA,062914.00,2218.11646,N,11411.40664,E,1,10,1.27,-17.2,M,-1.6,M,,*45
$GNGSA,A,3,14,28,17,19,30,06,,,,,,,2.76,1.27,2.45*1C
$GNGSA,A,3,78,79,82,66,,,,,,,,,2.76,1.27,2.45*13
$GPGSV,4,1,14,01,11,042,,02,15,249,08,03,37,057,07,04,03,109,*72
$GPGSV,4,2,14,06,45,265,34,07,00,168,,09,06,141,16,14,83,151,33*74
$GPGSV,4,3,14,17,47,359,18,19,36,326,35,22,13,042,,24,00,309,*7C
$GPGSV,4,4,14,28,75,330,31,30,21,200,29*7F
$GLGSV,3,1,10,65,15,051,,66,27,115,26,67,09,164,26,77,01,167,*6F
$GLGSV,3,2,10,78,45,197,29,79,54,290,29,80,08,330,,81,38,346,09*6A
$GLGSV,3,3,10,82,22,290,21,88,17,040,*64
$GNGLL,2218.11646,N,11411.40664,E,062914.00,A,A*76
$GNZDA,062914.00,21,05,2021,00,00*77
$GNVTG,,T,,M,0.080,N,0.148,K,A*38
$GNGGA,062915.00,2218.11675,N,11411.40651,E,1,11,1.29,-18.1,M,-1.6,M,,*41
$GNGSA,A,3,14,28,17,19,30,06,02,,,,,,3.30,1.29,3.04*17
$GNGSA,A,3,78,79,82,66,,,,,,,,,3.30,1.29,3.04*1A
$GPGSV,4,1,14,01,11,042,,02,15,249,09,03,37,057,07,04,03,109,*73
$GPGSV,4,2,14,06,45,265,31,07,00,168,,09,06,141,18,14,83,151,33*7F
$GPGSV,4,3,14,17,47,359,16,19,36,326,31,22,13,042,,24,00,309,*76
$GPGSV,4,4,14,28,75,330,31,30,21,200,28*7E
$GLGSV,3,1,10,65,15,051,,66,27,115,25,67,09,164,26,77,01,167,*6C
$GLGSV,3,2,10,78,45,197,28,79,54,290,29,80,08,330,,81,38,346,08*6A
$GLGSV,3,3,10,82,22,290,20,88,17,040,*65
$GNGLL,2218.11675,N,11411.40651,E,062915.00,A,A*71
$GNZDA,062915.00,21,05,2021,00,00*76
$GNVTG,,T,,M,0.083,N,0.153,K,A*31
$GNGGA,062916.00,2218.11705,N,11411.40634,E,1,10,1.24,-18.7,M,-1.6,M,,*4D
$GNGSA,A,3,14,28,17,19,30,06,,,,,,,2.46,1.24,2.13*1F
$GNGSA,A,3,78,79,82,66,,,,,,,,,2.46,1.24,2.13*10
$GPGSV,4,1,14,01,11,042,,02,15,249,08,03,37,057,07,04,03,109,*72
$GPGSV,4,2,14,06,45,265,31,07,00,168,,09,06,141,19,14,83,151,33*7E
$GPGSV,4,3,14,17,47,359,13,19,36,326,31,22,13,042,,24,00,309,*73
$GPGSV,4,4,14,28,75,330,31,30,21,200,30*77
$GLGSV,3,1,10,65,15,051,,66,27,115,25,67,09,164,23,77,01,167,*69
$GLGSV,3,2,10,78,45,197,27,79,54,290,31,80,08,330,,81,38,346,08*6C
$GLGSV,3,3,10,82,22,290,21,88,17,040,*64
$GNGLL,2218.11705,N,11411.40634,E,062916.00,A,A*77
$GNZDA,062916.00,21,05,2021,00,00*75
$GNVTG,,T,,M,0.085,N,0.157,K,A*33
$GNGGA,062917.00,2218.11726,N,11411.40618,E,1,11,1.29,-19.2,M,-1.6,M,,*4B
$GNGSA,A,3,14,28,17,19,30,06,,,,,,,2.34,1.29,1.96*19
$GNGSA,A,3,78,81,79,82,66,,,,,,,,2.34,1.29,1.96*1F
$GPGSV,4,1,14,01,11,042,,02,15,249,08,03,37,057,07,04,03,109,*72
$GPGSV,4,2,14,06,45,265,30,07,00,168,,09,07,141,16,14,83,151,33*71
$GPGSV,4,3,14,17,47,359,11,19,36,326,31,22,13,042,,24,00,309,*71
$GPGSV,4,4,14,28,75,330,29,30,21,200,30*7E
$GLGSV,3,1,10,65,15,051,,66,27,115,25,67,09,164,24,77,01,167,*6E
$GLGSV,3,2,10,78,45,197,26,79,54,290,32,80,08,330,,81,38,346,29*6D
$GLGSV,3,3,10,82,22,290,21,88,17,040,*64
$GNGLL,2218.11726,N,11411.40618,E,062917.00,A,A*79
$GNZDA,062917.00,21,05,2021,00,00*74
$GNVTG,,T,,M,0.085,N,0.158,K,A*3C
$GNGGA,062918.00,2218.11735,N,11411.40581,E,1,12,1.26,-19.6,M,-1.6,M,,*4D
$GNGSA,A,3,14,28,17,19,30,06,02,,,,,,2.42,1.26,2.06*1F
$GNGSA,A,3,78,81,79,82,66,,,,,,,,2.42,1.26,2.06*1B
$GPGSV,4,1,14,01,11,042,,02,15,249,10,03,37,057,07,04,03,109,*7B
$GPGSV,4,2,14,06,45,265,34,07,00,168,,09,07,141,17,14,83,151,33*74
$GPGSV,4,3,14,17,47,359,12,19,36,326,32,22,13,042,,24,00,309,*71
$GPGSV,4,4,14,28,75,330,29,30,21,200,31*7F
$GLGSV,3,1,10,65,15,051,,66,27,115,32,67,09,164,24,77,01,167,*68
$GLGSV,3,2,10,78,45,197,32,79,54,290,35,80,08,330,,81,38,346,36*61
$GLGSV,3,3,10,82,22,290,20,88,17,040,*65
$GNGLL,2218.11735,N,11411.40581,E,062918.00,A,A*77
$GNZDA,062918.00,21,05,2021,00,00*7B
$GNVTG,,T,,M,0.086,N,0.159,K,A*3E
$GNGGA,062919.00,2218.11740,N,11411.40530,E,1,12,1.18,-19.6,M,-1.6,M,,*49
$GNGSA,A,3,14,28,17,19,30,06,02,,,,,,2.29,1.18,1.96*15
$GNGSA,A,3,78,81,79,82,66,,,,,,,,2.29,1.18,1.96*11
$GPGSV,4,1,14,01,11,042,,02,15,249,13,03,37,057,09,04,03,109,*76
$GPGSV,4,2,14,06,45,265,35,07,00,168,,09,07,141,19,14,83,151,30*78
$GPGSV,4,3,14,17,47,359,28,19,36,326,30,22,13,042,,24,00,309,*7A
$GPGSV,4,4,14,28,75,330,32,30,21,200,24*71
$GLGSV,3,1,10,65,15,051,,66,27,115,31,67,09,164,26,77,01,167,*69
$GLGSV,3,2,10,78,45,197,30,79,54,290,35,80,08,330,,81,38,346,34*61
$GLGSV,3,3,10,82,22,290,18,88,17,040,*6E
$GNGLL,2218.11740,N,11411.40530,E,062919.00,A,A*7E
$GNZDA,062919.00,21,05,2021,00,00*7A
$GNVTG,,T,,M,0.087,N,0.161,K,A*34
$GNGGA,062920.00,2218.11748,N,11411.40506,E,1,12,0.99,-19.7,M,-1.6,M,,*47
$GNGSA,A,3,14,28,03,17,19,30,06,02,,,,,1.98,0.99,1.71*1E
$GNGSA,A,3,78,81,79,82,66,,,,,,,,1.98,0.99,1.71*19
$GPGSV,4,1,14,01,11,042,,02,15,249,09,03,37,057,10,04,03,109,*75
$GPGSV,4,2,14,06,45,265,33,07,00,168,,09,07,141,20,14,83,151,31*75
$GPGSV,4,3,14,17,47,359,29,19,36,326,31,22,13,042,,24,00,309,*7A
$GPGSV,4,4,14,28,75,330,31,30,21,200,25*73
$GLGSV,3,1,10,65,15,051,,66,27,115,31,67,09,164,26,77,01,167,*69
$GLGSV,3,2,10,78,45,197,28,79,54,290,35,80,08,330,,81,38,346,34*68
$GLGSV,3,3,10,82,22,290,16,88,17,040,*60
$GNGLL,2218.11748,N,11411.40506,E,062920.00,A,A*79
$GNZDA,062920.00,21,05,2021,00,00*70
$GNVTG,,T,,M,0.087,N,0.162,K,A*37
$GNGGA,062921.00,2218.11753,N,11411.40481,E,1,12,1.24,-19.7,M,-1.6,M,,*45
$GNGSA,A,3,14,28,17,19,30,06,02,,,,,,2.18,1.24,1.79*19
$GNGSA,A,3,78,81,79,82,66,,,,,,,,2.18,1.24,1.79*1D
$GPGSV,4,1,14,01,11,042,,02,15,249,13,03,37,057,08,04,03,109,*77
$GPGSV,4,2,14,06,45,265,32,07,00,168,,09,07,141,20,14,82,153,31*77
$GPGSV,4,3,14,17,47,359,28,19,36,326,31,22,13,042,,24,00,309,*7B
$GPGSV,4,4,14,28,75,330,31,30,21,200,26*70
$GLGSV,3,1,10,65,15,051,,66,27,115,31,67,09,164,26,77,01,167,*69
$GLGSV,3,2,10,78,45,197,27,79,54,290,35,80,08,330,,81,38,346,32*61
$GLGSV,3,3,10,82,22,290,13,88,17,040,*65
$GNGLL,2218.11753,N,11411.40481,E,062921.00,A,A*7C
$GNZDA,062921.00,21,05,2021,00,00*71
$GNVTG,,T,,M,0.088,N,0.163,K,A*39
$GNGGA,062922.00,2218.11758,N,11411.40453,E,1,12,1.18,-19.6,M,-1.6,M,,*4C
$GNGSA,A,3,14,28,03,17,19,30,06,,,,,,2.28,1.18,1.96*15
$GNGSA,A,3,78,81,79,82,66,,,,,,,,2.28,1.18,1.96*10
$GPGSV,4,1,14,01,11,042,14,02,15,249,08,03,37,057,11,04,03,109,*70
$GPGSV,4,2,14,06,45,265,33,07,00,168,,09,07,141,21,14,82,153,30*76
$GPGSV,4,3,14,17,47,359,29,19,36,326,31,22,13,042,,24,00,309,*7A
$GPGSV,4,4,14,28,75,330,31,30,21,200,26*70
$GLGSV,3,1,10,65,15,051,,66,27,115,30,67,09,164,26,77,01,167,*68
$GLGSV,3,2,10,78,45,197,27,79,54,290,35,80,08,330,,81,38,346,32*61
$GLGSV,3,3,10,82,22,290,13,88,17,040,*65
$GNGLL,2218.11758,N,11411.40453,E,062922.00,A,A*7B
$GNZDA,062922.00,21,05,2021,00,00*72
$GNVTG,,T,,M,0.090,N,0.166,K,A*35
$GNGGA,062923.00,2218.11769,N,11411.40421,E,1,12,0.78,-19.4,M,-1.6,M,,*4F
$GNGSA,A,3,14,28,03,17,19,30,06,02,,,,,1.60,0.78,1.39*1A
$GNGSA,A,3,78,81,79,82,66,,,,,,,,1.60,0.78,1.39*1D
$GPGSV,4,1,14,01,11,042,12,02,15,249,09,03,37,057,15,04,03,109,*73
$GPGSV,4,2,14,06,45,265,32,07,00,168,,09,07,141,21,14,82,153,30*77
$GPGSV,4,3,14,17,47,359,28,19,36,326,31,22,13,042,,24,00,309,*7B
$GPGSV,4,4,14,28,75,330,30,30,21,200,26*71
$GLGSV,3,1,10,65,15,051,,66,27,115,29,67,09,164,23,77,01,167,*65
$GLGSV,3,2,10,78,45,197,26,79,54,290,33,80,08,330,,81,38,346,31*65
$GLGSV,3,3,10,82,22,290,14,88,17,040,*62
$GNGLL,2218.11769,N,11411.40421,E,062923.00,A,A*7D
$GNZDA,062923.00,21,05,2021,00,00*73
$GNVTG,,T,,M,0.090,N,0.167,K,A*34
$GNGGA,062924.00,2218.11772,N,11411.40387,E,1,12,0.96,-19.7,M,-1.6,M,,*4A
$GNGSA,A,3,14,28,03,17,19,30,06,02,,,,,1.96,0.96,1.71*1F
$GNGSA,A,3,78,81,79,82,66,,,,,,,,1.96,0.96,1.71*18
$GPGSV,4,1,14,01,11,042,10,02,15,249,12,03,37,057,12,04,03,109,*7C
$GPGSV,4,2,14,06,45,265,33,07,00,168,,09,07,141,20,14,82,153,33*74
$GPGSV,4,3,14,17,48,000,29,19,36,326,31,22,13,042,,24,00,309,*7A
$GPGSV,4,4,14,28,75,330,31,30,21,200,25*73
$GLGSV,3,1,10,65,15,051,,66,27,115,29,67,09,164,22,77,01,167,*64
$GLGSV,3,2,10,78,45,197,26,79,54,290,34,80,08,330,,81,38,346,31*62
$GLGSV,3,3,10,82,22,290,13,88,17,040,*65
$GNGLL,2218.11772,N,11411.40387,E,062924.00,A,A*7B
$GNZDA,062924.00,21,05,2021,00,00*74
$GNVTG,,T,,M,0.091,N,0.169,K,A*3B
$GNGGA,062925.00,2218.11774,N,11411.40361,E,1,12,1.26,-19.8,M,-1.6,M,,*40
$GNGSA,A,3,14,28,03,17,19,30,06,02,,,,,2.88,1.26,2.59*10
$GNGSA,A,3,78,81,79,82,66,,,,,,,,2.88,1.26,2.59*17
$GPGSV,4,1,14,01,11,042,09,02,15,249,09,03,37,057,29,04,03,109,*76
$GPGSV,4,2,14,06,45,265,33,07,00,168,,09,07,141,19,14,82,153,32*7F
$GPGSV,4,3,14,17,48,000,29,19,36,326,31,22,13,042,,24,00,309,*7A
$GPGSV,4,4,14,28,75,330,32,30,21,200,25*70
$GLGSV,3,1,10,65,15,051,,66,27,115,30,67,09,164,22,77,01,167,*6C
$GLGSV,3,2,10,78,45,197,26,79,54,290,34,80,08,330,,81,38,346,32*61
$GLGSV,3,3,10,82,22,290,14,88,17,040,*62
$GNGLL,2218.11774,N,11411.40361,E,062925.00,A,A*74
$GNZDA,062925.00,21,05,2021,00,00*75
$GNVTG,,T,,M,0.091,N,0.169,K,A*3B
$GNGGA,062926.00,2218.11772,N,11411.40330,E,1,12,1.05,-19.8,M,-1.6,M,,*40
$GNGSA,A,3,14,28,03,17,19,30,06,,,,,,2.64,1.05,2.43*1A
$GNGSA,A,3,78,81,79,82,66,,,,,,,,2.64,1.05,2.43*1F
$GPGSV,4,1,14,01,11,042,08,02,15,249,08,03,37,057,28,04,03,109,*77
$GPGSV,4,2,14,06,45,265,33,07,00,168,,09,07,141,19,14,82,153,31*7C
$GPGSV,4,3,14,17,48,000,29,19,37,327,31,22,13,042,,24,00,309,*7A
$GPGSV,4,4,14,28,75,330,31,30,21,200,24*72
$GLGSV,3,1,10,65,15,051,,66,27,115,29,67,09,164,24,77,01,167,*62
$GLGSV,3,2,10,78,45,197,25,79,54,290,33,80,08,330,,81,38,346,31*66
$GLGSV,3,3,10,82,22,290,15,88,17,040,*63
$GNGLL,2218.11772,N,11411.40330,E,062926.00,A,A*75
$GNZDA,062926.00,21,05,2021,00,00*76
$GNVTG,,T,,M,0.092,N,0.171,K,A*31
$GNGGA,062927.00,2218.11775,N,11411.40313,E,1,12,1.26,-19.9,M,-1.6,M,,*47
$GNGSA,A,3,14,28,03,17,19,30,06,02,,,,,2.43,1.26,2.08*13
$GNGSA,A,3,78,81,79,82,66,,,,,,,,2.43,1.26,2.08*14
$GPGSV,4,1,14,01,11,042,09,02,15,249,11,03,37,057,27,04,03,109,*71
$GPGSV,4,2,14,06,45,265,26,07,00,168,,09,07,141,19,14,82,153,29*71
$GPGSV,4,3,14,17,48,000,28,19,37,327,29,22,13,042,,24,00,309,*72
$GPGSV,4,4,14,28,75,330,29,30,21,200,23*7C
$GLGSV,3,1,10,65,15,051,,66,27,115,27,67,09,164,21,77,01,167,*69
$GLGSV,3,2,10,78,45,197,24,79,54,290,31,80,08,330,,81,38,346,29*6C
$GLGSV,3,3,10,82,22,290,16,88,17,040,*60
$GNGLL,2218.11775,N,11411.40313,E,062927.00,A,A*72
$GNZDA,062927.00,21,05,2021,00,00*77
$GNVTG,,T,,M,0.093,N,0.172,K,A*33
$GNGGA,062928.00,2218.11779,N,11411.40291,E,1,12,1.15,-19.8,M,-1.6,M,,*4E
$GNGSA,A,3,14,28,03,17,19,30,06,02,,,,,2.71,1.15,2.46*18
$GNGSA,A,3,78,81,79,82,66,,,,,,,,2.71,1.15,2.46*1F
$GPGSV,4,1,14,01,11,042,09,02,15,249,10,03,37,057,25,04,03,109,*72
$GPGSV,4,2,14,06,45,265,24,07,00,168,,09,07,141,17,14,82,153,27*73
$GPGSV,4,3,14,17,48,000,26,19,37,327,27,22,13,042,,24,00,309,*72
$GPGSV,4,4,14,28,75,330,27,30,21,200,20*71
$GLGSV,3,1,10,65,15,051,,66,27,115,24,67,09,164,19,77,01,167,*61
$GLGSV,3,2,10,78,45,197,22,79,54,290,30,80,08,330,,81,38,346,28*6A
$GLGSV,3,3,10,82,22,290,17,88,17,040,*61
$GNGLL,2218.11779,N,11411.40291,E,062928.00,A,A*7A
$GNZDA,062928.00,21,05,2021,00,00*78
$GNVTG,,T,,M,0.094,N,0.174,K,A*32
$GNGGA,062929.00,2218.11783,N,11411.40274,E,1,12,0.90,-19.8,M,-1.6,M,,*4D
$GNGSA,A,3,14,28,03,17,19,30,06,02,,,,,1.77,0.90,1.52*17
$GNGSA,A,3,78,81,79,82,66,,,,,,,,1.77,0.90,1.52*10
$GPGSV,4,1,14,01,11,042,08,02,15,249,11,03,37,057,21,04,03,109,18*7F
$GPGSV,4,2,14,06,45,265,19,07,00,168,,09,07,141,15,14,82,153,24*7C
$GPGSV,4,3,14,17,48,000,22,19,37,327,24,22,13,042,03,24,00,309,*76
$GPGSV,4,4,14,28,75,330,23,30,21,200,17*71
$GLGSV,3,1,10,65,15,051,,66,27,115,21,67,09,164,15,77,01,167,*68
$GLGSV,3,2,10,78,45,197,20,79,54,290,27,80,08,330,,81,38,346,26*60
$GLGSV,3,3,10,82,22,290,18,88,17,040,*6E
$GNGLL,2218.11783,N,11411.40274,E,062929.00,A,A*75
$GNZDA,062929.00,21,05,2021,00,00*79
$GNVTG,,T,,M,0.095,N,0.175,K,A*32
$GNGGA,062930.00,2218.11787,N,11411.40259,E,1,12,0.96,-19.8,M,-1.6,M,,*48
$GNGSA,A,3,14,28,03,17,19,30,02,,,,,,1.83,0.96,1.56*18
$GNGSA,A,3,78,81,79,82,66,,,,,,,,1.83,0.96,1.56*19
$GPGSV,4,1,14,01,11,042,08,02,15,249,09,03,37,057,19,04,03,109,15*70
$GPGSV,4,2,14,06,45,265,15,07,00,168,,09,07,141,14,14,82,153,24*71
$GPGSV,4,3,14,17,48,000,21,19,37,327,23,22,13,042,06,24,00,309,*77
$GPGSV,4,4,14,28,75,330,21,30,21,200,13*77
$GLGSV,3,1,10,65,15,051,,66,27,115,19,67,09,164,14,77,01,167,*62
$GLGSV,3,2,10,78,45,197,18,79,54,290,25,80,08,330,,81,38,346,25*6A
$GLGSV,3,3,10,82,22,290,18,88,17,040,*6E
$GNGLL,2218.11787,N,11411.40259,E,062930.00,A,A*76
$GNZDA,062930.00,21,05,2021,00,00*71
$GNVTG,,T,,M,0.095,N,0.177,K,A*30
$GNGGA,062931.00,2218.11791,N,11411.40246,E,1,11,1.01,-19.8,M,-1.6,M,,*4C
$GNGSA,A,3,14,28,03,17,19,02,,,,,,,2.01,1.01,1.73*1A
$GNGSA,A,3,78,81,79,82,66,,,,,,,,2.01,1.01,1.73*18
$GPGSV,4,1,14,01,11,042,10,02,15,249,10,03,37,057,17,04,03,109,14*7E
$GPGSV,4,2,14,06,45,265,12,07,00,168,,09,07,141,14,14,82,153,23*71
$GPGSV,4,3,14,17,48,000,21,19,37,327,20,22,13,042,08,24,00,309,*7A
$GPGSV,4,4,14,28,75,330,19,30,21,200,10*7F
$GLGSV,3,1,10,65,15,051,,66,27,115,17,67,09,164,14,77,01,167,*6C
$GLGSV,3,2,10,78,45,197,16,79,54,290,24,80,08,330,,81,38,346,24*64
$GLGSV,3,3,10,82,22,290,17,88,17,040,15*65
$GNGLL,2218.11791,N,11411.40246,E,062931.00,A,A*7E
$GNZDA,062931.00,21,05,2021,00,00*70
$GNVTG,,T,,M,0.096,N,0.178,K,A*3C
$GNGGA,062932.00,2218.11796,N,11411.40233,E,1,10,1.12,-19.8,M,-1.6,M,,*49
$GNGSA,A,3,14,28,03,17,19,,,,,,,,2.70,1.12,2.45*1A
$GNGSA,A,3,78,81,79,82,66,,,,,,,,2.70,1.12,2.45*1A
$GPGSV,4,1,14,01,11,042,09,02,15,249,07,03,37,057,17,04,03,109,12*76
$GPGSV,4,2,14,06,45,265,09,07,00,168,,09,07,141,11,14,82,153,24*79
$GPGSV,4,3,14,17,48,000,22,19,37,327,21,22,13,042,08,24,00,309,*78
$GPGSV,4,4,14,28,75,330,21,30,21,200,10*74
$GLGSV,3,1,10,65,15,051,,66,27,115,15,67,09,164,13,77,01,167,*69
$GLGSV,3,2,10,78,45,197,15,79,54,290,22,80,08,330,,81,38,346,24*61
$GLGSV,3,3,10,82,22,290,14,88,17,040,*62
$GNGLL,2218.11796,N,11411.40233,E,062932.00,A,A*78
$GNZDA,062932.00,21,05,2021,00,00*73
$GNVTG,,T,,M,0.097,N,0.180,K,A*3A
$GNGGA,062933.00,2218.11802,N,11411.40218,E,1,11,1.01,-19.9,M,-1.6,M,,*41
$GNGSA,A,3,14,28,03,17,19,02,,,,,,,2.01,1.01,1.73*1A
$GNGSA,A,3,78,81,79,82,66,,,,,,,,2.01,1.01,1.73*18
$GPGSV,4,1,14,01,11,042,09,02,15,249,09,03,37,057,18,04,03,109,09*7D
$GPGSV,4,2,14,06,45,265,09,07,00,168,,09,07,141,10,14,82,153,25*79
$GPGSV,4,3,14,17,48,000,22,19,37,327,21,22,13,042,08,24,00,309,*78
$GPGSV,4,4,14,28,75,330,22,30,21,200,09*7F
$GLGSV,3,1,10,65,15,051,,66,27,115,15,67,09,164,14,77,01,167,*6E
$GLGSV,3,2,10,78,45,197,13,79,54,290,21,80,08,330,,81,38,346,24*64
$GLGSV,3,3,10,82,22,290,11,88,17,040,*67
$GNGLL,2218.11802,N,11411.40218,E,062933.00,A,A*72
$GNZDA,062933.00,21,05,2021,00,00*72
$GNVTG,,T,,M,0.098,N,0.182,K,A*37
$GNGGA,062934.00,2218.11807,N,11411.40197,E,1,11,1.03,-20.1,M,-1.6,M,,*47
$GNGSA,A,3,14,28,03,17,19,06,02,,,,,,1.99,1.03,1.71*1E
$GNGSA,A,3,81,79,82,66,,,,,,,,,1.99,1.03,1.71*15
$GPGSV,4,1,14,01,11,042,09,02,15,249,10,03,37,057,19,04,03,109,09*74
$GPGSV,4,2,14,06,45,265,20,07,00,168,,09,07,141,10,14,82,153,25*72
$GPGSV,4,3,14,17,48,000,25,19,37,327,25,22,13,042,08,24,00,309,*7B
$GPGSV,4,4,14,28,75,330,22,30,21,200,08*7E
$GLGSV,3,1,10,65,15,051,,66,27,115,14,67,09,164,11,77,01,167,*6A
$GLGSV,3,2,10,78,45,197,08,79,54,290,19,80,08,330,,81,38,346,25*64
$GLGSV,3,3,10,82,22,290,10,88,17,040,*66
$GNGLL,2218.11807,N,11411.40197,E,062934.00,A,A*74
$GNZDA,062934.00,21,05,2021,00,00*75
$GNVTG,,T,,M,0.100,N,0.185,K,A*30
$GNGGA,062935.00,2218.11815,N,11411.40182,E,1,10,1.36,-20.3,M,-1.6,M,,*44
$GNGSA,A,3,14,28,03,17,01,19,06,,,,,,3.29,1.36,2.99*17
$GNGSA,A,3,81,79,66,,,,,,,,,,3.29,1.36,2.99*15
$GPGSV,4,1,14,01,11,042,11,02,15,249,07,03,37,057,20,04,03,109,09*71
$GPGSV,4,2,14,06,45,265,21,07,00,168,,09,07,141,09,14,82,153,26*78
$GPGSV,4,3,14,17,48,000,26,19,37,327,25,22,13,042,08,24,00,309,*78
$GPGSV,4,4,14,28,76,329,22,30,21,200,08*75
$GLGSV,3,1,10,65,15,051,,66,27,115,15,67,09,164,09,77,01,167,*62
$GLGSV,3,2,10,78,45,197,08,79,54,290,19,80,08,330,,81,38,346,25*64
$GLGSV,3,3,10,82,22,290,08,88,17,040,*6F
$GNGLL,2218.11815,N,11411.40182,E,062935.00,A,A*72
$GNZDA,062935.00,21,05,2021,00,00*74
$GNVTG,,T,,M,0.101,N,0.187,K,A*33
$GNGGA,062936.00,2218.11822,N,11411.40165,E,1,11,1.03,-20.5,M,-1.6,M,,*4B
$GNGSA,A,3,14,28,03,17,01,19,06,02,,,,,1.99,1.03,1.71*1F
$GNGSA,A,3,81,79,66,,,,,,,,,,1.99,1.03,1.71*1F
$GPGSV,4,1,14,01,11,042,10,02,15,249,09,03,37,057,18,04,03,109,10*7D
$GPGSV,4,2,14,06,45,265,21,07,00,168,,09,07,141,08,14,82,153,24*7B
$GPGSV,4,3,14,17,48,000,24,19,37,327,23,22,13,042,09,24,00,309,*7D
$GPGSV,4,4,14,28,76,329,20,30,21,200,08*77
$GLGSV,3,1,10,65,15,051,,66,27,115,15,67,09,164,10,77,01,167,*6A
$GLGSV,3,2,10,78,45,197,08,79,54,290,17,80,08,330,,81,38,346,23*6C
$GLGSV,3,3,10,82,22,290,08,88,17,040,*6F
$GNGLL,2218.11822,N,11411.40165,E,062936.00,A,A*7C
$GNZDA,062936.00,21,05,2021,00,00*77
$GNVTG,,T,,M,0.102,N,0.189,K,A*3E
$GNGGA,062937.00,2218.11827,N,11411.40147,E,1,10,1.13,-20.6,M,-1.6,M,,*4C
$GNGSA,A,3,14,28,03,17,01,19,06,,,,,,2.12,1.13,1.79*14
$GNGSA,A,3,81,79,66,,,,,,,,,,2.12,1.13,1.79*16
$GPGSV,4,1,14,01,11,042,11,02,15,249,10,03,37,057,18,04,03,109,11*75
$GPGSV,4,2,14,06,45,265,22,07,00,168,,09,07,141,08,14,82,153,23*7F
$GPGSV,4,3,14,17,48,000,23,19,37,327,22,22,13,042,08,24,00,309,*7A
$GPGSV,4,4,14,28,76,329,19,30,20,200,08*7C
$GLGSV,3,1,10,65,15,051,,66,27,115,15,67,09,164,09,77,01,167,*62
$GLGSV,3,2,10,78,45,197,08,79,54,290,17,80,08,330,,81,38,346,22*6D
$GLGSV,3,3,10,82,22,290,09,88,17,040,*6E
$GNGLL,2218.11827,N,11411.40147,E,062937.00,A,A*78
$GNZDA,062937.00,21,05,2021,00,00*76
$GNVTG,,T,,M,0.103,N,0.191,K,A*36
$GNGGA,062938.00,2218.11832,N,11411.40134,E,1,10,1.36,-20.8,M,-1.6,M,,*4A
$GNGSA,A,3,14,28,03,17,19,06,,,,,,,3.29,1.36,2.99*16
$GNGSA,A,3,81,79,82,66,,,,,,,,,3.29,1.36,2.99*1F
$GPGSV,4,1,14,01,11,042,08,02,15,249,07,03,37,057,18,04,03,109,09*72
$GPGSV,4,2,14,06,45,265,23,07,00,168,,09,07,141,08,14,82,153,23*7E
$GPGSV,4,3,14,17,48,000,23,19,37,327,21,22,13,042,08,24,00,309,*79
$GPGSV,4,4,14,28,76,329,19,30,20,200,08*7C
$GLGSV,3,1,10,65,15,051,,66,27,115,15,67,09,164,09,77,01,167,*62
$GLGSV,3,2,10,78,45,197,08,79,54,290,17,80,08,330,,81,38,346,21*6E
$GLGSV,3,3,10,82,22,290,12,88,17,040,20*66
$GNGLL,2218.11832,N,11411.40134,E,062938.00,A,A*77
$GNZDA,062938.00,21,05,2021,00,00*79
$GNVTG,,T,,M,0.104,N,0.192,K,A*32
$GNGGA,062939.00,2218.11834,N,11411.40118,E,1,10,1.76,-20.9,M,-1.6,M,,*46
$GNGSA,A,3,14,28,03,17,19,06,,,,,,,3.67,1.76,3.21*1A
$GNGSA,A,3,81,79,82,66,,,,,,,,,3.67,1.76,3.21*13
$GPGSV,4,1,14,01,11,042,08,02,15,249,07,03,37,057,16,04,03,109,10*74
$GPGSV,4,2,14,06,45,265,24,07,00,168,,09,07,141,10,14,82,153,23*70
$GPGSV,4,3,14,17,48,000,24,19,37,327,22,22,13,042,07,24,00,309,*72
$GPGSV,4,4,14,28,76,329,20,30,20,200,07*79
$GLGSV,3,1,10,65,15,051,,66,27,115,17,67,09,164,08,77,01,167,*61
$GLGSV,3,2,10,78,45,197,11,79,54,290,18,80,08,330,,81,38,346,23*6B
$GLGSV,3,3,10,82,22,290,15,88,17,040,20*61
$GNGLL,2218.11834,N,11411.40118,E,062939.00,A,A*7E
$GNZDA,062939.00,21,05,2021,00,00*78
$GNVTG,,T,,M,0.104,N,0.193,K,A*33
$GNGGA,062940.00,2218.11836,N,11411.40104,E,1,10,2.70,-21.1,M,-1.6,M,,*4B
$GNGSA,A,3,14,28,03,17,19,06,,,,,,,6.08,2.70,5.45*17
$GNGSA,A,3,81,79,82,66,,,,,,,,,6.08,2.70,5.45*1E
$GPGSV,4,1,14,01,11,042,08,02,15,249,09,03,37,057,18,04,03,109,10*74
$GPGSV,4,2,14,06,45,265,25,07,00,168,,09,07,141,11,14,82,153,23*70
$GPGSV,4,3,14,17,48,000,24,19,37,327,23,22,13,042,08,24,00,309,*7C
$GPGSV,4,4,14,28,76,329,21,30,20,200,07*78
$GLGSV,3,1,10,65,15,051,,66,27,115,17,67,09,164,08,77,01,167,*61
$GLGSV,3,2,10,78,45,197,15,79,54,290,19,80,08,330,,81,38,346,26*6B
$GLGSV,3,3,10,82,22,290,16,88,17,040,20*62
$GNGLL,2218.11836,N,11411.40104,E,062940.00,A,A*7F
$GNZDA,062940.00,21,05,2021,00,00*76
$GNVTG,,T,,M,0.105,N,0.195,K,A*34
$GNGGA,062941.00,2218.11839,N,11411.40089,E,1,12,1.08,-21.2,M,-1.6,M,,*4C
$GNGSA,A,3,14,28,03,17,19,30,06,,,,,,2.08,1.08,1.78*16
$GNGSA,A,3,78,81,79,88,82,66,,,,,,,2.08,1.08,1.78*13
$GPGSV,4,1,14,01,11,042,08,02,15,249,09,03,37,057,18,04,03,109,09*7C
$GPGSV,4,2,14,06,45,265,25,07,00,168,,09,07,141,11,14,82,153,24*77
$GPGSV,4,3,14,17,48,000,24,19,37,327,24,22,13,042,05,24,00,309,*76
$GPGSV,4,4,14,28,76,329,22,30,20,200,10*7D
$GLGSV,3,1,10,65,15,051,,66,27,115,17,67,09,164,07,77,01,167,*6E
$GLGSV,3,2,10,78,45,197,17,79,54,290,20,80,08,330,,81,38,346,26*63
$GLGSV,3,3,10,82,22,290,15,88,17,040,20*61
$GNGLL,2218.11839,N,11411.40089,E,062941.00,A,A*75
$GNZDA,062941.00,21,05,2021,00,00*77
$GNVTG,,T,,M,0.106,N,0.196,K,A*34
$GNGGA,062942.00,2218.11842,N,11411.40076,E,1,12,1.29,-21.5,M,-1.6,M,,*47
$GNGSA,A,3,14,28,03,17,22,19,30,06,,,,,2.34,1.29,1.95*19
$GNGSA,A,3,78,81,79,88,82,66,,,,,,,2.34,1.29,1.95*1C
$GPGSV,4,1,14,01,11,042,08,02,15,249,10,03,37,057,18,04,03,109,08*75
$GPGSV,4,2,14,06,45,265,25,07,00,168,,09,07,141,12,14,82,153,25*75
$GPGSV,4,3,14,17,48,000,23,19,37,327,24,22,13,042,11,24,00,309,*74
$GPGSV,4,4,14,28,76,329,22,30,20,200,11*7C
$GLGSV,3,1,10,65,15,051,,66,27,115,17,67,09,164,07,77,01,167,*6E
$GLGSV,3,2,10,78,45,197,19,79,54,290,21,80,08,330,,81,38,346,26*6C
$GLGSV,3,3,10,82,22,290,14,88,17,040,20*60
$GNGLL,2218.11842,N,11411.40076,E,062942.00,A,A*7A
$GNZDA,062942.00,21,05,2021,00,00*74
$GNVTG,,T,,M,0.107,N,0.198,K,A*3B
$GNGGA,062943.00,2218.11847,N,11411.40062,E,1,12,1.29,-21.7,M,-1.6,M,,*44
$GNGSA,A,3,14,28,03,17,19,30,06,,,,,,2.34,1.29,1.95*19
$GNGSA,A,3,78,81,79,88,82,66,,,,,,,2.34,1.29,1.95*1C
$GPGSV,4,1,14,01,11,042,08,02,15,249,08,03,37,057,19,04,03,109,08*7D
$GPGSV,4,2,14,06,45,265,25,07,00,168,,09,07,141,10,14,82,153,26*74
$GPGSV,4,3,14,17,48,000,23,19,37,327,24,22,13,042,08,24,00,309,*7C
$GPGSV,4,4,14,28,76,329,23,30,20,200,10*7C
$GLGSV,3,1,10,65,15,051,,66,27,115,16,67,09,164,08,77,01,167,*60
$GLGSV,3,2,10,78,45,197,19,79,54,290,23,80,08,330,,81,38,346,26*6E
$GLGSV,3,3,10,82,22,290,19,88,17,040,19*67
$GNGLL,2218.11847,N,11411.40062,E,062943.00,A,A*7B
$GNZDA,062943.00,21,05,2021,00,00*75
$GNVTG,,T,,M,0.107,N,0.199,K,A*3A
$GNGGA,062944.00,2218.11847,N,11411.40047,E,1,12,1.09,-21.7,M,-1.6,M,,*46
$GNGSA,A,3,14,28,03,17,01,19,30,06,02,,,,1.76,1.09,1.38*1A
$GNGSA,A,3,78,81,79,88,82,66,,,,,,,1.76,1.09,1.38*1C
$GPGSV,4,1,14,01,11,042,10,02,15,249,10,03,37,057,21,04,03,109,07*79
$GPGSV,4,2,14,06,45,265,27,07,00,168,,09,07,141,08,14,82,153,29*70
$GPGSV,4,3,14,17,48,000,25,19,37,327,26,22,13,042,07,24,00,309,*77
$GPGSV,4,4,14,28,76,329,24,30,20,200,10*7B
$GLGSV,3,1,10,65,15,051,,66,27,115,27,67,09,164,,77,01,167,*6A
$GLGSV,3,2,10,78,45,197,20,79,54,290,25,80,08,330,,81,38,346,28*6C
$GLGSV,3,3,10,82,22,290,22,88,17,040,19*6F
$GNGLL,2218.11847,N,11411.40047,E,062944.00,A,A*7B
$GNZDA,062944.00,21,05,2021,00,00*72
$GNVTG,,T,,M,0.108,N,0.201,K,A*37
$GNGGA,062945.00,2218.11845,N,11411.40015,E,1,12,1.07,-21.7,M,-1.6,M,,*4C
$GNGSA,A,3,14,28,03,17,01,22,19,06,02,,,,1.65,1.07,1.25*19
$GNGSA,A,3,78,81,79,88,82,66,,,,,,,1.65,1.07,1.25*1C
$GPGSV,4,1,14,01,11,042,09,02,15,249,10,03,37,057,24,04,03,109,08*7B
$GPGSV,4,2,14,06,45,265,31,07,00,168,,09,07,141,07,14,82,153,31*71
$GPGSV,4,3,14,17,48,000,27,19,37,327,28,22,13,042,11,24,00,309,*7C
$GPGSV,4,4,14,28,76,329,27,30,20,200,08*71
$GLGSV,3,1,10,65,15,051,,66,27,115,26,67,09,164,,77,01,167,*6B
$GLGSV,3,2,10,78,45,197,22,79,54,290,31,80,08,330,,81,38,346,29*6A
$GLGSV,3,3,10,82,22,290,23,88,17,040,19*6E
$GNGLL,2218.11845,N,11411.40015,E,062945.00,A,A*7F
$GNZDA,062945.00,21,05,2021,00,00*73
$GNVTG,,T,,M,0.110,N,0.203,K,A*3C
$GNGGA,062946.00,2218.11838,N,11411.39976,E,1,12,1.80,-21.6,M,-1.6,M,,*49
$GNGSA,A,3,14,28,03,17,22,19,06,02,,,,,3.59,1.80,3.11*1F
$GNGSA,A,3,78,81,79,88,82,66,,,,,,,3.59,1.80,3.11*1B
$GPGSV,4,1,14,01,11,042,06,02,15,249,17,03,37,057,26,04,03,109,07*7E
$GPGSV,4,2,14,06,45,265,32,07,00,168,,09,07,141,07,14,82,153,30*73
$GPGSV,4,3,14,17,48,000,30,19,37,327,28,22,13,042,12,24,00,309,*79
$GPGSV,4,4,14,28,76,329,30,30,20,200,06*79
$GLGSV,3,1,10,65,15,051,,66,27,115,29,67,09,164,,77,01,167,*64
$GLGSV,3,2,10,78,45,197,25,79,54,290,33,80,08,330,,81,38,346,30*67
$GLGSV,3,3,10,82,22,290,22,88,17,040,21*64
$GNGLL,2218.11838,N,11411.39976,E,062946.00,A,A*74
$GNZDA,062946.00,21,05,2021,00,00*70
$GNVTG,,T,,M,0.112,N,0.207,K,A*3A
$GNGGA,062947.00,2218.11832,N,11411.39935,E,1,12,1.24,-21.7,M,-1.6,M,,*4A
$GNGSA,A,3,14,28,03,17,01,22,19,30,06,02,,,2.17,1.24,1.78*15
$GNGSA,A,3,78,81,79,88,82,,,,,,,,2.17,1.24,1.78*13
$GPGSV,4,1,14,01,11,042,10,02,15,249,15,03,37,057,27,04,03,109,08*75
$GPGSV,4,2,14,06,45,265,33,07,00,168,,09,07,141,08,14,82,153,31*7C
$GPGSV,4,3,14,17,48,000,30,19,37,327,29,22,13,042,11,24,00,309,*7B
$GPGSV,4,4,14,28,76,329,28,30,20,200,10*77
$GLGSV,3,1,10,65,15,051,,66,27,115,,67,09,164,,77,01,167,*6F
$GLGSV,3,2,10,78,45,197,24,79,54,290,32,80,08,330,,81,38,346,30*67
$GLGSV,3,3,10,82,22,290,20,88,17,040,21*66
$GNGLL,2218.11832,N,11411.39935,E,062947.00,A,A*78
$GNZDA,062947.00,21,05,2021,00,00*71
$„\˜A97C
$GNVTG,,T,,M,0.113,N,0.209,K,A*35
$GNGGA,062948.00,2218.11831,N,11411.39907,E,1,12,1.47,-21.8,M,-1.6,M,,*4D
$GNGSA,A,3,14,28,03,17,01,19,30,06,02,,,,2.35,1.47,1.83*14
$GNGSA,A,3,78,81,79,88,82,66,,,,,,,2.35,1.47,1.83*12
$GPGSV,4,1,14,01,11,042,09,02,15,249,09,03,37,057,27,04,03,109,08*70
$GPGSV,4,2,14,06,45,265,31,07,00,168,,09,07,141,08,14,82,153,31*7E
$GPGSV,4,3,14,17,48,000,29,19,37,327,28,22,13,042,07,24,00,309,*75
$GPGSV,4,4,14,28,76,329,27,30,20,200,12*7A
$GLGSV,3,1,10,65,15,051,,66,27,115,30,67,09,164,,77,01,167,*6C
$GLGSV,3,2,10,78,45,197,23,79,54,290,31,80,08,330,,81,38,346,29*6B
$GLGSV,3,3,10,82,22,290,18,88,17,040,20*6C
$GNGLL,2218.11831,N,11411.39907,E,062948.00,A,A*75
$GNZDA,062948.00,21,05,2021,00,00*7E
$GNVTG,,T,,M,0.114,N,0.211,K,A*3B
$GNGGA,062949.00,2218.11829,N,11411.39885,E,1,12,1.53,-21.8,M,-1.6,M,,*4B
$GNGSA,A,3,14,28,03,17,01,19,30,06,02,,,,2.49,1.53,1.97*1F
$GNGSA,A,3,78,81,79,88,82,66,,,,,,,2.49,1.53,1.97*19
$GPGSV,4,1,14,01,11,042,10,02,15,249,12,03,37,057,27,04,03,109,07*7D
$GPGSV,4,2,14,06,45,265,30,07,00,168,,09,07,141,07,14,82,153,30*71
$GPGSV,4,3,14,17,48,000,29,19,37,327,28,22,13,042,07,24,00,309,*75
$GPGSV,4,4,14,28,76,329,26,30,20,200,11*78
$GLGSV,3,1,10,65,15,051,,66,27,115,28,67,09,164,,77,01,167,*65
$GLGSV,3,2,10,78,45,197,22,79,54,290,30,80,08,330,,81,38,346,29*6B
$GLGSV,3,3,10,82,22,290,17,88,17,040,20*63
$GNGLL,2218.11829,N,11411.39885,E,062949.00,A,A*76
$GNZDA,062949.00,21,05,2021,00,00*7F
$GNVTG,,T,,M,0.115,N,0.213,K,A*38
$GNGGA,062950.00,2218.11827,N,11411.39859,E,1,12,1.47,-21.9,M,-1.6,M,,*48
$GNGSA,A,3,14,28,03,17,01,22,19,30,06,02,,,2.35,1.47,1.83*14
$GNGSA,A,3,78,81,79,88,82,66,,,,,,,2.35,1.47,1.83*12
$GPGSV,4,1,14,01,11,042,09,02,15,249,15,03,37,057,28,04,03,109,07*7D
$GPGSV,4,2,14,06,45,265,31,07,00,168,,09,07,141,07,14,82,153,31*71
$GPGSV,4,3,14,17,48,000,29,19,37,327,29,22,13,042,10,24,00,309,*72
$GPGSV,4,4,14,28,76,329,26,30,20,200,09*71
$GLGSV,3,1,10,65,14,051,,66,27,115,28,67,09,164,,77,01,167,*64
$GLGSV,3,2,10,78,45,197,22,79,54,290,31,80,08,330,,81,38,346,28*6B
$GLGSV,3,3,10,82,22,290,16,88,17,040,20*62
$GNGLL,2218.11827,N,11411.39859,E,062950.00,A,A*71
$GNZDA,062950.00,21,05,2021,00,00*77
$GNVTG,,T,,M,0.116,N,0.216,K,A*3E
$GNGGA,062951.00,2218.11823,N,11411.39831,E,1,12,1.47,-21.9,M,-1.6,M,,*43
$GNGSA,A,3,14,28,17,01,22,19,30,06,02,,,,2.35,1.47,1.83*17
$GNGSA,A,3,78,81,79,88,82,66,,,,,,,2.35,1.47,1.83*12
$GPGSV,4,1,14,01,11,042,11,02,15,249,10,03,37,057,,04,03,109,08*74
$GPGSV,4,2,14,06,45,265,31,07,00,168,,09,07,141,07,14,82,153,31*71
$GPGSV,4,3,14,17,48,000,29,19,37,327,29,22,13,042,13,24,00,309,*71
$GPGSV,4,4,14,28,76,329,26,30,20,200,11*78
$GLGSV,3,1,10,65,14,051,,66,28,114,29,67,09,164,,77,01,167,*6B
$GLGSV,3,2,10,78,45,197,22,79,54,290,32,80,08,330,,81,38,346,30*61
$GLGSV,3,3,10,82,22,290,16,88,17,040,22*60
$GNGLL,2218.11823,N,11411.39831,E,062951.00,A,A*7A
$GNZDA,062951.00,21,05,2021,00,00*76
$GNVTG,,T,,M,0.118,N,0.218,K,A*3E
$GNGGA,062952.00,2218.11821,N,11411.39805,E,1,12,1.80,-22.0,M,-1.6,M,,*44
$GNGSA,A,3,14,28,03,17,01,22,19,30,06,02,,,3.58,1.80,3.10*1D
$GNGSA,A,3,78,81,79,88,82,66,,,,,,,3.58,1.80,3.10*1B
$GPGSV,4,1,14,01,11,042,11,02,15,249,14,03,37,057,30,04,03,109,08*73
$GPGSV,4,2,14,06,45,265,32,07,00,168,,09,07,141,,14,82,153,31*75
$GPGSV,4,3,14,17,48,000,29,19,37,327,29,22,13,042,11,24,00,309,*73
$GPGSV,4,4,14,28,76,329,26,30,20,200,10*79
$GLGSV,3,1,10,65,14,051,,66,28,114,29,67,09,164,,77,01,167,*6B
$GLGSV,3,2,10,78,45,197,22,79,54,290,30,80,08,330,,81,38,346,29*6B
$GLGSV,3,3,10,82,22,290,14,88,17,040,22*62
$GNGLL,2218.11821,N,11411.39805,E,062952.00,A,A*7C
$GNZDA,062952.00,21,05,2021,00,00*75
$GNVTG,,T,,M,0.119,N,0.220,K,A*34
$GNGGA,062953.00,2218.11816,N,11411.39779,E,1,12,1.53,-22.0,M,-1.6,M,,*4B
$GNGSA,A,3,14,28,03,17,01,22,19,30,06,02,,,2.49,1.53,1.97*1F
$GNGSA,A,3,78,81,79,82,66,,,,,,,,2.49,1.53,1.97*19
$GPGSV,4,1,14,01,11,042,11,02,15,249,15,03,37,057,29,04,03,109,*72
$GPGSV,4,2,14,06,45,265,32,07,00,168,,09,07,141,,14,82,153,31*75
$GPGSV,4,3,14,17,48,000,29,19,37,327,29,22,13,042,11,24,00,309,*73
$GPGSV,4,4,14,28,76,329,26,30,20,200,13*7A
$GLGSV,3,1,10,65,14,051,,66,28,114,29,67,09,164,,77,01,167,*6B
$GLGSV,3,2,10,78,45,197,23,79,54,290,31,80,08,330,,81,38,346,29*6B
$GLGSV,3,3,10,82,22,290,15,88,17,040,*63
$GNGLL,2218.11816,N,11411.39779,E,062953.00,A,A*7D
$GNZDA,062953.00,21,05,2021,00,00*74
$GNVTG,,T,,M,0.120,N,0.222,K,A*3C
$GNGGA,062954.00,2218.11812,N,11411.39752,E,1,12,1.47,-22.0,M,-1.6,M,,*44
$GNGSA,A,3,14,28,03,17,01,19,30,06,02,,,,2.35,1.47,1.83*14
$GNGSA,A,3,78,81,79,82,66,,,,,,,,2.35,1.47,1.83*12
$GPGSV,4,1,14,01,11,042,09,02,15,249,17,03,37,057,29,04,03,109,*79
$GPGSV,4,2,14,06,45,265,32,07,00,168,,09,07,141,,14,82,153,31*75
$GPGSV,4,3,14,17,48,000,29,19,37,327,29,22,13,042,07,24,00,309,*74
$GPGSV,4,4,14,28,76,329,26,30,20,200,11*78
$GLGSV,3,1,10,65,14,051,,66,28,114,28,67,09,164,,77,01,167,*6A
$GLGSV,3,2,10,78,45,197,24,79,54,290,32,80,08,330,,81,38,346,30*67
$GLGSV,3,3,10,82,22,290,15,88,17,040,20*61
$GNGLL,2218.11812,N,11411.39752,E,062954.00,A,A*77
$GNZDA,062954.00,21,05,2021,00,00*73
$GNVTG,,T,,M,0.122,N,0.225,K,A*39
$GNGGA,062955.00,2218.11809,N,11411.39724,E,1,12,1.80,-22.1,M,-1.6,M,,*44
$GNGSA,A,3,14,28,03,17,01,22,19,06,02,,,,3.58,1.80,3.10*1E
$GNGSA,A,3,78,81,79,82,66,,,,,,,,3.58,1.80,3.10*1B
$GPGSV,4,1,14,01,11,042,09,02,15,249,15,03,37,057,28,04,03,109,*7A
$GPGSV,4,2,14,06,45,265,32,07,00,168,,09,07,141,,14,82,153,31*75
$GPGSV,4,3,14,17,48,000,29,19,37,327,29,22,13,042,10,24,00,309,*72
$GPGSV,4,4,14,28,76,329,26,30,20,200,08*70
$GLGSV,3,1,10,65,14,051,,66,28,114,29,67,09,164,,77,01,167,*6B
$GLGSV,3,2,10,78,45,197,25,79,54,290,32,80,08,330,,81,38,346,30*66
$GLGSV,3,3,10,82,22,290,16,88,17,040,19*68
$GNGLL,2218.11809,N,11411.39724,E,062955.00,A,A*7D
$GNZDA,062955.00,21,05,2021,00,00*72
$GNRMC,062956.00,A,2218.11807,N,11411.39696,E,0.123,,210521,,,A*64
$GNVTG,,T,,M,0.123,N,0.228,K,A*35
$GNGGA,062956.00,2218.11807,N,11411.39696,E,1,12,1.47,-22.2,M,-1.6,M,,*49
$GNGSA,A,3,14,28,03,17,01,19,30,06,02,,,,2.35,1.47,1.83*14
$GNGSA,A,3,78,81,79,82,66,,,,,,,,2.35,1.47,1.83*12
$GPGSV,4,1,14,01,11,042,14,02,15,249,14,03,37,057,28,04,03,109,*77
$GPGSV,4,2,14,06,45,265,32,07,00,168,,09,07,141,,14,82,153,31*75
$GPGSV,4,3,14,17,48,000,29,19,37,327,29,22,13,042,08,24,00,309,*7B
$GPGSV,4,4,14,28,76,329,26,30,20,200,10*79
$GLGSV,3,1,10,65,14,051,,66,28,114,29,67,09,164,,77,01,167,*6B
$GLGSV,3,2,10,78,45,197,25,79,54,290,32,80,08,330,,81,38,346,30*66
$GLGSV,3,3,10,82,22,290,17,88,17,040,16*66
$GNGLL,2218.11807,N,11411.39696,E,062956.00,A,A*78
$GNZDA,062956.00,21,05,2021,00,00*71
$GNVTG,,T,,M,0.124,N,0.230,K,A*3B
$GNGGA,062957.00,2218.11803,N,11411.39670,E,1,12,1.53,-22.1,M,-1.6,M,,*42
$GNGSA,A,3,14,28,03,17,01,22,19,30,06,02,,,2.49,1.53,1.96*1E
$GNGSA,A,3,78,81,79,82,66,,,,,,,,2.49,1.53,1.96*18
$GPGSV,4,1,14,01,11,042,11,02,15,249,15,03,37,057,28,04,03,109,*73
$GPGSV,4,2,14,06,45,265,32,07,00,168,,09,07,141,,14,82,153,31*75
$GPGSV,4,3,14,17,48,000,29,19,37,327,29,22,13,042,12,24,00,309,*70
$GPGSV,4,4,14,28,76,329,26,30,20,200,12*7B
$GLGSV,3,1,10,65,14,051,,66,28,114,29,67,09,164,,77,01,167,*6B
$GLGSV,3,2,10,78,45,197,25,79,54,290,32,80,08,330,,81,38,346,30*66
$GLGSV,3,3,10,82,22,290,17,88,17,040,14*64
$GNGLL,2218.11803,N,11411.39670,E,062957.00,A,A*75
$GNZDA,062957.00,21,05,2021,00,00*70
$GNRMC,062958.00,A,2218.11802,N,11411.39640,E,0.126,,210521,,,A*61
$GNVTG,,T,,M,0.126,N,0.234,K,A*3D
$GNGGA,062958.00,2218.11802,N,11411.39640,E,1,12,1.10,-22.2,M,-1.6,M,,*4B
$GNGSA,A,3,14,28,03,17,01,22,19,30,06,02,,,1.70,1.10,1.30*1C
$GNGSA,A,3,78,81,79,82,66,,,,,,,,1.70,1.10,1.30*1A
$GPGSV,4,1,14,01,11,042,10,02,15,249,12,03,37,057,28,04,03,109,*75
$GPGSV,4,2,14,06,45,265,33,07,00,168,,09,07,141,,14,82,153,33*76
$GPGSV,4,3,14,17,48,000,31,19,37,327,29,22,13,042,09,24,00,309,*73
$GPGSV,4,4,14,28,76,329,26,30,20,200,10*79
$GLGSV,3,1,10,65,14,051,,66,28,114,28,67,09,164,,77,01,167,*6A
$GLGSV,3,2,10,78,45,197,25,79,54,290,32,80,08,330,,81,38,346,29*6E
$GLGSV,3,3,10,82,22,290,17,88,17,040,11*61
$GNGLL,2218.11802,N,11411.39640,E,062958.00,A,A*78
$GNZDA,062958.00,21,05,2021,00,00*7F
$GNVTG,,T,,M,0.128,N,0.237,K,A*30
$GNGGA,062959.00,2218.11802,N,11411.39613,E,1,12,1.75,-22.4,M,-1.6,M,,*49
$GNGSA,A,3,14,28,03,17,01,22,19,06,02,,,,2.90,1.75,2.31*13
$GNGSA,A,3,78,81,79,82,66,,,,,,,,2.90,1.75,2.31*16
$GPGSV,4,1,14,01,11,042,10,02,15,249,14,03,37,057,28,04,03,109,*73
$GPGSV,4,2,14,06,45,265,33,07,00,168,,09,07,141,,14,82,153,32*77
$GPGSV,4,3,14,17,48,000,30,19,37,327,29,22,13,042,10,24,00,309,*7A
$GPGSV,4,4,14,28,76,329,26,30,20,200,08*70
$GLGSV,3,1,10,65,14,051,,66,28,114,29,67,09,164,,77,01,167,*6B
$GLGSV,3,2,10,78,45,197,25,79,54,290,33,80,08,330,,81,38,346,29*6F
$GLGSV,3,3,10,82,22,290,17,88,17,040,10*60
$GNGLL,2218.11802,N,11411.39613,E,062959.00,A,A*7F
$GNZDA,062959.00,21,05,2021,00,00*7E
$GNVTG,,T,,M,0.130,N,0.240,K,A*39
$GNGGA,063000.00,2218.11802,N,11411.39586,E,1,12,1.75,-22.6,M,-1.6,M,,*40
$GNGSA,A,3,14,28,03,17,22,19,06,02,,,,,2.90,1.75,2.31*12
$GNGSA,A,3,78,81,79,82,,,,,,,,,2.90,1.75,2.31*16
$GPGSV,4,1,14,01,11,042,07,02,15,249,15,03,37,057,28,04,03,109,*74
$GPGSV,4,2,14,06,45,265,33,07,00,168,,09,07,141,,14,82,153,31*74
$GPGSV,4,3,14,17,48,000,30,19,37,327,28,22,13,042,09,24,00,309,*73
$GPGSV,4,4,14,28,76,329,26,30,20,200,07*7F
$GLGSV,3,1,10,65,14,051,,66,28,114,30,67,09,164,,77,01,167,*63
$GLGSV,3,2,10,78,45,197,25,79,54,290,33,80,08,330,,81,38,346,29*6F
$GLGSV,3,3,10,82,22,290,18,88,17,040,09*67
$GNGLL,2218.11802,N,11411.39586,E,063000.00,A,A*74
$GNZDA,063000.00,21,05,2021,00,00*7A
$GNVTG,,T,,M,0.131,N,0.243,K,A*3B
$GNGGA,063001.00,2218.11800,N,11411.39561,E,1,12,1.84,-22.6,M,-1.6,M,,*44
$GNGSA,A,3,14,28,03,17,01,22,19,06,02,,,,2.99,1.84,2.37*12
$GNGSA,A,3,78,81,79,88,82,66,,,,,,,2.99,1.84,2.37*17
$GPGSV,4,1,14,01,11,042,09,02,15,249,15,03,37,057,28,04,03,109,17*7C
$GPGSV,4,2,14,06,45,265,33,07,00,168,,09,07,141,,14,82,153,31*74
$GPGSV,4,3,14,17,48,000,30,19,37,327,28,22,13,042,11,24,00,309,*7A
$GPGSV,4,4,14,28,76,329,26,30,20,200,07*7F
$GLGSV,3,1,10,65,14,051,,66,28,114,29,67,09,164,,77,01,167,*6B
$GLGSV,3,2,10,78,45,197,25,79,54,290,33,80,08,330,,81,38,346,29*6F
$GLGSV,3,3,10,82,22,290,18,88,17,040,13*6C
$GNGLL,2218.11800,N,11411.39561,E,063001.00,A,A*7E
$GNZDA,063001.00,21,05,2021,00,00*7B
$GNVTG,,T,,M,0.133,N,0.246,K,A*3C
$GNGGA,063002.00,2218.11790,N,11411.39527,E,1,12,1.53,-22.7,M,-1.6,M,,*48
$GNGSA,A,3,14,28,03,17,01,22,19,30,06,02,,,2.39,1.53,1.83*1D
$GNGSA,A,3,78,81,79,88,82,66,,,,,,,2.39,1.53,1.83*1B
$GPGSV,4,1,14,01,11,042,11,02,15,249,16,03,37,057,28,04,03,109,17*76
$GPGSV,4,2,14,06,45,265,35,07,00,168,,09,07,141,,14,82,153,32*71
$GPGSV,4,3,14,17,48,000,31,19,37,327,28,22,13,042,13,24,00,309,*79
$GPGSV,4,4,14,28,76,329,26,30,20,200,09*71
$GLGSV,3,1,10,65,14,051,,66,28,114,29,67,09,164,,77,00,167,*6A
$GLGSV,3,2,10,78,45,197,25,79,54,290,32,80,08,330,,81,38,346,29*6E
$GLGSV,3,3,10,82,22,290,17,88,17,040,16*66
$GNGLL,2218.11790,N,11411.39527,E,063002.00,A,A*79
$GNZDA,063002.00,21,05,2021,00,00*78
$GNVTG,,T,,M,0.134,N,0.249,K,A*34
$GNGGA,063003.00,2218.11783,N,11411.39499,E,1,12,2.22,-22.8,M,-1.6,M,,*45
$GNGSA,A,3,14,28,03,17,22,19,06,02,,,,,3.37,2.22,2.54*1C
$GNGSA,A,3,78,81,79,82,66,,,,,,,,3.37,2.22,2.54*18
$GPGSV,4,1,14,01,11,042,08,02,15,249,16,03,37,057,28,04,03,109,17*7E
$GPGSV,4,2,14,06,45,265,34,07,00,168,,09,07,141,,14,82,153,31*73
$GPGSV,4,3,14,17,48,000,30,19,37,327,27,22,13,042,12,24,00,309,*76
$GPGSV,4,4,14,28,76,329,26,30,20,200,08*70
$GLGSV,3,1,10,65,14,051,,66,28,114,28,67,09,164,,77,00,167,*6B
$GLGSV,3,2,10,78,45,197,24,79,54,290,31,80,08,330,,81,38,346,29*6C
$GLGSV,3,3,10,82,22,290,17,88,17,040,*61
$GNGLL,2218.11783,N,11411.39499,E,063003.00,A,A*7E
$GNZDA,063003.00,21,05,2021,00,00*79
$GNRMC,063004.00,A,2218.11784,N,11411.39473,E,0.136,,210521,,,A*62
$GNVTG,,T,,M,0.136,N,0.252,K,A*3C
$GNGGA,063004.00,2218.11784,N,11411.39473,E,1,12,1.91,-23.1,M,-1.6,M,,*42
$GNGSA,A,3,14,28,03,17,01,19,30,06,02,,,,3.09,1.91,2.43*1E
$GNGSA,A,3,78,81,79,82,66,,,,,,,,3.09,1.91,2.43*18
$GPGSV,4,1,14,01,11,042,12,02,15,249,17,03,37,057,28,04,03,109,17*74
$GPGSV,4,2,14,06,45,265,34,07,00,168,,09,07,141,,14,82,153,31*73
$GPGSV,4,3,14,17,48,000,30,19,37,327,28,22,13,042,08,24,00,309,*72
$GPGSV,4,4,14,28,76,329,27,30,20,200,11*79
$GLGSV,3,1,10,65,14,051,,66,28,114,28,67,09,164,,77,00,167,*6B
$GLGSV,3,2,10,78,45,197,24,79,54,289,32,80,08,330,,81,38,346,29*67
$GLGSV,3,3,10,82,22,290,16,88,17,040,25*67
$GNGLL,2218.11784,N,11411.39473,E,063004.00,A,A*7A
$GNZDA,063004.00,21,05,2021,00,00*7E
$GNVTG,,T,,M,0.137,N,0.254,K,A*3B
$GNGGA,063005.00,2218.11781,N,11411.39448,E,1,12,1.83,-23.1,M,-1.6,M,,*4D
$GNGSA,A,3,14,28,17,01,22,19,06,02,,,,,2.99,1.83,2.36*17
$GNGSA,A,3,78,81,79,82,66,,,,,,,,2.99,1.83,2.36*11
$GPGSV,4,1,14,01,11,042,12,02,15,249,16,03,37,057,,04,03,109,18*70
$GPGSV,4,2,14,06,45,265,34,07,00,168,,09,07,141,,14,82,153,31*73
$GPGSV,4,3,14,17,48,000,30,19,37,327,27,22,13,042,10,24,00,309,*74
$GPGSV,4,4,14,28,76,329,27,30,20,200,08*71
$GLGSV,3,1,10,65,14,051,,66,28,114,28,67,09,164,,77,00,167,*6B
$GLGSV,3,2,10,78,45,197,24,79,54,289,33,80,09,330,,81,38,346,30*6F
$GLGSV,3,3,10,82,22,290,14,88,17,040,24*64
$GNGLL,2218.11781,N,11411.39448,E,063005.00,A,A*76
$GNZDA,063005.00,21,05,2021,00,00*7F
$GNVTG,,T,,M,0.139,N,0.257,K,A*36
$GNGGA,063006.00,2218.11777,N,11411.39424,E,1,12,1.53,-23.2,M,-1.6,M,,*43
$GNGSA,A,3,14,28,17,01,22,19,30,06,02,,,,2.39,1.53,1.83*1E
$GNGSA,A,3,78,81,79,88,82,66,,,,,,,2.39,1.53,1.83*1B
$GPGSV,4,1,14,01,11,042,09,02,15,249,15,03,37,057,27,04,03,109,20*77
$GPGSV,4,2,14,06,45,265,34,07,00,168,,09,07,141,,14,82,153,31*73
$GPGSV,4,3,14,17,48,000,30,19,37,327,28,22,13,042,09,24,00,309,*73
$GPGSV,4,4,14,28,76,329,26,30,20,200,13*7A
$GLGSV,3,1,10,65,14,051,,66,28,114,29,67,09,164,,77,00,167,*6A
$GLGSV,3,2,10,78,45,197,24,79,54,289,33,80,09,330,,81,37,346,30*60
$GLGSV,3,3,10,82,22,290,14,88,17,040,23*63
$GNGLL,2218.11777,N,11411.39424,E,063006.00,A,A*76
$GNZDA,063006.00,21,05,2021,00,00*7C
$GNVTG,,T,,M,0.140,N,0.260,K,A*3C
