$GPGGA,062844.00,2218.097659,N,11411.421480,E,1,16,0.3,11.9,M,-1.3,M,,*40,1621578530420
$GPGSV,6,1,18,14,83,152,25,28,76,330,32,17,48,000,22,06,45,265,26*7A,1621578530424
$GPGSV,6,2,18,19,37,326,36,03,37,057,26,30,21,200,31,02,15,249,22*72,1621578530424
$GPGSV,6,3,18,22,13,042,,01,11,042,,07,00,168,,09,06,141,19*7D,1621578530424
$GPGSV,6,4,18,04,02,110,*44,1621578530424
$GPGSV,6,5,18,06,,,34,03,,,31,30,,,26,01,,,08,8*69,1621578530424
$GPGSV,6,6,18,09,,,11,8*6D,1621578530424
$GLGSV,3,1,09,79,53,290,33,78,45,197,14,81,38,346,28,66,27,115,26*64,1621578530424
$GLGSV,3,2,09,82,22,290,28,88,17,040,08,67,09,164,25,65,15,052,*60,1621578530424
$GLGSV,3,3,09,80,08,330,*5C,1621578530424
$QZGSV,2,1,04,02,49,160,26,01,34,125,22*6E,1621578530425
$QZGSV,2,2,04,02,,,,01,,,09,8*7F,1621578530425
$GPGSA,A,3,02,03,06,14,17,19,28,30,,,,,1.8,1.0,1.5*3B,1621578530425
$GNGSA,A,3,02,03,06,14,17,19,28,30,,,,,1.8,1.0,1.5*25,1621578530425
$GNGSA,A,3,66,67,78,79,81,82,,,,,,,1.8,1.0,1.5*23,1621578530425
$QZGSA,A,3,01,02,,,,,,,,,,,1.8,1.0,1.5*21,1621578530425
$IMGSA,A,3,,,,,,,,,,,,,1.8,1.0,1.5*2D,1621578530425
$BDGSA,A,3,,,,,,,,,,,,,1.8,1.0,1.5*2F,1621578530425
$GAGSA,A,3,,,,,,,,,,,,,1.8,1.0,1.5*2F,1621578530425
$GPRMC,062844.00,A,2218.097659,N,11411.421480,E,000.0,302.1,210521,,,A*55,1621578530425
$GPGGA,062845.00,2218.097672,N,11411.421490,E,1,16,0.3,11.8,M,-1.3,M,,*48,1621578531401
$GPGSV,6,1,18,14,83,152,25,28,76,330,32,17,48,000,24,06,45,265,27*7D,1621578531403
$GPGSV,6,2,18,19,37,326,36,03,37,057,26,30,21,200,31,02,15,249,23*73,1621578531403
$GPGSV,6,3,18,22,13,042,,01,11,042,,07,00,168,,09,06,141,18*7C,1621578531403
$GPGSV,6,4,18,04,02,109,*4C,1621578531403
$GPGSV,6,5,18,06,,,34,03,,,31,30,,,26,01,,,,8*61,1621578531403
$GPGSV,6,6,18,09,,,,8*6D,1621578531403
$GLGSV,3,1,09,79,53,290,33,78,45,197,14,81,38,346,28,66,27,115,26*64,1621578531403
$GLGSV,3,2,09,82,22,290,29,88,17,040,,67,09,164,25,65,15,052,*69,1621578531403
$GLGSV,3,3,09,80,08,330,*5C,1621578531403
$QZGSV,2,1,04,02,49,160,26,01,34,125,22*6E,1621578531403
$QZGSV,2,2,04,02,,,,01,,,11,8*76,1621578531403
$GPGSA,A,3,02,03,06,14,17,19,28,30,,,,,1.8,1.0,1.5*3B,1621578531403
$GNGSA,A,3,02,03,06,14,17,19,28,30,,,,,1.8,1.0,1.5*25,1621578531403
$GNGSA,A,3,66,67,78,79,81,82,,,,,,,1.8,1.0,1.5*23,1621578531403
$QZGSA,A,3,01,02,,,,,,,,,,,1.8,1.0,1.5*21,1621578531403
$IMGSA,A,3,,,,,,,,,,,,,1.8,1.0,1.5*2D,1621578531403
$BDGSA,A,3,,,,,,,,,,,,,1.8,1.0,1.5*2F,1621578531403
$GAGSA,A,3,,,,,,,,,,,,,1.8,1.0,1.5*2F,1621578531403
$GPRMC,062845.00,A,2218.097672,N,11411.421490,E,000.0,302.0,210521,,,A*5D,1621578531403
$GPGGA,062846.00,2218.097688,N,11411.421503,E,1,16,0.3,11.8,M,-1.3,M,,*45,1621578532409
$GPGSV,6,1,18,14,83,152,25,28,76,330,32,17,48,000,25,06,45,265,27*7C,1621578532411
$GPGSV,6,2,18,19,37,326,36,03,37,057,26,30,20,200,31,02,15,249,23*72,1621578532411
$GPGSV,6,3,18,22,13,042,,01,11,042,,07,00,168,,09,06,141,18*7C,1621578532411
$GPGSV,6,4,18,04,02,109,*4C,1621578532411
$GPGSV,6,5,18,06,,,34,03,,,31,30,,,26,01,,,,8*61,1621578532411
$GPGSV,6,6,18,09,,,,8*6D,1621578532411
$GLGSV,3,1,09,79,53,290,33,78,45,197,14,81,38,346,28,66,27,115,26*64,1621578532411
$GLGSV,3,2,09,82,22,290,29,88,17,040,08,67,09,164,24,65,15,052,*60,1621578532411
$GLGSV,3,3,09,80,08,330,*5C,1621578532411
$QZGSV,2,1,04,02,49,160,26,01,34,125,22*6E,1621578532411
$QZGSV,2,2,04,02,,,,01,,,,8*76,1621578532412
$GPGSA,A,3,02,03,06,14,17,19,28,30,,,,,1.8,1.0,1.5*3B,1621578532412
$GNGSA,A,3,02,03,06,14,17,19,28,30,,,,,1.8,1.0,1.5*25,1621578532413
$GNGSA,A,3,66,67,78,79,81,82,,,,,,,1.8,1.0,1.5*23,1621578532413
$QZGSA,A,3,01,02,,,,,,,,,,,1.8,1.0,1.5*21,1621578532413
$IMGSA,A,3,,,,,,,,,,,,,1.8,1.0,1.5*2D,1621578532413
$BDGSA,A,3,,,,,,,,,,,,,1.8,1.0,1.5*2F,1621578532413
$GAGSA,A,3,,,,,,,,,,,,,1.8,1.0,1.5*2F,1621578532413
$GPRMC,062846.00,A,2218.097688,N,11411.421503,E,000.0,302.0,210521,,,A*50,1621578532413
$GPGGA,062847.00,2218.097693,N,11411.421511,E,1,16,0.3,11.8,M,-1.3,M,,*4D,1621578533415
$GPGSV,6,1,18,14,83,152,25,28,76,330,32,17,48,000,25,06,45,265,27*7C,1621578533417
$GPGSV,6,2,18,19,37,326,36,03,37,057,26,30,20,200,31,02,15,249,23*72,1621578533417
$GPGSV,6,3,18,22,13,042,,01,11,042,,07,00,168,,09,06,141,18*7C,1621578533417
$GPGSV,6,4,18,04,02,109,*4C,1621578533417
$GPGSV,6,5,18,06,,,34,03,,,31,30,,,26,01,,,08,8*69,1621578533417
$GPGSV,6,6,18,09,,,,8*6D,1621578533417
$GLGSV,3,1,09,79,53,290,33,78,45,197,15,81,38,346,28,66,27,115,26*65,1621578533417
$GLGSV,3,2,09,82,22,290,30,88,17,040,08,67,09,164,23,65,15,052,*6F,1621578533418
$GLGSV,3,3,09,80,08,330,*5C,1621578533418
$QZGSV,2,1,04,02,49,160,26,01,34,125,22*6E,1621578533418
$QZGSV,2,2,04,02,,,,01,,,,8*76,1621578533418
$GPGSA,A,3,02,03,06,14,17,19,28,30,,,,,1.8,1.0,1.5*3B,1621578533418
$GNGSA,A,3,02,03,06,14,17,19,28,30,,,,,1.8,1.0,1.5*25,1621578533418
$GNGSA,A,3,66,67,78,79,81,82,,,,,,,1.8,1.0,1.5*23,1621578533418
$QZGSA,A,3,01,02,,,,,,,,,,,1.8,1.0,1.5*21,1621578533418
$IMGSA,A,3,,,,,,,,,,,,,1.8,1.0,1.5*2D,1621578533418
$BDGSA,A,3,,,,,,,,,,,,,1.8,1.0,1.5*2F,1621578533418
$GAGSA,A,3,,,,,,,,,,,,,1.8,1.0,1.5*2F,1621578533418
$GPRMC,062847.00,A,2218.097693,N,11411.421511,E,000.0,302.0,210521,,,A*58,1621578533419
$GPGGA,062848.00,2218.097706,N,11411.421506,E,1,15,0.3,11.8,M,-1.3,M,,*4A,1621578534403
$GPGSV,6,1,18,14,83,152,24,28,76,330,32,17,48,000,25,06,45,265,27*7D,1621578534407
$GPGSV,6,2,18,19,37,326,36,03,37,057,26,30,20,200,31,02,15,249,23*72,1621578534407
$GPGSV,6,3,18,22,13,042,,01,11,042,,07,00,168,,09,07,141,17*72,1621578534407
$GPGSV,6,4,18,04,02,109,*4C,1621578534408
$GPGSV,6,5,18,06,,,34,03,,,31,30,,,25,01,,,,8*62,1621578534408
$GPGSV,6,6,18,09,,,,8*6D,1621578534408
$GLGSV,3,1,09,79,53,290,33,78,45,197,15,81,38,346,28,66,27,115,26*65,1621578534409
$GLGSV,3,2,09,82,22,290,30,88,17,040,08,67,09,164,22,65,15,052,*6E,1621578534409
$GLGSV,3,3,09,80,08,330,*5C,1621578534409
$QZGSV,2,1,04,02,49,160,26,01,34,125,22*6E,1621578534409
$QZGSV,2,2,04,02,,,,01,,,,8*76,1621578534409
$GPGSA,A,3,02,03,06,14,17,19,28,30,,,,,1.8,1.0,1.5*3B,1621578534410
$GNGSA,A,3,02,03,06,14,17,19,28,30,,,,,1.8,1.0,1.5*25,1621578534410
$GNGSA,A,3,66,78,79,81,82,,,,,,,,1.8,1.0,1.5*22,1621578534410
$QZGSA,A,3,01,02,,,,,,,,,,,1.8,1.0,1.5*21,1621578534411
$IMGSA,A,3,,,,,,,,,,,,,1.8,1.0,1.5*2D,1621578534411
$BDGSA,A,3,,,,,,,,,,,,,1.8,1.0,1.5*2F,1621578534413
$GAGSA,A,3,,,,,,,,,,,,,1.8,1.0,1.5*2F,1621578534413
$GPRMC,062848.00,A,2218.097706,N,11411.421506,E,000.0,302.0,210521,,,A*5C,1621578534413
$GPGGA,062849.00,2218.097718,N,11411.421519,E,1,15,0.3,11.7,M,-1.3,M,,*45,1621578535429
$GPGSV,6,1,18,14,83,152,24,28,76,330,33,17,48,000,26,06,45,265,27*7F,1621578535435
$GPGSV,6,2,18,19,37,326,37,03,37,057,27,30,20,200,31,02,15,249,24*75,1621578535435
$GPGSV,6,3,18,22,13,042,,01,11,042,,07,00,168,,09,07,141,17*72,1621578535435
$GPGSV,6,4,18,04,02,109,*4C,1621578535435
$GPGSV,6,5,18,06,,,35,03,,,31,30,,,26,01,,,,8*60,1621578535435
$GPGSV,6,6,18,09,,,,8*6D,1621578535435
$GLGSV,3,1,09,79,53,290,33,78,45,197,18,81,38,346,28,66,27,115,26*68,1621578535435
$GLGSV,3,2,09,82,22,290,30,88,17,040,09,67,09,164,21,65,15,052,*6C,1621578535435
$GLGSV,3,3,09,80,08,330,*5C,1621578535435
$QZGSV,2,1,04,02,49,160,27,01,34,125,24*69,1621578535435
$QZGSV,2,2,04,02,,,,01,,,,8*76,1621578535435
$GPGSA,A,3,02,03,06,14,17,19,28,30,,,,,1.8,1.0,1.5*3B,1621578535435
$GNGSA,A,3,02,03,06,14,17,19,28,30,,,,,1.8,1.0,1.5*25,1621578535435
$GNGSA,A,3,66,78,79,81,82,,,,,,,,1.8,1.0,1.5*22,1621578535435
$QZGSA,A,3,01,02,,,,,,,,,,,1.8,1.0,1.5*21,1621578535436
$IMGSA,A,3,,,,,,,,,,,,,1.8,1.0,1.5*2D,1621578535436
$BDGSA,A,3,,,,,,,,,,,,,1.8,1.0,1.5*2F,1621578535436
$GAGSA,A,3,,,,,,,,,,,,,1.8,1.0,1.5*2F,1621578535436
$GPRMC,062849.00,A,2218.097718,N,11411.421519,E,000.1,301.9,210521,,,A*57,1621578535436
$GPGGA,062850.00,2218.097724,N,11411.421278,E,1,16,0.1,11.8,M,-1.3,M,,*4C,1621578536421
$GPGSV,6,1,18,14,83,152,24,28,76,330,33,17,48,000,26,06,45,265,28*70,1621578536427
$GPGSV,6,2,18,19,37,326,37,03,37,057,27,30,20,200,31,02,15,249,24*75,1621578536427
$GPGSV,6,3,18,22,13,042,,01,11,042,,07,00,168,,09,07,141,17*72,1621578536428
$GPGSV,6,4,18,04,02,109,*4C,1621578536428
$GPGSV,6,5,18,06,,,35,03,,,31,30,,,28,01,,,,8*6E,1621578536428
$GPGSV,6,6,18,09,,,,8*6D,1621578536428
$GLGSV,3,1,09,79,53,290,33,78,45,197,20,81,38,346,29,66,27,115,26*62,1621578536429
$GLGSV,3,2,09,82,22,290,30,88,17,040,09,67,09,164,21,65,15,052,*6C,1621578536429
$GLGSV,3,3,09,80,08,330,*5C,1621578536429
$QZGSV,2,1,04,02,49,160,27,01,34,125,24*69,1621578536429
$QZGSV,2,2,04,02,,,,01,,,,8*76,1621578536429
$GPGSA,A,3,02,03,06,14,17,19,28,30,,,,,1.8,1.0,1.5*3B,1621578536429
$GNGSA,A,3,02,03,06,14,17,19,28,30,,,,,1.8,1.0,1.5*25,1621578536429
$GNGSA,A,3,66,67,78,79,81,82,,,,,,,1.8,1.0,1.5*23,1621578536429
$QZGSA,A,3,01,02,,,,,,,,,,,1.8,1.0,1.5*21,1621578536429
$IMGSA,A,3,,,,,,,,,,,,,1.8,1.0,1.5*2D,1621578536429
$BDGSA,A,3,,,,,,,,,,,,,1.8,1.0,1.5*2F,1621578536429
$GAGSA,A,3,,,,,,,,,,,,,1.8,1.0,1.5*2F,1621578536429
$GPRMC,062850.00,A,2218.097724,N,11411.421278,E,000.7,301.8,210521,,,A*57,1621578536429
$GPGGA,062851.00,2218.097725,N,11411.420887,E,1,16,0.1,11.7,M,-1.3,M,,*48,1621578537420
$GPGSV,6,1,18,14,83,152,27,28,76,330,33,17,48,000,26,06,45,265,35*7F,1621578537424
$GPGSV,6,2,18,19,37,326,37,03,37,057,27,30,20,200,31,02,15,249,31*71,1621578537424
$GPGSV,6,3,18,22,13,042,,01,11,042,08,07,00,168,,09,07,141,19*74,1621578537424
$GPGSV,6,4,18,04,02,109,*4C,1621578537425
$GPGSV,6,5,18,06,,,35,03,,,31,30,,,28,01,,,,8*6E,1621578537425
$GPGSV,6,6,18,09,,,,8*6D,1621578537425
$GLGSV,3,1,09,79,53,290,33,78,45,197,22,81,38,346,32,66,27,115,26*6A,1621578537425
$GLGSV,3,2,09,82,22,290,30,88,17,040,09,67,09,164,23,65,15,052,*6E,1621578537425
$GLGSV,3,3,09,80,08,330,*5C,1621578537425
$QZGSV,2,1,04,02,49,160,27,01,34,125,24*69,1621578537425
$QZGSV,2,2,04,02,,,,01,,,09,8*7F,1621578537426
$GPGSA,A,3,02,03,06,14,17,19,28,30,,,,,1.7,0.9,1.5*3C,1621578537426
$GNGSA,A,3,02,03,06,14,17,19,28,30,,,,,1.7,0.9,1.5*22,1621578537426
$GNGSA,A,3,66,67,78,79,81,82,,,,,,,1.7,0.9,1.5*24,1621578537426
$QZGSA,A,3,01,02,,,,,,,,,,,1.7,0.9,1.5*26,1621578537426
$IMGSA,A,3,,,,,,,,,,,,,1.7,0.9,1.5*2A,1621578537426
$BDGSA,A,3,,,,,,,,,,,,,1.7,0.9,1.5*28,1621578537426
$GAGSA,A,3,,,,,,,,,,,,,1.7,0.9,1.5*28,1621578537426
$GPRMC,062851.00,A,2218.097725,N,11411.420887,E,001.3,288.6,210521,,,A*57,1621578537426
$GPGGA,062852.00,2218.097724,N,11411.420281,E,1,16,0.1,11.6,M,-1.3,M,,*47,1621578538418
$GPGSV,6,1,18,14,83,152,28,28,76,330,32,17,48,000,26,06,45,265,34*70,1621578538422
$GPGSV,6,2,18,19,37,326,36,03,37,057,27,30,20,200,32,02,15,249,34*76,1621578538422
$GPGSV,6,3,18,22,13,042,,01,11,042,,07,00,168,,09,07,141,19*7C,1621578538422
$GPGSV,6,4,18,04,02,109,*4C,1621578538422
$GPGSV,6,5,18,06,,,35,03,,,30,30,,,28,01,,,,8*6F,1621578538422
$GPGSV,6,6,18,09,,,12,8*6E,1621578538422
$GLGSV,3,1,09,79,53,290,32,78,45,197,28,81,38,346,32,66,27,115,25*62,1621578538422
$GLGSV,3,2,09,82,22,290,29,88,17,040,09,67,09,164,23,65,15,052,*66,1621578538422
$GLGSV,3,3,09,80,08,330,*5C,1621578538422
$QZGSV,2,1,04,02,49,160,27,01,34,125,24*69,1621578538422
$QZGSV,2,2,04,02,,,,01,,,,8*76,1621578538422
$GPGSA,A,3,02,03,06,14,17,19,28,30,,,,,1.8,1.0,1.5*3B,1621578538422
$GNGSA,A,3,02,03,06,14,17,19,28,30,,,,,1.8,1.0,1.5*25,1621578538422
$GNGSA,A,3,66,67,78,79,81,82,,,,,,,1.8,1.0,1.5*23,1621578538422
$QZGSA,A,3,01,02,,,,,,,,,,,1.8,1.0,1.5*21,1621578538422
$IMGSA,A,3,,,,,,,,,,,,,1.8,1.0,1.5*2D,1621578538422
$BDGSA,A,3,,,,,,,,,,,,,1.8,1.0,1.5*2F,1621578538422
$GAGSA,A,3,,,,,,,,,,,,,1.8,1.0,1.5*2F,1621578538422
$GPRMC,062852.00,A,2218.097724,N,11411.420281,E,002.0,280.5,210521,,,A*52,1621578538422
$GPGGA,062853.00,2218.097938,N,11411.419500,E,1,16,0.1,11.6,M,-1.3,M,,*41,1621578539412
$GPGSV,6,1,18,14,83,152,28,28,76,330,32,17,48,000,26,06,45,265,34*70,1621578539415
$GPGSV,6,2,18,19,37,326,36,03,37,057,26,30,20,200,32,02,15,249,34*77,1621578539415
$GPGSV,6,3,18,22,13,042,,01,11,042,,07,00,168,,09,07,141,19*7C,1621578539415
$GPGSV,6,4,18,04,02,109,*4C,1621578539415
$GPGSV,6,5,18,06,,,35,03,,,29,30,,,27,01,,,,8*68,1621578539415
$GPGSV,6,6,18,09,,,12,8*6E,1621578539415
$GLGSV,3,1,09,79,53,290,32,78,45,197,29,81,38,346,31,66,27,115,25*60,1621578539417
$GLGSV,3,2,09,82,22,290,29,88,17,040,09,67,09,164,23,65,15,052,*66,1621578539417
$GLGSV,3,3,09,80,08,330,*5C,1621578539417
$QZGSV,2,1,04,02,49,160,26,01,34,125,23*6F,1621578539417
$QZGSV,2,2,04,02,,,10,01,,,,8*77,1621578539417
$GPGSA,A,3,02,03,06,14,17,19,28,30,,,,,1.8,1.0,1.5*3B,1621578539417
$GNGSA,A,3,02,03,06,14,17,19,28,30,,,,,1.8,1.0,1.5*25,1621578539417
$GNGSA,A,3,66,67,78,79,81,82,,,,,,,1.8,1.0,1.5*23,1621578539417
$QZGSA,A,3,01,02,,,,,,,,,,,1.8,1.0,1.5*21,1621578539417
$IMGSA,A,3,,,,,,,,,,,,,1.8,1.0,1.5*2D,1621578539417
$BDGSA,A,3,,,,,,,,,,,,,1.8,1.0,1.5*2F,1621578539418
$GAGSA,A,3,,,,,,,,,,,,,1.8,1.0,1.5*2F,1621578539418
$GPRMC,062853.00,A,2218.097938,N,11411.419500,E,002.7,287.1,210521,,,A*50,1621578539418
$GPGGA,062854.00,2218.098505,N,11411.418853,E,1,16,0.1,11.5,M,-1.3,M,,*42,1621578540406
$GPGSV,6,1,18,14,83,152,28,28,76,330,32,17,48,000,26,06,45,265,33*77,1621578540413
$GPGSV,6,2,18,19,37,326,36,03,37,057,26,30,20,200,32,02,15,249,34*77,1621578540414
$GPGSV,6,3,18,22,13,042,,01,11,042,,07,00,168,,09,07,141,19*7C,1621578540415
$GPGSV,6,4,18,04,02,109,*4C,1621578540415
$GPGSV,6,5,18,06,,,35,03,,,29,30,,,27,01,,,,8*68,1621578540415
$GPGSV,6,6,18,09,,,,8*6D,1621578540416
$GLGSV,3,1,09,79,53,290,32,78,45,197,29,81,38,346,31,66,27,115,24*61,1621578540416
$GLGSV,3,2,09,82,22,290,28,88,17,040,,67,09,164,23,65,15,052,*6E,1621578540416
$GLGSV,3,3,09,80,08,330,*5C,1621578540416
$QZGSV,2,1,04,02,49,160,26,01,34,125,23*6F,1621578540416
$QZGSV,2,2,04,02,,,,01,,,,8*76,1621578540416
$GPGSA,A,3,02,03,06,14,17,19,28,30,,,,,1.8,1.0,1.5*3B,1621578540416
$GNGSA,A,3,02,03,06,14,17,19,28,30,,,,,1.8,1.0,1.5*25,1621578540416
$GNGSA,A,3,66,67,78,79,81,82,,,,,,,1.8,1.0,1.5*23,1621578540417
$QZGSA,A,3,01,02,,,,,,,,,,,1.8,1.0,1.5*21,1621578540417
$IMGSA,A,3,,,,,,,,,,,,,1.8,1.0,1.5*2D,1621578540417
$BDGSA,A,3,,,,,,,,,,,,,1.8,1.0,1.5*2F,1621578540417
$GAGSA,A,3,,,,,,,,,,,,,1.8,1.0,1.5*2F,1621578540417
$GPRMC,062854.00,A,2218.098505,N,11411.418853,E,002.9,312.7,210521,,,A*55,1621578540417
$GPGGA,062855.00,2218.099233,N,11411.418391,E,1,16,0.1,11.5,M,-1.3,M,,*45,1621578541419
$GPGSV,6,1,18,14,83,152,28,28,76,330,32,17,48,000,28,06,45,265,33*79,1621578541424
$GPGSV,6,2,18,19,37,326,36,03,37,057,27,30,20,200,31,02,15,249,34*75,1621578541425
$GPGSV,6,3,18,22,13,042,,01,11,042,,07,00,168,,09,07,141,19*7C,1621578541425
$GPGSV,6,4,18,04,02,109,*4C,1621578541425
$GPGSV,6,5,18,06,,,38,03,,,30,30,,,29,01,,,,8*63,1621578541426
$GPGSV,6,6,18,09,,,11,8*6D,1621578541427
$GLGSV,3,1,09,79,53,290,31,78,45,197,28,81,38,346,35,66,27,115,24*67,1621578541427
$GLGSV,3,2,09,82,22,290,28,88,17,040,08,67,09,164,24,65,15,052,*61,1621578541428
$GLGSV,3,3,09,80,08,330,*5C,1621578541428
$QZGSV,2,1,04,02,49,160,26,01,34,125,23*6F,1621578541429
$QZGSV,2,2,04,02,,,09,01,,,,8*7F,1621578541429
$GPGSA,A,3,02,03,06,14,17,19,28,30,,,,,1.8,1.0,1.5*3B,1621578541430
$GNGSA,A,3,02,03,06,14,17,19,28,30,,,,,1.8,1.0,1.5*25,1621578541430
$GNGSA,A,3,66,67,78,79,81,82,,,,,,,1.8,1.0,1.5*23,1621578541430
$QZGSA,A,3,01,02,,,,,,,,,,,1.8,1.0,1.5*21,1621578541430
$IMGSA,A,3,,,,,,,,,,,,,1.8,1.0,1.5*2D,1621578541430
$BDGSA,A,3,,,,,,,,,,,,,1.8,1.0,1.5*2F,1621578541430
$GAGSA,A,3,,,,,,,,,,,,,1.8,1.0,1.5*2F,1621578541430
$GPRMC,062855.00,A,2218.099233,N,11411.418391,E,003.0,330.0,210521,,,A*5D,1621578541430
$GPGGA,062856.00,2218.100027,N,11411.417901,E,1,16,0.1,11.5,M,-1.3,M,,*4C,1621578542408
$GPGSV,6,1,18,14,83,152,28,28,76,330,32,17,48,000,30,06,45,265,33*70,1621578542415
$GPGSV,6,2,18,19,37,326,35,03,37,057,28,30,20,200,31,02,15,249,33*7E,1621578542415
$GPGSV,6,3,18,22,13,042,,01,11,042,,07,00,168,,09,07,141,18*7D,1621578542415
$GPGSV,6,4,18,04,02,109,*4C,1621578542415
$GPGSV,6,5,18,06,,,38,03,,,30,30,,,29,01,,,,8*63,1621578542415
$GPGSV,6,6,18,09,,,11,8*6D,1621578542415
$GLGSV,3,1,09,79,53,290,35,78,45,197,28,81,38,346,38,66,27,115,24*6E,1621578542415
$GLGSV,3,2,09,82,22,290,28,88,17,040,08,67,09,164,24,65,15,052,*61,1621578542415
$GLGSV,3,3,09,80,08,330,*5C,1621578542415
$QZGSV,2,1,04,02,49,160,25,01,34,125,24*6B,1621578542415
$QZGSV,2,2,04,02,,,,01,,,,8*76,1621578542415
$GPGSA,A,3,02,03,06,14,17,19,28,30,,,,,1.8,1.0,1.5*3B,1621578542415
$GNGSA,A,3,02,03,06,14,17,19,28,30,,,,,1.8,1.0,1.5*25,1621578542415
$GNGSA,A,3,66,67,78,79,81,82,,,,,,,1.8,1.0,1.5*23,1621578542415
$QZGSA,A,3,01,02,,,,,,,,,,,1.8,1.0,1.5*21,1621578542416
$IMGSA,A,3,,,,,,,,,,,,,1.8,1.0,1.5*2D,1621578542416
$BDGSA,A,3,,,,,,,,,,,,,1.8,1.0,1.5*2F,1621578542416
$GAGSA,A,3,,,,,,,,,,,,,1.8,1.0,1.5*2F,1621578542416
$GPRMC,062856.00,A,2218.100027,N,11411.417901,E,003.2,331.5,210521,,,A*52,1621578542416
$GPGGA,062857.00,2218.100859,N,11411.417396,E,1,16,0.1,11.5,M,-1.3,M,,*48,1621578543408
$GPGSV,6,1,18,14,83,152,28,28,76,330,31,17,48,000,32,06,45,265,36*74,1621578543415
$GPGSV,6,2,18,19,37,326,35,03,37,057,28,30,20,200,30,02,15,249,33*7F,1621578543415
$GPGSV,6,3,18,22,13,042,,01,11,042,,07,00,168,,09,07,141,18*7D,1621578543416
$GPGSV,6,4,18,04,02,109,*4C,1621578543416
$GPGSV,6,5,18,06,,,37,03,,,30,30,,,29,01,,,,8*6C,1621578543416
$GPGSV,6,6,18,09,,,12,8*6E,1621578543416
$GLGSV,3,1,09,79,53,290,35,78,45,197,28,81,38,346,38,66,27,115,24*6E,1621578543416
$GLGSV,3,2,09,82,22,290,29,88,17,040,08,67,09,164,25,65,15,052,*61,1621578543416
$GLGSV,3,3,09,80,08,330,*5C,1621578543416
$QZGSV,2,1,04,02,49,160,25,01,34,125,24*6B,1621578543416
$QZGSV,2,2,04,02,,,,01,,,,8*76,1621578543416
$GPGSA,A,3,02,03,06,14,17,19,28,30,,,,,1.8,1.0,1.5*3B,1621578543416
$GNGSA,A,3,02,03,06,14,17,19,28,30,,,,,1.8,1.0,1.5*25,1621578543417
$GNGSA,A,3,66,67,78,79,81,82,,,,,,,1.8,1.0,1.5*23,1621578543417
$QZGSA,A,3,01,02,,,,,,,,,,,1.8,1.0,1.5*21,1621578543417
$IMGSA,A,3,,,,,,,,,,,,,1.8,1.0,1.5*2D,1621578543417
$BDGSA,A,3,,,,,,,,,,,,,1.8,1.0,1.5*2F,1621578543417
$GAGSA,A,3,,,,,,,,,,,,,1.8,1.0,1.5*2F,1621578543417
$GPRMC,062857.00,A,2218.100859,N,11411.417396,E,003.4,333.2,210521,,,A*55,1621578543417
$GPGGA,062858.00,2218.101818,N,11411.416851,E,1,16,0.1,11.5,M,-1.3,M,,*42,1621578544403
$GPGSV,6,1,18,14,83,152,28,28,76,330,30,17,48,000,32,06,45,265,35*76,1621578544407
$GPGSV,6,2,18,19,37,326,35,03,37,057,28,30,20,200,30,02,15,249,32*7E,1621578544407
$GPGSV,6,3,18,22,13,042,,01,11,042,,07,00,168,,09,07,141,18*7D,1621578544407
$GPGSV,6,4,18,04,02,109,*4C,1621578544407
$GPGSV,6,5,18,06,,,37,03,,,29,30,,,29,01,,,,8*64,1621578544407
$GPGSV,6,6,18,09,,,12,8*6E,1621578544407
$GLGSV,3,1,09,79,53,290,35,78,45,197,28,81,38,346,38,66,27,115,23*69,1621578544407
$GLGSV,3,2,09,82,22,290,28,88,17,040,08,67,09,164,26,65,15,051,*60,1621578544407
$GLGSV,3,3,09,80,08,330,*5C,1621578544407
$QZGSV,2,1,04,02,49,160,24,01,34,125,23*6D,1621578544407
$QZGSV,2,2,04,02,,,10,01,,,09,8*7E,1621578544407
$GPGSA,A,3,02,03,06,14,17,19,28,30,,,,,1.8,1.0,1.5*3B,1621578544407
$GNGSA,A,3,02,03,06,14,17,19,28,30,,,,,1.8,1.0,1.5*25,1621578544407
$GNGSA,A,3,66,67,78,79,81,82,,,,,,,1.8,1.0,1.5*23,1621578544407
$QZGSA,A,3,01,02,,,,,,,,,,,1.8,1.0,1.5*21,1621578544408
$IMGSA,A,3,,,,,,,,,,,,,1.8,1.0,1.5*2D,1621578544408
$BDGSA,A,3,,,,,,,,,,,,,1.8,1.0,1.5*2F,1621578544408
$GAGSA,A,3,,,,,,,,,,,,,1.8,1.0,1.5*2F,1621578544408
$GPRMC,062858.00,A,2218.101818,N,11411.416851,E,003.8,333.3,210521,,,A*52,1621578544408
$GPGGA,062859.00,2218.103144,N,11411.416135,E,1,16,0.1,11.6,M,-1.3,M,,*49,1621578545415
$GPGSV,6,1,18,14,83,152,28,28,76,330,29,17,48,000,32,06,45,265,35*7E,1621578545420
$GPGSV,6,2,18,19,37,326,35,03,37,057,28,30,20,200,29,02,15,249,32*76,1621578545420
$GPGSV,6,3,18,22,13,042,,01,11,042,,07,00,168,,09,07,141,17*72,1621578545420
$GPGSV,6,4,18,04,02,109,*4C,1621578545420
$GPGSV,6,5,18,06,,,36,03,,,29,30,,,29,01,,,,8*65,1621578545420
$GPGSV,6,6,18,09,,,,8*6D,1621578545421
$GLGSV,3,1,09,79,54,290,35,78,45,197,28,81,38,346,38,66,27,115,23*6E,1621578545421
$GLGSV,3,2,09,82,22,290,28,88,17,040,08,67,09,164,26,65,15,051,*60,1621578545421
$GLGSV,3,3,09,80,08,330,*5C,1621578545421
$QZGSV,2,1,04,02,49,160,24,01,34,125,23*6D,1621578545421
$QZGSV,2,2,04,02,,,,01,,,,8*76,1621578545421
$GPGSA,A,3,02,03,06,14,17,19,28,30,,,,,1.8,1.0,1.5*3B,1621578545421
$GNGSA,A,3,02,03,06,14,17,19,28,30,,,,,1.8,1.0,1.5*25,1621578545421
$GNGSA,A,3,66,67,78,79,81,82,,,,,,,1.8,1.0,1.5*23,1621578545421
$QZGSA,A,3,01,02,,,,,,,,,,,1.8,1.0,1.5*21,1621578545421
$IMGSA,A,3,,,,,,,,,,,,,1.8,1.0,1.5*2D,1621578545421
$BDGSA,A,3,,,,,,,,,,,,,1.8,1.0,1.5*2F,1621578545421
$GAGSA,A,3,,,,,,,,,,,,,1.8,1.0,1.5*2F,1621578545421
$GPRMC,062859.00,A,2218.103144,N,11411.416135,E,005.3,333.9,210521,,,A*5D,1621578545421
$GPGGA,062900.00,2218.104858,N,11411.415355,E,1,16,0.3,11.5,M,-1.3,M,,*41,1621578546416
$GPGSV,6,1,18,14,83,152,28,28,76,330,29,17,48,000,32,06,45,265,34*7F,1621578546419
$GPGSV,6,2,18,19,37,326,35,03,37,057,27,30,20,200,28,02,15,249,32*78,1621578546419
$GPGSV,6,3,18,22,13,042,,01,11,042,,07,00,168,,09,07,141,17*72,1621578546419
$GPGSV,6,4,18,04,02,109,*4C,1621578546419
$GPGSV,6,5,18,06,,,36,03,,,28,30,,,28,01,,,,8*65,1621578546420
$GPGSV,6,6,18,09,,,,8*6D,1621578546420
$GLGSV,3,1,09,79,54,290,36,78,45,197,27,81,38,346,38,66,27,115,23*62,1621578546420
$GLGSV,3,2,09,82,22,290,28,88,17,040,,67,09,164,25,65,15,051,*6B,1621578546420
$GLGSV,3,3,09,80,08,330,*5C,1621578546420
$QZGSV,2,1,04,02,49,160,23,01,34,125,23*6A,1621578546420
$QZGSV,2,2,04,02,,,,01,,,,8*76,1621578546420
$GPGSA,A,3,02,03,06,14,17,19,28,30,,,,,1.8,1.0,1.5*3B,1621578546420
$GNGSA,A,3,02,03,06,14,17,19,28,30,,,,,1.8,1.0,1.5*25,1621578546420
$GNGSA,A,3,66,67,78,79,81,82,,,,,,,1.8,1.0,1.5*23,1621578546420
$QZGSA,A,3,01,02,,,,,,,,,,,1.8,1.0,1.5*21,1621578546420
$IMGSA,A,3,,,,,,,,,,,,,1.8,1.0,1.5*2D,1621578546420
$BDGSA,A,3,,,,,,,,,,,,,1.8,1.0,1.5*2F,1621578546420
$GAGSA,A,3,,,,,,,,,,,,,1.8,1.0,1.5*2F,1621578546420
$GPRMC,062900.00,A,2218.104858,N,11411.415355,E,006.7,337.2,210521,,,A*5C,1621578546420
$GPGGA,062901.00,2218.106904,N,11411.414415,E,1,16,0.4,11.5,M,-1.3,M,,*4F,1621578547403
$GPGSV,6,1,18,14,83,152,27,28,76,329,28,17,48,000,32,06,45,265,34*79,1621578547405
$GPGSV,6,2,18,19,37,326,35,03,37,057,27,30,20,200,28,02,15,249,32*78,1621578547405
$GPGSV,6,3,18,22,13,042,,01,11,042,,07,00,168,,09,07,141,17*72,1621578547405
$GPGSV,6,4,18,04,02,109,*4C,1621578547405
$GPGSV,6,5,18,06,,,35,03,,,27,30,,,28,01,,,,8*69,1621578547405
$GPGSV,6,6,18,09,,,11,8*6D,1621578547405
$GLGSV,3,1,09,79,54,290,36,78,45,197,27,81,38,346,37,66,27,115,25*6B,1621578547405
$GLGSV,3,2,09,82,22,290,28,88,17,040,08,67,09,164,25,65,15,051,*63,1621578547405
$GLGSV,3,3,09,80,08,330,*5C,1621578547405
$QZGSV,2,1,04,02,49,160,23,01,34,125,23*6A,1621578547405
$QZGSV,2,2,04,02,,,,01,,,,8*76,1621578547405
$GPGSA,A,3,02,03,06,14,17,19,28,30,,,,,1.8,1.0,1.5*3B,1621578547406
$GNGSA,A,3,02,03,06,14,17,19,28,30,,,,,1.8,1.0,1.5*25,1621578547406
$GNGSA,A,3,66,67,78,79,81,82,,,,,,,1.8,1.0,1.5*23,1621578547406
$QZGSA,A,3,01,02,,,,,,,,,,,1.8,1.0,1.5*21,1621578547406
$IMGSA,A,3,,,,,,,,,,,,,1.8,1.0,1.5*2D,1621578547406
$BDGSA,A,3,,,,,,,,,,,,,1.8,1.0,1.5*2F,1621578547406
$GAGSA,A,3,,,,,,,,,,,,,1.8,1.0,1.5*2F,1621578547406
$GPRMC,062901.00,A,2218.106904,N,11411.414415,E,008.6,337.9,210521,,,A*51,1621578547406
$GPGGA,062902.00,2218.109250,N,11411.413365,E,1,16,0.4,11.4,M,-1.3,M,,*4F,1621578548403
$GPGSV,6,1,18,14,83,152,27,28,76,329,27,17,48,000,32,06,45,265,33*71,1621578548406
$GPGSV,6,2,18,19,37,327,35,03,37,057,26,30,20,200,27,02,15,249,32*77,1621578548407
$GPGSV,6,3,18,22,13,042,,01,11,042,,07,00,168,,09,07,141,16*73,1621578548407
$GPGSV,6,4,18,04,02,109,*4C,1621578548407
$GPGSV,6,5,18,06,,,34,03,,,27,30,,,28,01,,,,8*68,1621578548407
$GPGSV,6,6,18,09,,,11,8*6D,1621578548407
$GLGSV,3,1,09,79,54,290,36,78,45,197,27,81,38,346,37,66,27,115,28*66,1621578548407
$GLGSV,3,2,09,82,22,290,28,88,17,040,08,67,09,164,25,65,15,051,*63,1621578548407
$GLGSV,3,3,09,80,08,330,*5C,1621578548408
$QZGSV,2,1,04,02,49,160,23,01,34,125,23*6A,1621578548408
$QZGSV,2,2,04,02,,,09,01,,,,8*7F,1621578548408
$GPGSA,A,3,02,03,06,14,17,19,28,30,,,,,1.8,1.0,1.5*3B,1621578548408
$GNGSA,A,3,02,03,06,14,17,19,28,30,,,,,1.8,1.0,1.5*25,1621578548408
$GNGSA,A,3,66,67,78,79,81,82,,,,,,,1.8,1.0,1.5*23,1621578548408
$QZGSA,A,3,01,02,,,,,,,,,,,1.8,1.0,1.5*21,1621578548408
$IMGSA,A,3,,,,,,,,,,,,,1.8,1.0,1.5*2D,1621578548408
$BDGSA,A,3,,,,,,,,,,,,,1.8,1.0,1.5*2F,1621578548408
$GAGSA,A,3,,,,,,,,,,,,,1.8,1.0,1.5*2F,1621578548408
$GPRMC,062902.00,A,2218.109250,N,11411.413365,E,008.9,337.8,210521,,,A*5E,1621578548408
$GPGGA,062903.00,2218.111887,N,11411.412117,E,1,16,0.4,11.4,M,-1.3,M,,*41,1621578549416
$GPGSV,6,1,18,14,83,152,27,28,76,329,26,17,48,000,32,06,45,265,32*71,1621578549418
$GPGSV,6,2,18,19,37,327,35,03,37,057,26,30,20,200,27,02,15,249,31*74,1621578549418
$GPGSV,6,3,18,22,13,042,,01,11,042,,07,00,168,,09,07,141,16*73,1621578549418
$GPGSV,6,4,18,04,02,109,*4C,1621578549418
$GPGSV,6,5,18,06,,,34,03,,,27,30,,,28,01,,,,8*68,1621578549418
$GPGSV,6,6,18,09,,,,8*6D,1621578549418
$GLGSV,3,1,09,79,54,290,36,78,45,197,28,81,38,346,37,66,27,115,28*69,1621578549418
$GLGSV,3,2,09,82,22,290,28,88,17,040,10,67,09,164,25,65,15,051,*6A,1621578549419
$GLGSV,3,3,09,80,08,330,*5C,1621578549419
$QZGSV,2,1,04,02,49,160,22,01,34,125,22*6A,1621578549419
$QZGSV,2,2,04,02,,,11,01,,,,8*76,1621578549419
$GPGSA,A,3,02,03,06,14,17,19,28,30,,,,,1.8,1.0,1.5*3B,1621578549419
$GNGSA,A,3,02,03,06,14,17,19,28,30,,,,,1.8,1.0,1.5*25,1621578549419
$GNGSA,A,3,66,67,78,79,81,82,,,,,,,1.8,1.0,1.5*23,1621578549419
$QZGSA,A,3,01,02,,,,,,,,,,,1.8,1.0,1.5*21,1621578549419
$IMGSA,A,3,,,,,,,,,,,,,1.8,1.0,1.5*2D,1621578549419
$BDGSA,A,3,,,,,,,,,,,,,1.8,1.0,1.5*2F,1621578549419
$GAGSA,A,3,,,,,,,,,,,,,1.8,1.0,1.5*2F,1621578549419
$GPRMC,062903.00,A,2218.111887,N,11411.412117,E,010.0,336.9,210521,,,A*50,1621578549419
$GPGGA,062904.00,2218.114775,N,11411.410705,E,1,16,0.2,11.5,M,-1.3,M,,*41,1621578550413
$GPGSV,6,1,18,14,83,152,27,28,76,329,26,17,48,000,32,06,45,265,31*72,1621578550417
$GPGSV,6,2,18,19,37,327,35,03,37,057,26,30,20,200,27,02,15,249,30*75,1621578550418
$GPGSV,6,3,18,22,13,042,,01,11,042,,07,00,168,,09,07,141,16*73,1621578550418
$GPGSV,6,4,18,04,02,109,*4C,1621578550418
$GPGSV,6,5,18,06,,,33,03,,,26,30,,,28,01,,,,8*6E,1621578550418
$GPGSV,6,6,18,09,,,10,8*6C,1621578550418
$GLGSV,3,1,09,79,54,290,36,78,45,197,27,81,38,346,37,66,27,115,28*66,1621578550418
$GLGSV,3,2,09,82,22,290,28,88,17,040,10,67,09,164,25,65,15,051,*6A,1621578550418
$GLGSV,3,3,09,80,08,330,*5C,1621578550419
$QZGSV,2,1,04,02,49,160,22,01,34,125,22*6A,1621578550419
$QZGSV,2,2,04,02,,,,01,,,,8*76,1621578550419
$GPGSA,A,3,02,03,06,14,17,19,28,30,,,,,1.8,0.8,1.6*31,1621578550419
$GNGSA,A,3,02,03,06,14,17,19,28,30,,,,,1.8,0.8,1.6*2F,1621578550419
$GNGSA,A,3,66,67,78,79,81,82,,,,,,,1.8,0.8,1.6*29,1621578550419
$QZGSA,A,3,01,02,,,,,,,,,,,1.8,0.8,1.6*2B,1621578550419
$IMGSA,A,3,,,,,,,,,,,,,1.8,0.8,1.6*27,1621578550419
$BDGSA,A,3,,,,,,,,,,,,,1.8,0.8,1.6*25,1621578550419
$GAGSA,A,3,,,,,,,,,,,,,1.8,0.8,1.6*25,1621578550419
$GPRMC,062904.00,A,2218.114775,N,11411.410705,E,011.2,335.8,210521,,,A*56,1621578550420
$GPGGA,062905.00,2218.117742,N,11411.409236,E,1,16,0.2,11.5,M,-1.3,M,,*4A,1621578551414
$GPGSV,6,1,18,14,83,152,27,28,76,329,26,17,48,000,32,06,45,265,31*72,1621578551419
$GPGSV,6,2,18,19,37,327,35,03,37,057,28,30,20,200,26,02,15,249,29*72,1621578551419
$GPGSV,6,3,18,22,13,042,,01,11,042,,07,00,168,,09,07,141,16*73,1621578551419
$GPGSV,6,4,18,04,02,109,*4C,1621578551420
$GPGSV,6,5,18,06,,,32,03,,,26,30,,,28,01,,,,8*6F,1621578551420
$GPGSV,6,6,18,09,,,,8*6D,1621578551420
$GLGSV,3,1,09,79,54,290,36,78,45,197,27,81,38,346,36,66,27,115,27*68,1621578551420
$GLGSV,3,2,09,82,22,290,28,88,17,040,10,67,09,164,25,65,15,051,*6A,1621578551420
$GLGSV,3,3,09,80,08,330,*5C,1621578551420
$QZGSV,2,1,04,02,49,160,22,01,34,125,22*6A,1621578551420
$QZGSV,2,2,04,02,,,10,01,,,08,8*7F,1621578551420
$GPGSA,A,3,02,03,06,14,17,19,28,30,,,,,1.8,1.0,1.5*3B,1621578551420
$GNGSA,A,3,02,03,06,14,17,19,28,30,,,,,1.8,1.0,1.5*25,1621578551420
$GNGSA,A,3,66,67,78,79,81,82,,,,,,,1.8,1.0,1.5*23,1621578551420
$QZGSA,A,3,01,02,,,,,,,,,,,1.8,1.0,1.5*21,1621578551420
$IMGSA,A,3,,,,,,,,,,,,,1.8,1.0,1.5*2D,1621578551420
$BDGSA,A,3,,,,,,,,,,,,,1.8,1.0,1.5*2F,1621578551420
$GAGSA,A,3,,,,,,,,,,,,,1.8,1.0,1.5*2F,1621578551420
$GPRMC,062905.00,A,2218.117742,N,11411.409236,E,012.0,335.5,210521,,,A*51,1621578551420
$GPGGA,062906.00,2218.120897,N,11411.407641,E,1,15,0.2,11.7,M,-1.3,M,,*41,1621578552416
$GPGSV,6,1,18,14,83,152,27,28,76,329,25,17,48,000,32,06,45,265,31*71,1621578552419
$GPGSV,6,2,18,19,37,327,35,03,37,057,28,30,20,200,26,02,15,249,27*7C,1621578552419
$GPGSV,6,3,18,22,13,042,,01,11,042,,07,00,168,,09,07,141,16*73,1621578552420
$GPGSV,6,4,18,04,02,109,*4C,1621578552420
$GPGSV,6,5,18,06,,,32,03,,,26,30,,,27,01,,,,8*60,1621578552420
$GPGSV,6,6,18,09,,,,8*6D,1621578552420
$GLGSV,3,1,09,79,54,290,36,78,45,197,27,81,38,346,36,66,27,115,26*69,1621578552421
$GLGSV,3,2,09,82,22,290,28,88,17,040,11,67,09,164,25,65,15,051,*6B,1621578552421
$GLGSV,3,3,09,80,08,330,*5C,1621578552421
$QZGSV,2,1,04,02,49,160,22,01,34,125,21*69,1621578552421
$QZGSV,2,2,04,02,,,,01,,,,8*76,1621578552421
$GPGSA,A,3,03,06,14,17,19,28,30,,,,,,1.7,0.8,1.5*3F,1621578552421
$GNGSA,A,3,03,06,14,17,19,28,30,,,,,,1.7,0.8,1.5*21,1621578552421
$GNGSA,A,3,66,67,78,79,81,82,,,,,,,1.7,0.8,1.5*25,1621578552421
$QZGSA,A,3,01,02,,,,,,,,,,,1.7,0.8,1.5*27,1621578552421
$IMGSA,A,3,,,,,,,,,,,,,1.7,0.8,1.5*2B,1621578552422
$BDGSA,A,3,,,,,,,,,,,,,1.7,0.8,1.5*29,1621578552422
$GAGSA,A,3,,,,,,,,,,,,,1.7,0.8,1.5*29,1621578552422
$GPRMC,062906.00,A,2218.120897,N,11411.407641,E,012.6,335.2,210521,,,A*5A,1621578552422
$GPGGA,062907.00,2218.123988,N,11411.406067,E,1,15,0.2,11.7,M,-1.3,M,,*4F,1621578553409
$GPGSV,6,1,18,14,83,152,27,28,76,329,25,17,48,000,32,06,45,265,31*71,1621578553417
$GPGSV,6,2,18,19,37,327,35,03,37,057,30,30,20,200,26,02,15,249,25*77,1621578553418
$GPGSV,6,3,18,22,13,042,,01,11,042,,07,00,168,,09,07,141,15*70,1621578553418
$GPGSV,6,4,18,04,02,109,*4C,1621578553418
$GPGSV,6,5,18,06,,,31,03,,,26,30,,,27,01,,,,8*63,1621578553418
$GPGSV,6,6,18,09,,,09,8*64,1621578553418
$GLGSV,3,1,09,79,54,290,36,78,45,197,27,81,38,346,37,66,27,115,25*6B,1621578553418
$GLGSV,3,2,09,82,22,290,28,88,17,040,11,67,09,164,25,65,15,051,*6B,1621578553418
$GLGSV,3,3,09,80,08,330,*5C,1621578553418
$QZGSV,2,1,04,02,49,160,22,01,34,125,21*69,1621578553419
$QZGSV,2,2,04,02,,,,01,,,08,8*7E,1621578553419
$GPGSA,A,3,03,06,14,17,19,28,30,,,,,,1.9,0.8,1.7*33,1621578553419
$GNGSA,A,3,03,06,14,17,19,28,30,,,,,,1.9,0.8,1.7*2D,1621578553419
$GNGSA,A,3,66,67,78,79,81,82,,,,,,,1.9,0.8,1.7*29,1621578553419
$QZGSA,A,3,01,02,,,,,,,,,,,1.9,0.8,1.7*2B,1621578553419
$IMGSA,A,3,,,,,,,,,,,,,1.9,0.8,1.7*27,1621578553419
$BDGSA,A,3,,,,,,,,,,,,,1.9,0.8,1.7*25,1621578553419
$GAGSA,A,3,,,,,,,,,,,,,1.9,0.8,1.7*25,1621578553419
$GPRMC,062907.00,A,2218.123988,N,11411.406067,E,012.4,335.2,210521,,,A*56,1621578553419
$GPGGA,062908.00,2218.127131,N,11411.404506,E,1,15,0.2,11.9,M,-1.3,M,,*40,1621578554408
$GPGSV,6,1,18,14,83,152,27,28,76,329,25,17,48,000,32,06,45,265,31*71,1621578554413
$GPGSV,6,2,18,19,37,327,35,03,37,057,30,30,20,200,25,02,15,249,24*75,1621578554413
$GPGSV,6,3,18,22,13,042,,01,11,042,,07,00,168,,09,07,141,15*70,1621578554413
$GPGSV,6,4,18,04,02,109,*4C,1621578554414
$GPGSV,6,5,18,06,,,30,03,,,25,30,,,26,01,,,,8*60,1621578554414
$GPGSV,6,6,18,09,,,,8*6D,1621578554414
$GLGSV,3,1,09,79,54,290,37,78,45,197,27,81,38,346,37,66,27,115,25*6A,1621578554414
$GLGSV,3,2,09,82,22,290,27,88,17,040,11,67,09,164,25,65,15,051,*64,1621578554414
$GLGSV,3,3,09,80,08,330,*5C,1621578554414
$QZGSV,2,1,04,02,49,160,21,01,34,125,21*6A,1621578554414
$QZGSV,2,2,04,02,,,,01,,,,8*76,1621578554414
$GPGSA,A,3,03,06,14,17,19,28,30,,,,,,1.8,0.9,1.6*32,1621578554414
$GNGSA,A,3,03,06,14,17,19,28,30,,,,,,1.8,0.9,1.6*2C,1621578554414
$GNGSA,A,3,66,67,78,79,81,82,,,,,,,1.8,0.9,1.6*28,1621578554414
$QZGSA,A,3,01,02,,,,,,,,,,,1.8,0.9,1.6*2A,1621578554414
$IMGSA,A,3,,,,,,,,,,,,,1.8,0.9,1.6*26,1621578554414
$BDGSA,A,3,,,,,,,,,,,,,1.8,0.9,1.6*24,1621578554414
$GAGSA,A,3,,,,,,,,,,,,,1.8,0.9,1.6*24,1621578554414
$GPRMC,062908.00,A,2218.127131,N,11411.404506,E,012.3,335.6,210521,,,A*54,1621578554414
$GPGGA,062909.00,2218.130083,N,11411.402989,E,1,15,0.6,11.9,M,-1.3,M,,*46,1621578555416
$GPGSV,6,1,18,14,83,152,27,28,76,329,25,17,48,000,32,06,45,265,31*71,1621578555418
$GPGSV,6,2,18,19,37,327,35,03,37,057,29,30,20,200,25,02,15,249,22*7B,1621578555418
$GPGSV,6,3,18,22,13,042,,01,11,042,,07,00,168,,09,07,141,15*70,1621578555418
$GPGSV,6,4,18,04,02,109,*4C,1621578555418
$GPGSV,6,5,18,06,,,29,03,,,25,30,,,26,01,,,,8*68,1621578555419
$GPGSV,6,6,18,09,,,,8*6D,1621578555419
$GLGSV,3,1,09,79,54,290,37,78,45,197,27,81,38,346,37,66,27,115,24*6B,1621578555419
$GLGSV,3,2,09,82,22,290,27,88,17,040,11,67,09,164,25,65,15,051,*64,1621578555419
$GLGSV,3,3,09,80,08,330,*5C,1621578555419
$QZGSV,2,1,04,02,49,160,21,01,34,125,21*6A,1621578555419
$QZGSV,2,2,04,02,,,11,01,,,,8*76,1621578555419
$GPGSA,A,3,03,06,14,17,19,28,30,,,,,,1.8,0.9,1.6*32,1621578555419
$GNGSA,A,3,03,06,14,17,19,28,30,,,,,,1.8,0.9,1.6*2C,1621578555419
$GNGSA,A,3,66,67,78,79,81,82,,,,,,,1.8,0.9,1.6*28,1621578555419
$QZGSA,A,3,01,02,,,,,,,,,,,1.8,0.9,1.6*2A,1621578555419
$IMGSA,A,3,,,,,,,,,,,,,1.8,0.9,1.6*26,1621578555419
$BDGSA,A,3,,,,,,,,,,,,,1.8,0.9,1.6*24,1621578555419
$GAGSA,A,3,,,,,,,,,,,,,1.8,0.9,1.6*24,1621578555420
$GPRMC,062909.00,A,2218.130083,N,11411.402989,E,011.8,335.0,210521,,,A*58,1621578555420
$GPGGA,062910.00,2218.132956,N,11411.401504,E,1,15,0.2,11.8,M,-1.3,M,,*42,1621578556416
$GPGSV,6,1,18,14,83,152,27,28,76,329,24,17,48,000,31,06,45,265,31*73,1621578556421
$GPGSV,6,2,18,19,37,327,34,03,37,057,28,30,20,200,25,02,15,249,21*78,1621578556421
$GPGSV,6,3,18,22,13,042,,01,11,042,,07,00,168,,09,07,141,15*70,1621578556421
$GPGSV,6,4,18,04,02,109,*4C,1621578556421
$GPGSV,6,5,18,06,,,29,03,,,23,30,,,25,01,,,,8*6D,1621578556421
$GPGSV,6,6,18,09,,,,8*6D,1621578556421
$GLGSV,3,1,09,79,54,290,37,78,45,197,27,81,38,346,36,66,27,115,24*6A,1621578556421
$GLGSV,3,2,09,82,22,290,27,88,17,040,11,67,09,164,26,65,15,051,*67,1621578556421
$GLGSV,3,3,09,80,08,330,*5C,1621578556422
$QZGSV,2,1,04,02,49,160,21,01,34,125,21*6A,1621578556422
$QZGSV,2,2,04,02,,,,01,,,,8*76,1621578556422
$GPGSA,A,3,03,06,14,17,19,28,30,,,,,,1.8,0.9,1.6*32,1621578556422
$GNGSA,A,3,03,06,14,17,19,28,30,,,,,,1.8,0.9,1.6*2C,1621578556422
$GNGSA,A,3,66,67,78,79,81,82,,,,,,,1.8,0.9,1.6*28,1621578556422
$QZGSA,A,3,01,02,,,,,,,,,,,1.8,0.9,1.6*2A,1621578556422
$IMGSA,A,3,,,,,,,,,,,,,1.8,0.9,1.6*26,1621578556422
$BDGSA,A,3,,,,,,,,,,,,,1.8,0.9,1.6*24,1621578556422
$GAGSA,A,3,,,,,,,,,,,,,1.8,0.9,1.6*24,1621578556422
$GPRMC,062910.00,A,2218.132956,N,11411.401504,E,011.5,334.5,210521,,,A*50,1621578556422
$GPGGA,062911.00,2218.135796,N,11411.400047,E,1,15,0.3,11.7,M,-1.3,M,,*4B,1621578557404
$GPGSV,6,1,18,14,83,152,27,28,76,329,24,17,48,000,30,06,45,265,32*71,1621578557410
$GPGSV,6,2,18,19,37,327,34,03,37,057,27,30,20,200,25,02,15,249,20*76,1621578557411
$GPGSV,6,3,18,22,13,042,,01,11,042,,09,07,141,16,07,00,168,*73,1621578557413
$GPGSV,6,4,18,04,02,109,*4C,1621578557413
$GPGSV,6,5,18,06,,,29,03,,,22,30,,,25,01,,,,8*6C,1621578557414
$GPGSV,6,6,18,09,,,,8*6D,1621578557414
$GLGSV,3,1,09,79,54,290,37,78,45,197,26,81,38,346,35,66,27,115,24*68,1621578557414
$GLGSV,3,2,09,82,22,290,28,88,17,040,11,67,09,164,25,65,15,051,*6B,1621578557414
$GLGSV,3,3,09,80,08,330,*5C,1621578557414
$QZGSV,2,1,04,02,49,160,21,01,34,125,20*6B,1621578557415
$QZGSV,2,2,04,02,,,11,01,,,,8*76,1621578557415
$GPGSA,A,3,03,06,14,17,19,28,30,,,,,,1.8,0.9,1.5*31,1621578557415
$GNGSA,A,3,03,06,14,17,19,28,30,,,,,,1.8,0.9,1.5*2F,1621578557415
$GNGSA,A,3,66,67,78,79,81,82,,,,,,,1.8,0.9,1.5*2B,1621578557416
$QZGSA,A,3,01,02,,,,,,,,,,,1.8,0.9,1.5*29,1621578557416
$IMGSA,A,3,,,,,,,,,,,,,1.8,0.9,1.5*25,1621578557416
$BDGSA,A,3,,,,,,,,,,,,,1.8,0.9,1.5*27,1621578557416
$GAGSA,A,3,,,,,,,,,,,,,1.8,0.9,1.5*27,1621578557416
$GPRMC,062911.00,A,2218.135796,N,11411.400047,E,011.3,329.7,210521,,,A*5F,1621578557416
$GPGGA,062912.00,2218.138203,N,11411.398001,E,1,14,0.3,11.8,M,-1.3,M,,*46,1621578558405
$GPGSV,6,1,18,14,83,152,27,28,76,329,26,17,48,000,29,06,45,265,34*7D,1621578558407
$GPGSV,6,2,18,19,37,327,33,03,37,057,25,30,20,200,25,02,15,249,19*79,1621578558407
$GPGSV,6,3,18,22,13,042,,01,11,042,,09,07,141,16,07,00,168,*73,1621578558407
$GPGSV,6,4,18,04,02,109,*4C,1621578558407
$GPGSV,6,5,18,06,,,35,03,,,,30,,,29,01,,,,8*6D,1621578558407
$GPGSV,6,6,18,09,,,,8*6D,1621578558407
$GLGSV,3,1,09,79,54,290,36,78,45,197,26,81,38,346,33,66,27,115,23*68,1621578558407
$GLGSV,3,2,09,82,22,290,28,88,17,040,11,67,09,164,25,65,15,051,*6B,1621578558407
$GLGSV,3,3,09,80,08,330,*5C,1621578558407
$QZGSV,2,1,04,02,49,160,21,01,34,125,20*6B,1621578558408
$QZGSV,2,2,04,02,,,14,01,,,08,8*7B,1621578558408
$GPGSA,A,3,06,14,17,19,28,30,,,,,,,1.8,0.9,1.5*32,1621578558411
$GNGSA,A,3,06,14,17,19,28,30,,,,,,,1.8,0.9,1.5*2C,1621578558411
$GNGSA,A,3,66,67,78,79,81,82,,,,,,,1.8,0.9,1.5*2B,1621578558411
$QZGSA,A,3,01,02,,,,,,,,,,,1.8,0.9,1.5*29,1621578558411
$IMGSA,A,3,,,,,,,,,,,,,1.8,0.9,1.5*25,1621578558411
$BDGSA,A,3,,,,,,,,,,,,,1.8,0.9,1.5*27,1621578558411
$GAGSA,A,3,,,,,,,,,,,,,1.8,0.9,1.5*27,1621578558411
$GPRMC,062912.00,A,2218.138203,N,11411.398001,E,010.8,321.2,210521,,,A*5B,1621578558411
$GPGGA,062913.00,2218.140164,N,11411.395720,E,1,14,0.4,11.7,M,-1.3,M,,*4B,1621578559407
$GPGSV,6,1,18,14,83,152,27,28,76,329,27,17,48,000,28,06,45,265,33*7A,1621578559416
$GPGSV,6,2,18,19,37,327,32,03,37,057,,30,20,200,26,02,15,249,18*7D,1621578559416
$GPGSV,6,3,18,22,13,042,,01,11,042,,09,07,141,16,07,00,168,*73,1621578559416
$GPGSV,6,4,18,04,02,109,*4C,1621578559417
$GPGSV,6,5,18,06,,,37,03,,,,30,,,31,01,,,,8*66,1621578559417
$GPGSV,6,6,18,09,,,10,8*6C,1621578559417
$GLGSV,3,1,09,79,54,290,36,78,45,197,26,81,38,346,31,66,27,115,23*6A,1621578559417
$GLGSV,3,2,09,82,22,290,28,88,17,041,11,67,09,164,25,65,15,051,*6A,1621578559418
$GLGSV,3,3,09,80,08,330,*5C,1621578559418
$QZGSV,2,1,04,02,49,160,23,01,34,125,19*63,1621578559418
$QZGSV,2,2,04,02,,,14,01,,,,8*73,1621578559418
$GPGSA,A,3,06,14,17,19,28,30,,,,,,,1.8,1.0,1.5*3A,1621578559419
$GNGSA,A,3,06,14,17,19,28,30,,,,,,,1.8,1.0,1.5*24,1621578559419
$GNGSA,A,3,66,67,78,79,81,82,,,,,,,1.8,1.0,1.5*23,1621578559419
$QZGSA,A,3,01,02,,,,,,,,,,,1.8,1.0,1.5*21,1621578559419
$IMGSA,A,3,,,,,,,,,,,,,1.8,1.0,1.5*2D,1621578559419
$BDGSA,A,3,,,,,,,,,,,,,1.8,1.0,1.5*2F,1621578559419
$GAGSA,A,3,,,,,,,,,,,,,1.8,1.0,1.5*2F,1621578559419
$GPRMC,062913.00,A,2218.140164,N,11411.395720,E,010.1,311.5,210521,,,A*53,1621578559419
$GPGGA,062914.00,2218.141394,N,11411.392984,E,1,13,0.2,12.2,M,-1.3,M,,*40,1621578560397
$GPGSV,6,1,18,14,83,152,27,28,76,329,28,17,48,000,26,06,45,265,33*7B,1621578560399
$GPGSV,6,2,18,19,37,327,34,03,37,057,,30,20,200,28,02,15,249,17*7A,1621578560399
$GPGSV,6,3,18,22,13,042,,01,11,042,,09,07,141,16,07,00,168,*73,1621578560399
$GPGSV,6,4,18,04,03,109,*4D,1621578560399
$GPGSV,6,5,18,06,,,37,03,,,18,30,,,31,01,,,,8*6F,1621578560399
$GPGSV,6,6,18,09,,,10,8*6C,1621578560399
$GLGSV,3,1,09,79,54,290,36,78,45,197,26,81,38,346,30,66,27,115,22*6A,1621578560399
$GLGSV,3,2,09,82,22,290,28,88,17,041,10,67,09,164,25,65,15,051,*6B,1621578560399
$GLGSV,3,3,09,80,08,330,*5C,1621578560399
$QZGSV,2,1,04,02,49,160,23,01,34,125,20*69,1621578560399
$QZGSV,2,2,04,02,,,14,01,,,,8*73,1621578560399
$GPGSA,A,3,06,14,19,28,30,,,,,,,,1.9,1.1,1.5*3C,1621578560399
$GNGSA,A,3,06,14,19,28,30,,,,,,,,1.9,1.1,1.5*22,1621578560399
$GNGSA,A,3,66,67,78,79,81,82,,,,,,,1.9,1.1,1.5*23,1621578560399
$QZGSA,A,3,01,02,,,,,,,,,,,1.9,1.1,1.5*21,1621578560399
$IMGSA,A,3,,,,,,,,,,,,,1.9,1.1,1.5*2D,1621578560399
$BDGSA,A,3,,,,,,,,,,,,,1.9,1.1,1.5*2F,1621578560399
$GAGSA,A,3,,,,,,,,,,,,,1.9,1.1,1.5*2F,1621578560400
$GPRMC,062914.00,A,2218.141394,N,11411.392984,E,009.9,293.9,210521,,,A*58,1621578560400
$GPGGA,062915.00,2218.141988,N,11411.390260,E,1,13,0.2,12.3,M,-1.3,M,,*44,1621578561399
$GPGSV,6,1,18,14,83,152,27,28,76,329,28,17,48,000,25,06,45,265,32*79,1621578561403
$GPGSV,6,2,18,19,37,327,33,03,37,057,20,30,20,200,28,02,15,249,16*7E,1621578561403
$GPGSV,6,3,18,22,13,042,,01,11,042,,09,07,141,16,07,00,168,*73,1621578561403
$GPGSV,6,4,18,04,03,109,*4D,1621578561403
$GPGSV,6,5,18,06,,,37,03,,,,30,,,31,01,,,,8*66,1621578561403
$GPGSV,6,6,18,09,,,10,8*6C,1621578561403
$GLGSV,3,1,09,79,54,290,35,78,45,197,26,81,38,346,28,66,27,115,21*63,1621578561403
$GLGSV,3,2,09,82,22,290,28,88,17,041,10,67,09,164,27,65,15,051,*69,1621578561403
$GLGSV,3,3,09,80,08,330,*5C,1621578561403
$QZGSV,2,1,04,02,49,160,23,01,34,125,20*69,1621578561403
$QZGSV,2,2,04,02,,,13,01,,,11,8*74,1621578561403
$GPGSA,A,3,06,14,19,28,30,,,,,,,,1.9,1.1,1.5*3C,1621578561403
$GNGSA,A,3,06,14,19,28,30,,,,,,,,1.9,1.1,1.5*22,1621578561403
$GNGSA,A,3,66,67,78,79,81,82,,,,,,,1.9,1.1,1.5*23,1621578561403
$QZGSA,A,3,01,02,,,,,,,,,,,1.9,1.1,1.5*21,1621578561404
$IMGSA,A,3,,,,,,,,,,,,,1.9,1.1,1.5*2D,1621578561404
$BDGSA,A,3,,,,,,,,,,,,,1.9,1.1,1.5*2F,1621578561404
$GAGSA,A,3,,,,,,,,,,,,,1.9,1.1,1.5*2F,1621578561404
$GPRMC,062915.00,A,2218.141988,N,11411.390260,E,009.2,280.9,210521,,,A*54,1621578561405
$GPGGA,062916.00,2218.141833,N,11411.387637,E,1,13,0.2,12.4,M,-1.3,M,,*41,1621578562402
$GPGSV,6,1,18,14,82,152,28,28,76,329,31,17,48,000,23,06,45,265,32*79,1621578562406
$GPGSV,6,2,18,19,37,327,33,03,37,057,19,30,20,200,28,02,15,249,*73,1621578562406
$GPGSV,6,3,18,22,13,042,,01,11,042,,09,07,141,16,07,00,168,*73,1621578562406
$GPGSV,6,4,18,04,03,109,*4D,1621578562406
$GPGSV,6,5,18,06,,,37,03,,,,30,,,33,01,,,07,8*63,1621578562406
$GPGSV,6,6,18,09,,,,8*6D,1621578562406
$GLGSV,3,1,09,79,54,290,35,78,45,197,28,81,38,346,27,66,27,115,21*62,1621578562406
$GLGSV,3,2,09,82,22,290,27,88,17,041,10,67,09,164,26,65,15,051,*67,1621578562406
$GLGSV,3,3,09,80,08,330,*5C,1621578562406
$QZGSV,2,1,04,02,49,160,24,01,34,125,20*6E,1621578562406
$QZGSV,2,2,04,02,,,13,01,,,11,8*74,1621578562406
$GPGSA,A,3,06,14,19,28,30,,,,,,,,1.7,0.9,1.5*3B,1621578562406
$GNGSA,A,3,06,14,19,28,30,,,,,,,,1.7,0.9,1.5*25,1621578562406
$GNGSA,A,3,66,67,78,79,81,82,,,,,,,1.7,0.9,1.5*24,1621578562406
$QZGSA,A,3,01,02,,,,,,,,,,,1.7,0.9,1.5*26,1621578562406
$IMGSA,A,3,,,,,,,,,,,,,1.7,0.9,1.5*2A,1621578562406
$BDGSA,A,3,,,,,,,,,,,,,1.7,0.9,1.5*28,1621578562406
$GAGSA,A,3,,,,,,,,,,,,,1.7,0.9,1.5*28,1621578562406
$GPRMC,062916.00,A,2218.141833,N,11411.387637,E,008.8,266.2,210521,,,A*5E,1621578562406
$GPGGA,062917.00,2218.141108,N,11411.385196,E,1,13,0.2,12.4,M,-1.3,M,,*4F,1621578563407
$GPGSV,6,1,18,14,82,152,29,28,76,329,32,17,48,000,22,06,45,265,31*79,1621578563412
$GPGSV,6,2,18,19,37,327,33,03,37,057,18,30,20,200,28,02,15,249,14*77,1621578563413
$GPGSV,6,3,18,22,13,042,,01,11,043,,09,07,141,16,07,00,168,*72,1621578563414
$GPGSV,6,4,18,04,03,109,*4D,1621578563414
$GPGSV,6,5,18,06,,,38,03,,,,30,,,33,01,,,07,8*6C,1621578563414
$GPGSV,6,6,18,09,,,,8*6D,1621578563414
$GLGSV,3,1,09,79,54,290,34,78,45,197,30,81,38,346,27,66,27,115,21*6A,1621578563414
$GLGSV,3,2,09,82,22,290,27,88,17,041,10,67,09,164,26,65,15,051,*67,1621578563414
$GLGSV,3,3,09,80,08,330,*5C,1621578563414
$QZGSV,2,1,04,02,49,160,23,01,34,125,22*6B,1621578563414
$QZGSV,2,2,04,02,,,15,01,,,10,8*73,1621578563414
$GPGSA,A,3,06,14,19,28,30,,,,,,,,1.8,0.9,1.5*34,1621578563414
$GNGSA,A,3,06,14,19,28,30,,,,,,,,1.8,0.9,1.5*2A,1621578563414
$GNGSA,A,3,66,67,78,79,81,82,,,,,,,1.8,0.9,1.5*2B,1621578563414
$QZGSA,A,3,01,02,,,,,,,,,,,1.8,0.9,1.5*29,1621578563414
$IMGSA,A,3,,,,,,,,,,,,,1.8,0.9,1.5*25,1621578563414
$BDGSA,A,3,,,,,,,,,,,,,1.8,0.9,1.5*27,1621578563414
$GAGSA,A,3,,,,,,,,,,,,,1.8,0.9,1.5*27,1621578563414
$GPRMC,062917.00,A,2218.141108,N,11411.385196,E,008.7,253.8,210521,,,A*53,1621578563415
$GPGGA,062918.00,2218.139941,N,11411.382973,E,1,13,0.2,12.0,M,-1.3,M,,*4A,1621578564396
$GPGSV,6,1,18,14,82,152,29,28,76,329,32,17,48,000,21,06,45,265,30*7B,1621578564400
$GPGSV,6,2,18,19,37,327,34,03,36,057,17,30,20,200,30,02,15,249,*72,1621578564400
$GPGSV,6,3,18,22,13,042,,01,11,043,,09,07,141,20,07,00,168,*77,1621578564400
$GPGSV,6,4,18,04,03,109,*4D,1621578564400
$GPGSV,6,5,18,06,,,38,03,,,,30,,,33,01,,,,8*6B,1621578564400
$GPGSV,6,6,18,09,,,,8*6D,1621578564400
$GLGSV,3,1,09,79,54,290,34,78,45,197,32,81,38,346,29,66,27,115,21*66,1621578564400
$GLGSV,3,2,09,82,22,290,26,88,17,041,10,67,09,164,26,65,15,051,*66,1621578564400
$GLGSV,3,3,09,80,08,330,*5C,1621578564400
$QZGSV,2,1,04,02,49,160,23,01,34,125,22*6B,1621578564400
$QZGSV,2,2,04,02,,,15,01,,,13,8*70,1621578564400
$GPGSA,A,3,06,14,19,28,30,,,,,,,,1.9,1.0,1.6*3E,1621578564400
$GNGSA,A,3,06,14,19,28,30,,,,,,,,1.9,1.0,1.6*20,1621578564400
$GNGSA,A,3,66,67,78,79,81,82,,,,,,,1.9,1.0,1.6*21,1621578564400
$QZGSA,A,3,01,02,,,,,,,,,,,1.9,1.0,1.6*23,1621578564400
$IMGSA,A,3,,,,,,,,,,,,,1.9,1.0,1.6*2F,1621578564400
$BDGSA,A,3,,,,,,,,,,,,,1.9,1.0,1.6*2D,1621578564400
$GAGSA,A,3,,,,,,,,,,,,,1.9,1.0,1.6*2D,1621578564400
$GPRMC,062918.00,A,2218.139941,N,11411.382973,E,008.6,241.5,210521,,,A*5D,1621578564400
$GPGGA,062919.00,2218.138597,N,11411.380880,E,1,14,0.2,11.7,M,-1.3,M,,*41,1621578565400
$GPGSV,6,1,18,14,82,152,28,28,76,329,31,17,48,000,22,06,45,265,30*7A,1621578565402
$GPGSV,6,2,18,19,37,327,35,03,36,057,16,30,20,200,35,02,15,249,*77,1621578565402
$GPGSV,6,3,18,22,13,042,,01,11,043,,09,07,141,20,07,00,168,*77,1621578565402
$GPGSV,6,4,18,04,03,109,*4D,1621578565402
$GPGSV,6,5,18,06,,,38,03,,,14,30,,,34,01,,,,8*69,1621578565402
$GPGSV,6,6,18,09,,,,8*6D,1621578565402
$GLGSV,3,1,09,79,54,290,33,78,45,197,32,81,38,346,29,66,27,115,22*62,1621578565402
$GLGSV,3,2,09,82,22,290,24,88,17,041,,67,09,164,27,65,15,051,*64,1621578565402
$GLGSV,3,3,09,80,08,330,*5C,1621578565402
$QZGSV,2,1,04,02,49,160,23,01,34,125,22*6B,1621578565402
$QZGSV,2,2,04,02,,,15,01,,,14,8*77,1621578565402
$GPGSA,A,3,06,14,17,19,28,30,,,,,,,1.6,1.0,1.3*32,1621578565402
$GNGSA,A,3,06,14,17,19,28,30,,,,,,,1.6,1.0,1.3*2C,1621578565403
$GNGSA,A,3,66,67,78,79,81,82,,,,,,,1.6,1.0,1.3*2B,1621578565403
$QZGSA,A,3,01,02,,,,,,,,,,,1.6,1.0,1.3*29,1621578565403
$IMGSA,A,3,,,,,,,,,,,,,1.6,1.0,1.3*25,1621578565403
$BDGSA,A,3,,,,,,,,,,,,,1.6,1.0,1.3*27,1621578565403
$GAGSA,A,3,,,,,,,,,,,,,1.6,1.0,1.3*27,1621578565403
$GPRMC,062919.00,A,2218.138597,N,11411.380880,E,008.5,237.1,210521,,,A*53,1621578565403
$GPGGA,062920.00,2218.137199,N,11411.378691,E,1,13,0.2,11.8,M,-1.3,M,,*4F,1621578566404
$GPGSV,6,1,18,14,82,153,28,28,76,329,31,17,48,000,22,06,45,265,30*7B,1621578566411
$GPGSV,6,2,18,19,37,327,35,03,36,057,15,30,20,200,35,02,15,249,12*77,1621578566411
$GPGSV,6,3,18,22,13,042,,01,11,043,,09,07,141,21,07,00,168,*76,1621578566412
$GPGSV,6,4,18,04,03,109,*4D,1621578566412
$GPGSV,6,5,18,06,,,38,03,,,,30,,,34,01,,,,8*6C,1621578566412
$GPGSV,6,6,18,09,,,,8*6D,1621578566412
$GLGSV,3,1,09,79,54,289,32,78,45,197,31,81,38,346,28,66,27,115,22*69,1621578566412
$GLGSV,3,2,09,82,22,290,23,88,17,041,,67,09,164,27,65,15,051,*63,1621578566412
$GLGSV,3,3,09,80,08,330,*5C,1621578566412
$QZGSV,2,1,04,02,49,160,23,01,34,125,22*6B,1621578566412
$QZGSV,2,2,04,02,,,14,01,,,14,8*76,1621578566412
$GPGSA,A,3,06,14,17,19,28,30,,,,,,,1.6,0.9,1.3*3A,1621578566412
$GNGSA,A,3,06,14,17,19,28,30,,,,,,,1.6,0.9,1.3*24,1621578566412
$GNGSA,A,3,66,67,78,79,81,,,,,,,,1.6,0.9,1.3*29,1621578566412
$QZGSA,A,3,01,02,,,,,,,,,,,1.6,0.9,1.3*21,1621578566412
$IMGSA,A,3,,,,,,,,,,,,,1.6,0.9,1.3*2D,1621578566412
$BDGSA,A,3,,,,,,,,,,,,,1.6,0.9,1.3*2F,1621578566412
$GAGSA,A,3,,,,,,,,,,,,,1.6,0.9,1.3*2F,1621578566412
$GPRMC,062920.00,A,2218.137199,N,11411.378691,E,008.8,236.1,210521,,,A*59,1621578566413
$GPGGA,062921.00,2218.135827,N,11411.376591,E,1,13,0.2,11.7,M,-1.3,M,,*42,1621578567406
$GPGSV,6,1,18,14,82,153,27,28,76,329,30,17,48,000,23,06,45,266,30*77,1621578567411
$GPGSV,6,2,18,19,37,327,35,03,36,057,15,30,20,200,35,02,15,249,*74,1621578567414
$GPGSV,6,3,18,22,13,042,,01,11,043,,09,07,141,23,07,00,168,*74,1621578567414
$GPGSV,6,4,18,04,03,109,*4D,1621578567414
$GPGSV,6,5,18,06,,,38,03,,,,30,,,34,01,,,,8*6C,1621578567414
$GPGSV,6,6,18,09,,,09,8*64,1621578567414
$GLGSV,3,1,09,79,54,289,31,78,45,197,31,81,37,346,27,66,27,115,22*6A,1621578567414
$GLGSV,3,2,09,82,22,290,22,88,17,041,09,67,09,164,27,65,15,051,*6B,1621578567414
$GLGSV,3,3,09,80,08,330,*5C,1621578567414
$QZGSV,2,1,04,02,49,160,25,01,34,125,21*6E,1621578567414
$QZGSV,2,2,04,02,,,14,01,,,14,8*76,1621578567414
$GPGSA,A,3,06,14,17,19,28,30,,,,,,,1.8,0.9,1.5*32,1621578567414
$GNGSA,A,3,06,14,17,19,28,30,,,,,,,1.8,0.9,1.5*2C,1621578567414
$GNGSA,A,3,66,67,78,79,81,,,,,,,,1.8,0.9,1.5*21,1621578567414
$QZGSA,A,3,01,02,,,,,,,,,,,1.8,0.9,1.5*29,1621578567414
$IMGSA,A,3,,,,,,,,,,,,,1.8,0.9,1.5*25,1621578567414
$BDGSA,A,3,,,,,,,,,,,,,1.8,0.9,1.5*27,1621578567414
$GAGSA,A,3,,,,,,,,,,,,,1.8,0.9,1.5*27,1621578567414
$GPRMC,062921.00,A,2218.135827,N,11411.376591,E,008.6,236.0,210521,,,A*54,1621578567414
$GPGGA,062922.00,2218.134536,N,11411.374661,E,1,13,0.6,11.9,M,-1.3,M,,*49,1621578568395
$GPGSV,6,1,18,14,82,153,27,28,76,329,30,17,48,000,24,06,45,266,30*70,1621578568398
$GPGSV,6,2,18,19,37,327,35,03,36,057,14,30,20,200,34,02,15,249,*74,1621578568398
$GPGSV,6,3,18,22,13,042,,01,11,043,,09,07,141,23,07,00,168,*74,1621578568398
$GPGSV,6,4,18,04,03,109,*4D,1621578568398
$GPGSV,6,5,18,06,,,38,03,,,,30,,,34,01,,,,8*6C,1621578568398
$GPGSV,6,6,18,09,,,14,8*68,1621578568398
$GLGSV,3,1,09,79,54,289,30,78,45,197,30,81,37,346,27,66,27,115,23*6B,1621578568398
$GLGSV,3,2,09,82,22,290,20,88,17,041,,67,09,164,27,65,15,051,*60,1621578568398
$GLGSV,3,3,09,80,08,330,*5C,1621578568398
$QZGSV,2,1,04,02,49,160,25,01,34,125,21*6E,1621578568398
$QZGSV,2,2,04,02,,,14,01,,,13,8*71,1621578568398
$GPGSA,A,3,06,14,17,19,28,30,,,,,,,1.8,1.0,1.4*3B,1621578568398
$GNGSA,A,3,06,14,17,19,28,30,,,,,,,1.8,1.0,1.4*25,1621578568398
$GNGSA,A,3,66,67,78,79,81,,,,,,,,1.8,1.0,1.4*28,1621578568398
$QZGSA,A,3,01,02,,,,,,,,,,,1.8,1.0,1.4*20,1621578568398
$IMGSA,A,3,,,,,,,,,,,,,1.8,1.0,1.4*2C,1621578568398
$BDGSA,A,3,,,,,,,,,,,,,1.8,1.0,1.4*2E,1621578568398
$GAGSA,A,3,,,,,,,,,,,,,1.8,1.0,1.4*2E,1621578568398
$GPRMC,062922.00,A,2218.134536,N,11411.374661,E,007.9,235.3,210521,,,A*55,1621578568398
$GPGGA,062923.00,2218.133305,N,11411.372843,E,1,14,0.2,11.9,M,-1.3,M,,*42,1621578569397
$GPGSV,6,1,18,14,82,153,26,28,76,329,30,17,48,000,24,06,45,266,30*71,1621578569398
$GPGSV,6,2,18,19,37,327,35,03,36,057,14,30,20,200,34,02,15,249,*74,1621578569398
$GPGSV,6,3,18,22,13,042,,01,11,043,,09,07,141,23,07,00,168,*74,1621578569398
$GPGSV,6,4,18,04,03,109,*4D,1621578569398
$GPGSV,6,5,18,06,,,38,03,,,,30,,,34,01,,,08,8*64,1621578569398
$GPGSV,6,6,18,09,,,16,8*6A,1621578569398
$GLGSV,3,1,09,79,54,289,29,78,45,197,30,81,37,346,26,66,27,115,23*62,1621578569399
$GLGSV,3,2,09,82,22,290,19,88,17,041,,67,09,164,26,65,15,051,*6B,1621578569399
$GLGSV,3,3,09,80,08,330,*5C,1621578569399
$QZGSV,2,1,04,02,49,160,27,01,34,125,22*6F,1621578569399
$QZGSV,2,2,04,02,,,15,01,,,,8*72,1621578569400
$GPGSA,A,3,03,06,14,17,19,28,30,,,,,,1.9,1.1,1.5*39,1621578569400
$GNGSA,A,3,03,06,14,17,19,28,30,,,,,,1.9,1.1,1.5*27,1621578569400
$GNGSA,A,3,66,67,78,79,81,,,,,,,,1.9,1.1,1.5*29,1621578569400
$QZGSA,A,3,01,02,,,,,,,,,,,1.9,1.1,1.5*21,1621578569400
$IMGSA,A,3,,,,,,,,,,,,,1.9,1.1,1.5*2D,1621578569400
$BDGSA,A,3,,,,,,,,,,,,,1.9,1.1,1.5*2F,1621578569400
$GAGSA,A,3,,,,,,,,,,,,,1.9,1.1,1.5*2F,1621578569400
$GPRMC,062923.00,A,2218.133305,N,11411.372843,E,007.5,234.9,210521,,,A*5A,1621578569400
$GPGGA,062924.00,2218.132180,N,11411.371161,E,1,14,0.2,12.0,M,-1.3,M,,*4B,1621578570394
$GPGSV,6,1,18,14,82,153,26,28,76,329,30,17,48,000,23,06,45,266,31*77,1621578570400
$GPGSV,6,2,18,19,37,327,35,03,36,057,18,30,20,200,34,02,15,249,*78,1621578570400
$GPGSV,6,3,18,22,13,042,,01,11,043,,09,07,141,23,07,00,168,*74,1621578570400
$GPGSV,6,4,18,04,03,109,*4D,1621578570400
$GPGSV,6,5,18,06,,,38,03,,,11,30,,,33,01,,,,8*6B,1621578570400
$GPGSV,6,6,18,09,,,16,8*6A,1621578570400
$GLGSV,3,1,09,79,54,289,28,78,45,197,30,81,37,346,26,66,27,115,23*63,1621578570401
$GLGSV,3,2,09,82,22,290,18,88,17,041,09,67,09,164,26,65,15,051,*63,1621578570401
$GLGSV,3,3,09,80,08,330,*5C,1621578570401
$QZGSV,2,1,04,02,49,160,28,01,34,125,22*60,1621578570401
$QZGSV,2,2,04,02,,,17,01,,,12,8*73,1621578570401
$GPGSA,A,3,03,06,14,17,19,28,30,,,,,,1.8,0.9,1.5*31,1621578570401
$GNGSA,A,3,03,06,14,17,19,28,30,,,,,,1.8,0.9,1.5*2F,1621578570401
$GNGSA,A,3,66,67,78,79,81,,,,,,,,1.8,0.9,1.5*21,1621578570401
$QZGSA,A,3,01,02,,,,,,,,,,,1.8,0.9,1.5*29,1621578570401
$IMGSA,A,3,,,,,,,,,,,,,1.8,0.9,1.5*25,1621578570401
$BDGSA,A,3,,,,,,,,,,,,,1.8,0.9,1.5*27,1621578570401
$GAGSA,A,3,,,,,,,,,,,,,1.8,0.9,1.5*27,1621578570401
$GPRMC,062924.00,A,2218.132180,N,11411.371161,E,006.9,234.0,210521,,,A*5D,1621578570401
$GPGGA,062925.00,2218.131083,N,11411.369571,E,1,14,0.2,12.0,M,-1.3,M,,*47,1621578571402
$GPGSV,6,1,18,14,82,153,25,28,76,329,29,17,48,000,23,06,45,266,32*7F,1621578571406
$GPGSV,6,2,18,19,37,327,35,03,36,057,22,30,20,200,33,02,15,249,*76,1621578571406
$GPGSV,6,3,18,22,13,042,,01,11,043,,09,07,141,23,07,00,168,*74,1621578571407
$GPGSV,6,4,18,04,03,109,*4D,1621578571407
$GPGSV,6,5,18,06,,,38,03,,,,30,,,33,01,,,,8*6B,1621578571407
$GPGSV,6,6,18,09,,,16,8*6A,1621578571407
$GLGSV,3,1,09,79,54,289,27,78,45,197,30,81,37,346,25,66,27,115,23*6F,1621578571407
$GLGSV,3,2,09,82,22,290,18,88,17,041,09,67,09,164,26,65,15,051,*63,1621578571407
$GLGSV,3,3,09,80,08,330,*5C,1621578571407
$QZGSV,2,1,04,02,49,160,29,01,34,125,22*61,1621578571407
$QZGSV,2,2,04,02,,,20,01,,,,8*74,1621578571407
$GPGSA,A,3,03,06,14,17,19,28,30,,,,,,1.7,0.9,1.5*3E,1621578571407
$GNGSA,A,3,03,06,14,17,19,28,30,,,,,,1.7,0.9,1.5*20,1621578571407
$GNGSA,A,3,66,67,78,79,81,,,,,,,,1.7,0.9,1.5*2E,1621578571407
$QZGSA,A,3,01,02,,,,,,,,,,,1.7,0.9,1.5*26,1621578571407
$IMGSA,A,3,,,,,,,,,,,,,1.7,0.9,1.5*2A,1621578571407
$BDGSA,A,3,,,,,,,,,,,,,1.7,0.9,1.5*28,1621578571407
$GAGSA,A,3,,,,,,,,,,,,,1.7,0.9,1.5*28,1621578571407
$GPRMC,062925.00,A,2218.131083,N,11411.369571,E,006.7,232.8,210521,,,A*51,1621578571407
$GPGGA,062926.00,2218.129873,N,11411.367891,E,1,15,0.2,12.1,M,-1.3,M,,*47,1621578572400
$GPGSV,6,1,18,14,82,153,25,28,76,329,29,17,48,000,23,06,45,266,33*7E,1621578572402
$GPGSV,6,2,18,19,37,327,35,03,36,057,24,30,20,200,32,02,15,249,10*70,1621578572402
$GPGSV,6,3,18,22,13,042,,01,11,043,,09,07,141,23,07,00,168,*74,1621578572402
$GPGSV,6,4,18,04,03,109,*4D,1621578572402
$GPGSV,6,5,18,06,,,38,03,,,,30,,,32,01,,,,8*6A,1621578572402
$GPGSV,6,6,18,09,,,15,8*69,1621578572403
$GLGSV,3,1,09,79,54,289,25,78,45,197,29,81,37,346,25,66,27,115,24*62,1621578572403
$GLGSV,3,2,09,82,22,290,17,88,17,041,10,67,09,164,26,65,15,051,*64,1621578572404
$GLGSV,3,3,09,80,08,330,*5C,1621578572404
$QZGSV,2,1,04,02,49,160,30,01,34,125,22*69,1621578572404
$QZGSV,2,2,04,02,,,24,01,,,,8*70,1621578572404
$GPGSA,A,3,03,06,14,17,19,28,30,,,,,,1.7,0.8,1.5*3F,1621578572404
$GNGSA,A,3,03,06,14,17,19,28,30,,,,,,1.7,0.8,1.5*21,1621578572404
$GNGSA,A,3,66,67,78,79,81,82,,,,,,,1.7,0.8,1.5*25,1621578572404
$QZGSA,A,3,01,02,,,,,,,,,,,1.7,0.8,1.5*27,1621578572404
$IMGSA,A,3,,,,,,,,,,,,,1.7,0.8,1.5*2B,1621578572404
$BDGSA,A,3,,,,,,,,,,,,,1.7,0.8,1.5*29,1621578572404
$GAGSA,A,3,,,,,,,,,,,,,1.7,0.8,1.5*29,1621578572404
$GPRMC,062926.00,A,2218.129873,N,11411.367891,E,007.0,232.3,210521,,,A*5C,1621578572404
$GPGGA,062927.00,2218.128586,N,11411.366026,E,1,15,0.2,12.2,M,-1.3,M,,*46,1621578573403
$GPGSV,6,1,18,14,82,153,25,28,76,329,29,17,48,000,24,06,45,266,33*79,1621578573405
$GPGSV,6,2,18,19,37,327,35,03,36,057,26,30,20,200,32,02,15,249,*73,1621578573405
$GPGSV,6,3,18,22,13,042,,01,11,043,,09,07,141,27,07,00,168,*70,1621578573405
$GPGSV,6,4,18,04,03,109,*4D,1621578573405
$GPGSV,6,5,18,06,,,38,03,,,15,30,,,32,01,,,08,8*66,1621578573405
$GPGSV,6,6,18,09,,,18,8*64,1621578573405
$GLGSV,3,1,09,79,54,289,24,78,45,197,29,81,37,346,25,66,27,115,23*64,1621578573405
$GLGSV,3,2,09,82,22,290,17,88,17,041,11,67,09,164,26,65,14,051,*64,1621578573405
$GLGSV,3,3,09,80,08,330,*5C,1621578573405
$QZGSV,2,1,04,02,49,160,30,01,34,125,22*69,1621578573405
$QZGSV,2,2,04,02,,,28,01,,,,8*7C,1621578573405
$GPGSA,A,3,03,06,14,17,19,28,30,,,,,,1.6,0.9,1.3*39,1621578573405
$GNGSA,A,3,03,06,14,17,19,28,30,,,,,,1.6,0.9,1.3*27,1621578573405
$GNGSA,A,3,66,67,78,79,81,82,,,,,,,1.6,0.9,1.3*23,1621578573405
$QZGSA,A,3,01,02,,,,,,,,,,,1.6,0.9,1.3*21,1621578573405
$IMGSA,A,3,,,,,,,,,,,,,1.6,0.9,1.3*2D,1621578573405
$BDGSA,A,3,,,,,,,,,,,,,1.6,0.9,1.3*2F,1621578573405
$GAGSA,A,3,,,,,,,,,,,,,1.6,0.9,1.3*2F,1621578573405
$GPRMC,062927.00,A,2218.128586,N,11411.366026,E,007.7,234.1,210521,,,A*5D,1621578573406
$GPGGA,062928.00,2218.127333,N,11411.363865,E,1,16,0.2,12.2,M,-1.3,M,,*47,1621578574395
$GPGSV,6,1,18,14,82,153,25,28,76,329,29,17,48,000,25,06,45,266,32*79,1621578574401
$GPGSV,6,2,18,19,37,327,36,03,36,057,26,30,20,200,32,02,15,249,09*79,1621578574401
$GPGSV,6,3,18,22,13,042,,01,11,043,,09,07,141,26,07,00,168,*71,1621578574401
$GPGSV,6,4,18,04,03,109,*4D,1621578574401
$GPGSV,6,5,18,06,,,38,03,,,15,30,,,32,01,,,09,8*67,1621578574401
$GPGSV,6,6,18,09,,,18,8*64,1621578574401
$GLGSV,3,1,09,79,54,289,24,78,45,197,29,81,37,346,25,66,27,115,23*64,1621578574401
$GLGSV,3,2,09,82,22,290,22,88,17,041,13,67,09,164,25,65,14,051,*63,1621578574401
$GLGSV,3,3,09,80,08,330,*5C,1621578574401
$QZGSV,2,1,04,02,49,160,30,01,34,125,22*69,1621578574401
$QZGSV,2,2,04,02,,,30,01,,,10,8*74,1621578574401
$GPGSA,A,3,03,06,14,17,19,28,30,,,,,,2.0,0.9,1.7*38,1621578574401
$GNGSA,A,3,03,06,14,17,19,28,30,,,,,,2.0,0.9,1.7*26,1621578574401
$GNGSA,A,3,66,67,78,79,81,82,88,,,,,,2.0,0.9,1.7*22,1621578574402
$QZGSA,A,3,01,02,,,,,,,,,,,2.0,0.9,1.7*20,1621578574402
$IMGSA,A,3,,,,,,,,,,,,,2.0,0.9,1.7*2C,1621578574402
$BDGSA,A,3,,,,,,,,,,,,,2.0,0.9,1.7*2E,1621578574402
$GAGSA,A,3,,,,,,,,,,,,,2.0,0.9,1.7*2E,1621578574402
$GPRMC,062928.00,A,2218.127333,N,11411.363865,E,008.5,237.7,210521,,,A*57,1621578574402
$GPGGA,062929.00,2218.126174,N,11411.361306,E,1,16,0.2,12.1,M,-1.3,M,,*49,1621578575410
$GPGSV,6,1,18,14,82,153,25,28,76,329,29,17,48,000,26,06,45,266,31*79,1621578575417
$GPGSV,6,2,18,19,37,327,36,03,36,057,26,30,20,200,32,02,15,249,09*79,1621578575417
$GPGSV,6,3,18,22,13,042,,01,11,043,,09,07,141,26,07,00,168,*71,1621578575417
$GPGSV,6,4,18,04,03,109,*4D,1621578575417
$GPGSV,6,5,18,06,,,37,03,,,15,30,,,31,01,,,10,8*63,1621578575417
$GPGSV,6,6,18,09,,,18,8*64,1621578575417
$GLGSV,3,1,09,79,54,289,24,78,45,197,29,81,37,346,28,66,27,115,23*69,1621578575417
$GLGSV,3,2,09,82,22,290,24,88,17,041,13,67,09,164,24,65,14,051,*64,1621578575417
$GLGSV,3,3,09,80,08,330,*5C,1621578575418
$QZGSV,2,1,04,02,49,160,30,01,34,125,24*6F,1621578575418
$QZGSV,2,2,04,02,,,31,01,,,12,8*77,1621578575418
$GPGSA,A,3,03,06,14,17,19,28,30,,,,,,1.7,0.9,1.5*3E,1621578575418
$GNGSA,A,3,03,06,14,17,19,28,30,,,,,,1.7,0.9,1.5*20,1621578575418
$GNGSA,A,3,66,67,78,79,81,82,88,,,,,,1.7,0.9,1.5*24,1621578575418
$QZGSA,A,3,01,02,,,,,,,,,,,1.7,0.9,1.5*26,1621578575418
$IMGSA,A,3,,,,,,,,,,,,,1.7,0.9,1.5*2A,1621578575418
$BDGSA,A,3,,,,,,,,,,,,,1.7,0.9,1.5*28,1621578575418
$GAGSA,A,3,,,,,,,,,,,,,1.7,0.9,1.5*28,1621578575418
$GPRMC,062929.00,A,2218.126174,N,11411.361306,E,009.5,244.3,210521,,,A*5B,1621578575418
$GPGGA,062930.00,2218.125055,N,11411.358667,E,1,16,0.6,12.1,M,-1.3,M,,*4C,1621578576408
$GPGSV,6,1,18,14,82,153,25,28,76,329,31,17,48,000,26,06,45,266,30*71,1621578576415
$GPGSV,6,2,18,19,37,327,36,03,36,056,25,30,20,200,31,02,15,249,09*78,1621578576415
$GPGSV,6,3,18,22,13,042,,01,11,043,,09,07,141,26,07,00,168,*71,1621578576415
$GPGSV,6,4,18,04,03,109,*4D,1621578576416
$GPGSV,6,5,18,06,,,36,03,,,14,30,,,30,01,,,,8*63,1621578576416
$GPGSV,6,6,18,09,,,18,8*64,1621578576416
$GLGSV,3,1,09,79,54,289,29,78,45,197,32,81,37,346,30,66,27,115,22*66,1621578576417
$GLGSV,3,2,09,82,22,290,24,88,17,041,13,67,09,164,24,65,14,051,*64,1621578576417
$GLGSV,3,3,09,80,08,330,*5C,1621578576417
$QZGSV,2,1,04,02,49,160,30,01,34,125,24*6F,1621578576417
$QZGSV,2,2,04,02,,,31,01,,,12,8*77,1621578576417
$GPGSA,A,3,03,06,14,17,19,28,30,,,,,,1.7,0.8,1.5*3F,1621578576418
$GNGSA,A,3,03,06,14,17,19,28,30,,,,,,1.7,0.8,1.5*21,1621578576418
$GNGSA,A,3,66,67,78,79,81,82,88,,,,,,1.7,0.8,1.5*25,1621578576418
$QZGSA,A,3,01,02,,,,,,,,,,,1.7,0.8,1.5*27,1621578576418
