$GNDTM,W84,,0.0,N,0.0,E,0.0,W84*71
$GNRMC,062844.00,A,2218.05405,N,11411.58007,E,5.157,112.62,210521,,,A*7A
$GNVTG,112.62,T,,M,5.157,N,9.550,K,A*2A
$GNGNS,062844.00,2218.05405,N,11411.58007,E,AN,07,3.80,-200.0,-1.6,,*51
$GNGGA,062844.00,2218.05405,N,11411.58007,E,1,07,3.80,-200.0,M,-1.6,M,,*74
$GNGSA,A,3,14,28,17,19,22,06,02,,,,,,5.15,3.80,3.48*1C
$GPGSV,4,1,14,01,11,042,,02,15,249,25,03,37,057,19,04,02,110,*7B
$GPGSV,4,2,14,06,45,265,28,07,00,169,10,09,06,142,,14,83,151,24*7B
$GPGSV,4,3,14,17,47,359,26,19,36,326,27,22,13,042,09,24,00,309,*7B
$GNRMC,062845.00,A,2218.05351,N,11411.58086,E,5.142,112.68,210521,,,A*7A
$GNVTG,112.68,T,,M,5.142,N,9.523,K,A*20
$GNGNS,062845.00,2218.05351,N,11411.58086,E,AN,07,3.80,-201.5,-1.6,,*5B
$GNGGA,062845.00,2218.05351,N,11411.58086,E,1,07,3.80,-201.5,M,-1.6,M,,*7E
$GNGSA,A,3,14,28,17,19,22,06,02,,,,,,5.15,3.80,3.48*1C
$GPGSV,4,1,14,01,11,042,,02,15,249,25,03,37,057,22,04,02,110,*73
$GPGSV,4,2,14,06,45,265,28,07,00,169,06,09,06,142,,14,83,151,25*7D
$GPGSV,4,3,14,17,47,359,27,19,36,326,27,22,13,042,09,24,00,309,*7A
$GPGSV,4,4,14,28,75,330,25,30,21,200,23*70
$GNGLL,2218.05351,N,11411.58086,E,062845.00,A,A*76
$GNGRS,062845.00,1,-121,-41.1,-96.6,2.5,23.3,44.7,-25.9,,,,,*5E
$GNRMC,062846.00,A,2218.05298,N,11411.58166,E,5.128,112.74,210521,,,A*73
$GNVTG,112.74,T,,M,5.128,N,9.497,K,A*2F
$GNGNS,062846.00,2218.05298,N,11411.58166,E,AN,09,3.80,-202.9,-1.6,,*52
$GNGGA,062846.00,2218.05298,N,11411.58166,E,1,09,3.80,-202.9,M,-1.6,M,,*77
$GNGSA,A,3,14,28,17,19,03,22,06,02,30,,,,5.16,3.80,3.48*1F
$GPGSV,4,1,14,01,11,042,,02,15,249,25,03,37,057,24,04,02,110,*75
$GPGSV,4,2,14,06,45,265,27,07,00,169,09,09,06,142,,14,83,151,25*7D
$GPGSV,4,3,14,17,47,359,26,19,36,326,27,22,13,042,09,24,00,309,*7B
$GPGSV,4,4,14,28,75,330,25,30,21,200,22*71
$GNGLL,2218.05298,N,11411.58166,E,062846.00,A,A*7E
$GNGRS,062846.00,1,-121,-43.3,-99.3,-0.6,-318,107,45.8,-27.4,-225,,,*5F
$GNTXT,01,01,00,txbuf
$GNRMC,062847.00,A,2218.05244,N,11411.58242,E,5.113,112.80,210521,,,A*75
$GNVTG,112.80,T,,M,5.113,N,9.469,K,A*2D
$GNGNS,062847.00,2218.05244,N,11411.58242,E,AN,08,3.80,-204.3,-1.6,,*5A
$GNGGA,062847.00,2218.05244,N,11411.58242,E,1,08,3.80,-204.3,M,-1.6,M,,*7F
$GNGSA,A,3,14,28,17,19,22,06,02,30,,,,,5.16,3.80,3.48*1C
$GPGSV,4,1,14,01,11,042,,02,15,249,25,03,37,057,,04,02,110,*73
$GPGSV,4,2,14,06,45,265,28,07,00,169,10,09,06,142,,14,83,151,25*7A
$GPGSV,4,3,14,17,47,359,26,19,36,326,28,22,13,042,09,24,00,309,*74
$GPGSV,4,4,14,28,75,330,25,30,21,200,23*70
$GNGLL,2218.05244,N,11411.58242,E,062847.00,A,A*7B
$GNGRS,062847.00,1,-121,-45.2,-98.4,-1.1,22.4,43.5,-27.8,-220,,,,*60
$zDç◊J
$GNRMC,062848.00,A,2218.05192,N,11411.58319,E,5.098,112.86,210521,,,A*79
$GNVTG,112.86,T,,M,5.098,N,9.442,K,A*20
$GNGNS,062848.00,2218.05192,N,11411.58319,E,AN,07,3.80,-205.7,-1.6,,*58
$GNGGA,062848.00,2218.05192,N,11411.58319,E,1,07,3.80,-205.7,M,-1.6,M,,*7D
$GNGSA,A,3,14,28,17,19,06,02,30,,,,,,5.16,3.80,3.48*1C
$GPGSV,4,1,14,01,11,042,,02,15,249,25,03,37,057,16,04,02,110,*74
$GPGSV,4,2,14,06,45,265,27,07,00,169,11,09,06,142,,14,83,151,24*75
$GPGSV,4,3,14,17,47,359,26,19,36,326,27,22,13,042,08,24,00,309,*7A
$GPGSV,4,4,14,28,75,330,25,30,21,200,22*71
$GNGLL,2218.05192,N,11411.58319,E,062848.00,A,A*73
$GNGRS,062848.00,1,-120,-44.9,-97.7,-2.7,41.8,-29.0,-222,,,,,*7C
$GNGST,062848.00,40,,,,5.0,8.2,11*6C
$GNZDA,062848.00,21,05,2021,00,00*7F
$GNRMC,062849.00,A,2218.05140,N,11411.58395,E,5.083,112.91,210521,,,A*7F
$GNVTG,112.91,T,,M,5.083,N,9.415,K,A*2E
$GNGNS,062849.00,2218.05140,N,11411.58395,E,AN,08,3.80,-207.1,-1.6,,*59
$GNGGA,062849.00,2218.05140,N,11411.58395,E,1,08,3.80,-207.1,M,-1.6,M,,*7C
$GNGSA,A,3,14,28,17,19,22,06,02,30,,,,,5.16,3.80,3.49*1D
$GPGSV,4,1,14,01,11,042,,02,15,249,25,03,37,057,18,04,02,110,*7A
$GPGSV,4,2,14,06,45,265,27,07,00,169,08,09,06,142,,14,83,151,23*7A
$GPGSV,4,3,14,17,47,359,26,19,36,326,27,22,13,042,09,24,00,309,*7B
$GPGSV,4,4,14,28,75,330,25,30,21,200,21*72
$GNGLL,2218.05140,N,11411.58395,E,062849.00,A,A*79
$GNGRS,062849.00,1,-121,-46.2,-95.1,-1.8,-55.3,41.9,-30.7,-222,,,,*43
$GNGST,062849.00,40,,,,5.0,8.3,11*6C
$GNZDA,062849.00,21,05,2021,00,00*7E
$GNGBS,062849.00,5.0,8.3,10.8,30,,222.2,90.1*52
$GNRMC,062850.00,A,2218.05085,N,11411.58472,E,5.069,112.97,210521,,,A*73
$GNVTG,112.97,T,,M,5.069,N,9.388,K,A*2F
$GNGNS,062850.00,2218.05085,N,11411.58472,E,AN,08,3.80,-208.6,-1.6,,*5F
$GNGGA,062850.00,2218.05085,N,11411.58472,E,1,08,3.80,-208.6,M,-1.6,M,,*7A
$GNGSA,A,3,14,28,17,19,22,06,02,30,,,,,5.16,3.80,3.49*1D
$GPGSV,4,1,14,01,11,042,,02,15,249,24,03,37,057,22,04,02,110,*72
$GPGSV,4,2,14,06,45,265,27,07,00,169,06,09,06,142,,14,83,151,24*73
$GPGSV,4,3,14,17,47,359,27,19,36,326,27,22,13,042,09,24,00,309,*7A
$GNRMC,062851.00,A,2218.05026,N,11411.58546,E,5.055,113.05,210521,,,A*78
$GNVTG,113.05,T,,M,5.055,N,9.363,K,A*2F
$GNGNS,062851.00,2218.05026,N,11411.58546,E,AN,08,3.91,-209.8,-1.6,,*5E
$GNGGA,062851.00,2218.05026,N,11411.58546,E,1,08,3.91,-209.8,M,-1.6,M,,*7B
$GNGSA,A,3,14,28,17,19,03,22,06,02,,,,,5.25,3.91,3.51*14
$GPGSV,4,1,14,01,11,042,,02,15,249,23,03,37,057,23,04,02,110,*74
$GPGSV,4,2,14,06,45,265,27,07,00,169,09,09,06,142,,14,83,151,24*7C
$GPGSV,4,3,14,17,47,359,27,19,36,326,26,22,13,042,09,24,00,309,*7B
$GPGSV,4,4,14,28,75,330,24,30,21,200,*70
$GNGLL,2218.05026,N,11411.58546,E,062851.00,A,A*79
$GNGRS,062851.00,1,-123,-47.6,-92.6,-4.5,-327,23.6,41.6,-31.0,,,,*61
$GNGST,062851.00,40,,,,5.0,8.3,11*65
$GNZDA,062851.00,21,05,2021,00,00*77
$GNGBS,062851.00,5.0,8.3,10.8,03,,328.1,43.6*5A
$GNRMC,062852.00,A,2218.04969,N,11411.58631,E,5.044,113.11,210521,,,A*7E
$GNVTG,113.11,T,,M,5.044,N,9.341,K,A*2A
$GNGNS,062852.00,2218.04969,N,11411.58631,E,AN,07,3.80,-211.3,-1.6,,*50
$GNGGA,062852.00,2218.04969,N,11411.58631,E,1,07,3.80,-211.3,M,-1.6,M,,*75
$GNGSA,A,3,14,28,17,19,22,06,02,,,,,,5.16,3.80,3.49*1E
$GPGSV,4,1,14,01,11,042,,02,15,249,22,03,37,057,,04,02,110,*74
$GPGSV,4,2,14,06,45,265,26,07,00,169,09,09,06,142,,14,83,151,23*7A
$GPGSV,4,3,14,17,47,359,26,19,36,326,25,22,13,042,09,24,00,309,*79
$GPGSV,4,4,14,28,75,330,23,30,21,200,18*7E
$GNGLL,2218.04969,N,11411.58631,E,062852.00,A,A*7A
$GNGRS,062852.00,1,-123,-48.7,-92.6,-4.4,-122,42.9,-30.8,,,,,*76
$GNGST,062852.00,44,,,,5.0,8.4,11*65
$GNGBS,062852.00,5.0,8.4,10.9,14,,123.7,66.4*53
$GNVLW,,N,,N,0.000,N,0.000,N*44
$PUBX,04,062852.00,210521,455331.99,2158,18,463835,488.145,21*1D
$GNRMC,062853.00,A,2218.04913,N,11411.58715,E,5.032,113.17,210521,,,A*72
$GNVTG,113.17,T,,M,5.032,N,9.319,K,A*20
$GNGNS,062853.00,2218.04913,N,11411.58715,E,AN,07,3.91,-212.6,-1.6,,*5D
$GNGGA,062853.00,2218.04913,N,11411.58715,E,1,07,3.91,-212.6,M,-1.6,M,,*78
$GNGSA,A,3,14,28,17,19,22,06,02,,,,,,5.25,3.91,3.51*17
$GPGSV,4,1,14,01,11,042,,02,15,249,23,03,37,057,,04,02,110,*75
$GPGSV,4,2,14,06,45,265,26,07,00,169,09,09,06,142,,14,83,151,24*7D
$GPGSV,4,3,14,17,47,359,26,19,36,326,26,22,13,042,10,24,00,309,*72
$GPGSV,4,4,14,28,75,330,23,30,21,200,20*75
$GNGLL,2218.04913,N,11411.58715,E,062853.00,A,A*71
$GNGRS,062853.00,1,-125,-48.9,-93.1,-3.2,22.4,41.9,-31.7,,,,,*73
$GNGST,062853.00,42,,,,5.0,8.4,11*62
$GNZDA,062853.00,21,05,2021,00,00*75
$GNRMC,062854.00,A,2218.04855,N,11411.58792,E,5.019,113.24,210521,,,A*70
$GNVTG,113.24,T,,M,5.019,N,9.296,K,A*2F
$GNGNS,062854.00,2218.04855,N,11411.58792,E,AN,07,4.21,-213.6,-1.6,,*5B
$GNGGA,062854.00,2218.04855,N,11411.58792,E,1,07,4.21,-213.6,M,-1.6,M,,*7E
$GNGSA,A,3,14,28,17,19,06,02,30,,,,,,5.52,4.21,3.57*1E
$GPGSV,4,1,14,01,11,042,,02,15,249,24,03,37,057,,04,03,109,*7B
$GPGSV,4,2,14,06,45,265,28,07,00,169,09,09,06,142,,14,83,151,25*72
$GPGSV,4,3,14,17,47,359,31,19,36,326,28,22,13,042,07,24,00,309,*7C
$GPGSV,4,4,14,28,75,330,25,30,21,200,22*71
$GNGLL,2218.04855,N,11411.58792,E,062854.00,A,A*7A
$GNGRS,062854.00,1,-125,-50.7,-98.6,-2.9,40.4,-31.2,-211,,,,,*79
$GNTXT,01,01,00,txbuf
$GNRMC,062855.00,A,2218.04820,N,11411.58853,E,5.001,113.27,210521,,,A*7B
$GNVTG,113.27,T,,M,5.001,N,9.261,K,A*2D
$GNGNS,062855.00,2218.04820,N,11411.58853,E,AN,08,3.91,-215.1,-1.6,,*58
$GNGGA,062855.00,2218.04820,N,11411.58853,E,1,08,3.91,-215.1,M,-1.6,M,,*7D
$GNGSA,A,3,14,28,17,19,22,06,02,30,,,,,5.25,3.91,3.51*14
$GPGSV,4,1,14,01,11,042,,02,15,249,26,03,37,057,,04,03,109,*79
$GPGSV,4,2,14,06,45,265,29,07,00,169,09,09,06,142,,14,83,151,26*70
$GPGSV,4,3,14,17,47,359,30,19,36,326,28,22,13,042,09,24,00,309,*73
$GPGSV,4,4,14,28,75,330,26,30,21,200,22*72
$GNGLL,2218.04820,N,11411.58853,E,062855.00,A,A*7B
$GNGRS,062855.00,1,-126,-52.7,-101,0.4,96.6,40.8,-31.9,-221,,,,*61
$GNRMC,062856.00,A,2218.04791,N,11411.58885,E,4.975,113.29,210521,,,A*73
$GNVTG,113.29,T,,M,4.975,N,9.215,K,A*2B
$GNGNS,062856.00,2218.04791,N,11411.58885,E,AN,08,4.41,-215.8,-1.6,,*56
$GNGGA,062856.00,2218.04791,N,11411.58885,E,1,08,4.41,-215.8,M,-1.6,M,,*73
$GNGSA,A,3,14,28,17,19,22,06,02,30,,,,,5.68,4.41,3.58*1E
$GPGSV,4,1,14,01,11,042,,02,15,249,26,03,37,057,,04,03,109,*79
$GPGSV,4,2,14,06,45,265,32,07,00,169,11,09,06,142,,14,83,151,28*7D
$GPGSV,4,3,14,17,47,359,34,19,36,326,31,22,13,042,11,24,00,309,*76
$GPGSV,4,4,14,28,75,330,29,30,21,200,26*79
$GNGLL,2218.04791,N,11411.58885,E,062856.00,A,A*76
$GNGRS,062856.00,1,-128,-50.1,-94.4,0.2,23.0,40.2,-33.5,-229,,,,*4D
$GNGST,062856.00,26,,,,5.0,8.5,11*64
$GNZDA,062856.00,21,05,2021,00,00*70
$GNGBS,062856.00,5.0,8.5,10.9,30,,229.8,60.8*5C
$GNVLW,,N,,N,0.000,N,0.000,N*44
$GNRMC,062857.00,A,2218.04772,N,11411.58925,E,4.951,113.27,210521,,,A*7C
$GNVTG,113.27,T,,M,4.951,N,9.170,K,A*23
$GNGNS,062857.00,2218.04772,N,11411.58925,E,AN,06,4.21,-216.8,-1.6,,*5A
$GNGGA,062857.00,2218.04772,N,11411.58925,E,1,06,4.21,-216.8,M,-1.6,M,,*7F
$GNGSA,A,3,28,17,19,22,06,02,,,,,,,5.52,4.21,3.57*18
$GPGSV,4,1,14,01,11,042,,02,15,249,27,03,37,057,,04,03,109,*78
$GPGSV,4,2,14,06,45,265,31,07,00,168,07,09,06,142,,14,83,151,*72
$GPGSV,4,3,14,17,47,359,32,19,36,326,30,22,13,042,09,24,00,309,*78
$GPGSV,4,4,14,28,75,330,28,30,21,200,24*7A
$GNGLL,2218.04772,N,11411.58925,E,062857.00,A,A*71
$GNGRS,062857.00,1,-47.7,-92.2,-1.5,25.0,36.5,-34.4,,,,,,*63
$GNGST,062857.00,27,,,,5.0,8.5,11*64
$GNZDA,062857.00,21,05,2021,00,00*71
$GNGBS,062857.00,5.0,8.5,10.9,17,,92.8,53.7*65
$GNRMC,062858.00,A,2218.04767,N,11411.58935,E,4.919,113.23,210521,,,A*7E
$GNVTG,113.23,T,,M,4.919,N,9.110,K,A*2D
$GNGNS,062858.00,2218.04767,N,11411.58935,E,AN,06,3.91,-218.6,-1.6,,*5C
$GNGGA,062858.00,2218.04767,N,11411.58935,E,1,06,3.91,-218.6,M,-1.6,M,,*79
$GNGSA,A,3,28,17,19,22,06,02,,,,,,,5.26,3.91,3.51*11
$GPGSV,4,1,14,01,11,042,,02,15,249,27,03,37,057,,04,03,109,*78
$GPGSV,4,2,14,06,45,265,31,07,00,168,05,09,06,142,,14,83,151,27*75
$GPGSV,4,3,14,17,47,359,32,19,36,326,30,22,13,042,09,24,00,309,*78
$GPGSV,4,4,14,28,75,330,28,30,21,200,24*7A
$GNGLL,2218.04767,N,11411.58935,E,062858.00,A,A*7B
$GNGRS,062858.00,1,-52.4,-94.8,4.7,36.7,33.4,-34.4,,,,,,*4C
$GNRMC,062859.00,A,2218.04825,N,11411.58923,E,4.875,113.09,210521,,,A*72
$GNVTG,113.09,T,,M,4.875,N,9.029,K,A*25
$GNGNS,062859.00,2218.04825,N,11411.58923,E,AN,07,3.81,-222.1,-1.6,,*5D
$GNGGA,062859.00,2218.04825,N,11411.58923,E,1,07,3.81,-222.1,M,-1.6,M,,*78
$GNGSA,A,3,14,28,17,19,06,02,30,,,,,,5.17,3.81,3.49*1D
$GPGSV,4,1,14,01,11,042,,02,15,249,28,03,37,057,,04,03,109,*77
$GPGSV,4,2,14,06,45,265,31,07,00,168,,09,07,141,,14,83,151,29*7C
$GPGSV,4,3,14,17,47,359,33,19,36,326,31,22,13,042,08,24,00,309,*79
$GPGSV,4,4,14,28,75,330,29,30,21,200,27*78
$GNGLL,2218.04825,N,11411.58923,E,062859.00,A,A*74
$GNGRS,062859.00,1,-125,-52.3,-94.5,4.8,40.9,-35.5,-235,,,,,*5F
$GNGST,062859.00,26,,,,5.2,8.9,11*65
$PUBX,04,062859.00,210521,455338.99,2158,18,467271,486.362,21*18
$GNRMC,062900.00,A,2218.04887,N,11411.58907,E,4.831,112.91,210521,,,A*71
$GNVTG,112.91,T,,M,4.831,N,8.946,K,A*24
$GNGNS,062900.00,2218.04887,N,11411.58907,E,AN,06,3.81,-225.9,-1.6,,*50
$GNGGA,062900.00,2218.04887,N,11411.58907,E,1,06,3.81,-225.9,M,-1.6,M,,*75
$GNGSA,A,3,28,17,19,22,06,02,,,,,,,5.17,3.81,3.50*13
$GPGSV,4,1,14,01,11,042,,02,15,249,27,03,37,057,,04,03,109,*78
$GPGSV,4,2,14,06,45,265,31,07,00,168,,09,07,141,,14,83,151,*77
$GPGSV,4,3,14,17,47,359,33,19,36,326,31,22,13,042,11,24,00,309,*71
$GPGSV,4,4,14,28,75,330,29,30,21,200,*7D
$GNGLL,2218.04887,N,11411.58907,E,062900.00,A,A*77
$GNGRS,062900.00,1,-45.7,-95.5,8.1,21.8,37.0,-35.6,,,,,,*49
$GNGST,062900.00,26,,,,5.3,9.2,12*60
$GNRMC,062901.00,A,2218.04988,N,11411.58877,E,4.780,112.63,210521,,,A*70
$GNVTG,112.63,T,,M,4.780,N,8.852,K,A*28
$GNGNS,062901.00,2218.04988,N,11411.58877,E,AN,07,3.81,-229.5,-1.6,,*58
$GNGGA,062901.00,2218.04988,N,11411.58877,E,1,07,3.81,-229.5,M,-1.6,M,,*7D
$GNGSA,A,3,14,28,17,19,22,06,02,,,,,,5.17,3.81,3.50*16
$GPGSV,4,1,14,01,11,042,,02,15,249,29,03,37,057,,04,03,109,*76
$GPGSV,4,2,14,06,45,265,32,07,00,168,,09,07,141,,14,83,151,32*75
$GPGSV,4,3,14,17,47,359,34,19,36,326,31,22,13,042,10,24,00,309,*77
$GPGSV,4,4,14,28,75,330,30,30,21,200,27*70
$GNGLL,2218.04988,N,11411.58877,E,062901.00,A,A*7E
$GNGRS,062901.00,1,-130,-43.1,-93.6,5.4,-39.5,39.1,-41.2,,,,,*7B
$GNGST,062901.00,24,,,,5.5,9.6,12*61
$GNZDA,062901.00,21,05,2021,00,00*73
$GNGBS,062901.00,5.5,9.6,11.9,14,,132.8,67.5*5C
$GNVLW,,N,,N,0.000,N,0.000,N*44
$GNRMC,062902.00,A,2218.05100,N,11411.58682,E,4.694,112.30,210521,,,A*7C
$GNVTG,112.30,T,,M,4.694,N,8.694,K,A*2E
$GNGNS,062902.00,2218.05100,N,11411.58682,E,AN,07,3.81,-234.0,-1.6,,*5F
$GNGGA,062902.00,2218.05100,N,11411.58682,E,1,07,3.81,-234.0,M,-1.6,M,,*7A
$GNGSA,A,3,14,28,17,19,06,02,30,,,,,,5.17,3.81,3.50*15
$GPGSV,4,1,14,01,11,042,,02,15,249,27,03,37,057,,04,03,109,*78
$GPGSV,4,2,14,06,45,265,33,07,00,168,,09,07,141,,14,83,151,32*74
$GPGSV,4,3,14,17,47,359,35,19,36,326,32,22,13,042,08,24,00,309,*7C
$GPGSV,4,4,14,28,75,330,31,30,21,200,31*76
$GNGLL,2218.05100,N,11411.58682,E,062902.00,A,A*70
$GNGRS,062902.00,1,-121,-46.8,-91.8,5.1,36.7,-45.9,-243,,,,,*5F
$GNGST,062902.00,19,,,,6.0,11,13*4A
$GNRMC,062903.00,A,2218.05209,N,11411.58587,E,4.629,111.88,210521,,,A*77
$GNVTG,111.88,T,,M,4.629,N,8.573,K,A*22
$GNGNS,062903.00,2218.05209,N,11411.58587,E,AN,07,9.35,-241.2,-1.6,,*57
$GNGGA,062903.00,2218.05209,N,11411.58587,E,1,07,9.35,-241.2,M,-1.6,M,,*72
$GNGSA,A,3,14,28,17,19,22,06,02,,,,,,14.19,9.35,10.67*1B
$GPGSV,4,1,14,01,11,042,,02,15,249,23,03,37,057,,04,03,109,*7C
$GPGSV,4,2,14,06,45,265,33,07,00,168,,09,07,141,,14,83,152,32*77
$GPGSV,4,3,14,17,47,359,35,19,36,326,33,22,13,042,09,24,00,309,*7C
$GPGSV,4,4,14,28,75,330,32,30,21,200,25*70
$GNGLL,2218.05209,N,11411.58587,E,062903.00,A,A*7D
$GNGRS,062903.00,1,-127,-45.7,-89.8,2.2,24.0,36.5,-54.1,,,,,*53
$GNRMC,062904.00,A,2218.05303,N,11411.58505,E,4.570,111.44,210521,,,A*7E
$GNVTG,111.44,T,,M,4.570,N,8.463,K,A*2D
$GNGNS,062904.00,2218.05303,N,11411.58505,E,AN,07,5.31,-247.3,-1.6,,*5E
$GNGGA,062904.00,2218.05303,N,11411.58505,E,1,07,5.31,-247.3,M,-1.6,M,,*7B
$GNGSA,A,3,14,28,17,19,06,02,30,,,,,,8.19,5.31,6.23*1A
$GPGSV,4,1,14,01,11,042,,02,15,249,19,03,37,057,,04,03,109,*75
$GPGSV,4,2,14,06,45,265,32,07,00,168,,09,07,141,,14,83,152,31*75
$GPGSV,4,3,14,17,47,359,35,19,36,326,32,22,13,042,08,24,00,309,*7C
$GPGSV,4,4,14,28,75,330,31,30,21,200,28*7E
$GNGLL,2218.05303,N,11411.58505,E,062904.00,A,A*7B
$GNGRS,062904.00,1,-128,-44.0,-90.7,7.7,36.8,-60.2,-243,,,,,*53
$GNRMC,062905.00,A,2218.05397,N,11411.58500,E,4.527,110.96,210521,,,A*7B
$GNVTG,110.96,T,,M,4.527,N,8.384,K,A*2F
$GNGNS,062905.00,2218.05397,N,11411.58500,E,AN,06,9.35,-253.6,-1.6,,*5E
$GNGGA,062905.00,2218.05397,N,11411.58500,E,1,06,9.35,-253.6,M,-1.6,M,,*7B
$GNGSA,A,3,14,28,17,19,22,06,,,,,,,14.19,9.35,10.67*19
$GPGSV,4,1,14,01,11,042,,02,15,249,10,03,37,057,,04,03,109,*7C
$GPGSV,4,2,14,06,45,265,31,07,00,168,,09,07,141,,14,83,152,30*77
$GPGSV,4,3,14,17,47,359,33,19,36,326,32,22,13,042,09,24,00,309,*7B
$GPGSV,4,4,14,28,75,330,30,30,21,200,*75
$GNGLL,2218.05397,N,11411.58500,E,062905.00,A,A*72
$GNGRS,062905.00,1,-130,-44.3,-89.5,10.7,19.9,39.7,,,,,,*54
$GNGST,062905.00,24,,,,6.1,11,13*42
$GNRMC,062906.00,A,2218.05495,N,11411.58463,E,4.478,110.47,210521,,,A*7E
$GNVTG,110.47,T,,M,4.478,N,8.294,K,A*28
$GNGNS,062906.00,2218.05495,N,11411.58463,E,AN,05,5.31,-259.4,-1.6,,*5F
$GNGGA,062906.00,2218.05495,N,11411.58463,E,1,05,5.31,-259.4,M,-1.6,M,,*7A
$GNGSA,A,3,14,28,17,19,06,,,,,,,,8.19,5.31,6.23*1B
$GPGSV,4,1,14,01,11,042,,02,15,249,09,03,37,057,,04,03,109,*74
$GPGSV,4,2,14,06,45,265,32,07,00,168,,09,07,141,,14,83,152,31*75
$GPGSV,4,3,14,17,48,360,35,19,36,326,33,22,13,042,08,24,00,309,*78
$GPGSV,4,4,14,28,75,330,31,30,21,200,21*77
$GNGLL,2218.05495,N,11411.58463,E,062906.00,A,A*70
$GNGRS,062906.00,1,-131,-43.9,-89.1,11.4,32.7,,,,,,,*49
$GNGST,062906.00,27,,,,6.1,11,13*42
$GNZDA,062906.00,21,05,2021,00,00*74
$GNGBS,062906.00,6.1,10.9,13.3,14,,133.9,54.4*62
$GNVLW,,N,,N,0.000,N,0.000,N*44
$PUBX,00,062906.00,2218.05495,N,11411.58463,E,-261.010,G3,12,13,8.294,110.47,1.966,,5.31,6.23,7.15,5,0,0*45
$PUBX,04,062906.00,210521,455345.99,2158,18,470642,480.277,21*18
$GNRMC,062907.00,V,,,,,,,210521,,,N*6C
$GNVTG,,,,,,,,,N*2E
$GNGNS,062907.00,,,,,NN,07,3.06,,,,*6B
$GNGGA,062907.00,,,,,0,07,3.06,,,,,,*40
$GNGSA,A,1,14,28,17,19,22,06,30,,,,,,5.14,3.06,4.13*19
$GPGSV,4,1,14,01,11,042,,02,15,249,08,03,37,057,,04,03,109,*75
$GPGSV,4,2,14,06,45,265,33,07,00,168,,09,07,141,,14,83,152,32*77
$GPGSV,4,3,14,17,48,360,35,19,36,326,33,22,13,042,10,24,00,309,*71
$GPGSV,4,4,14,28,75,330,31,30,21,200,31*76
$GNGLL,,,,,062907.00,V,N*5E
$GNGRS,062907.00,1,-25.5,-1.7,-18.9,1.4,230,5.4,-98.1,,,,,*5B
$GNGST,062907.00,28,,,,63,109,155*6B
$GNZDA,062907.00,21,05,2021,00,00*75
$GNGBS,062907.00,,,,,,,*7B
$GNVLW,,,,,,,,*44
$PUBX,04,062907.00,210521,455346.99,2158,18,471900,480.406,21*12
$GNRMC,062908.00,V,,,,,,,210521,,,N*63
$GNVTG,,,,,,,,,N*2E
$GNGNS,062908.00,,,,,NN,06,3.06,,,,*65
$GNGGA,062908.00,,,,,0,06,3.06,,,,,,*4E
$GNGSA,A,1,14,28,17,19,06,30,,,,,,,5.14,3.06,4.13*19
$GPGSV,4,1,14,01,11,042,,02,15,249,08,03,37,057,15,04,03,109,*71
$GPGSV,4,2,14,06,45,265,35,07,00,168,,09,07,141,,14,83,152,32*71
$GPGSV,4,3,14,17,48,360,36,19,37,327,34,22,13,042,06,24,00,309,*72
$GPGSV,4,4,14,28,75,330,32,30,21,200,29*7C
$GNGLL,,,,,062908.00,V,N*51
$GNGRS,062908.00,1,-14.4,-2.6,-10.3,-0.5,2.1,-67.3,,,,,,*4B
$GNGST,062908.00,24,,,,41,70,103*54
$GNZDA,062908.00,21,05,2021,00,00*7A
$GNGBS,062908.00,,,,30,,119.4,27.6*49
$GNRMC,062909.00,A,2218.11857,N,11411.41934,E,7.811,23.01,210521,,,A*42
$GNVTG,23.01,T,,M,7.811,N,14.465,K,A*2E
$GNGNS,062909.00,2218.11857,N,11411.41934,E,AN,05,2.72,-37.9,-1.6,,*67
$GNGGA,062909.00,2218.11857,N,11411.41934,E,1,05,2.72,-37.9,M,-1.6,M,,*42
$GNGSA,A,3,14,28,17,19,06,,,,,,,,4.54,2.72,3.64*18
$GPGSV,4,1,14,01,11,042,,02,15,249,08,03,37,057,12,04,03,109,*76
$GPGSV,4,2,14,06,45,265,34,07,00,168,,09,07,141,,14,83,152,32*70
$GPGSV,4,3,14,17,48,360,28,19,37,327,31,22,13,042,07,24,00,309,*79
$GPGSV,4,4,14,28,75,330,31,30,21,200,*74
$GNGLL,2218.11857,N,11411.41934,E,062909.00,A,A*7F
$GNGRS,062909.00,1,-10.9,1.1,-5.3,0.9,1.6,,,,,,,*4A
$GNGST,062909.00,25,,,,30,52,77*60
$GNZDA,062909.00,21,05,2021,00,00*7B
$GNGBS,062909.00,30.1,51.8,77.0,,,,*65
$GNVLW,,N,,N,0.000,N,0.000,N*44
$PUBX,04,062909.00,210521,455348.99,2158,18,473181,481.640,21*10
$GNRMC,062910.00,A,2218.12973,N,11411.40304,E,9.498,1.48,210521,,,A*78
$GNVTG,1.48,T,,M,9.498,N,17.591,K,A*19
$GNGNS,062910.00,2218.12973,N,11411.40304,E,AN,06,1.35,-0.8,-1.6,,*55
$GNGGA,062910.00,2218.12973,N,11411.40304,E,1,06,1.35,-0.8,M,-1.6,M,,*70
$GNGSA,A,3,14,28,17,19,06,30,,,,,,,2.12,1.35,1.64*1D
$GPGSV,4,1,14,01,11,042,,02,15,249,07,03,37,057,11,04,03,109,*7A
$GPGSV,4,2,14,06,45,265,33,07,00,168,,09,07,141,,14,83,152,31*74
$GPGSV,4,3,14,17,48,360,26,19,37,327,29,22,13,042,08,24,00,309,*71
$GPGSV,4,4,14,28,75,330,31,30,21,200,31*76
$GNGLL,2218.12973,N,11411.40304,E,062910.00,A,A*7B
$GNTXT,01,01,00,txbuf
$GNRMC,062911.00,A,2218.13320,N,11411.39962,E,10.240,350.39,210521,,,A*4A
$GNVTG,350.39,T,,M,10.240,N,18.964,K,A*2A
$GNGNS,062911.00,2218.13320,N,11411.39962,E,AN,06,0.80,2.7,-1.6,,*72
$GNGGA,062911.00,2218.13320,N,11411.39962,E,1,06,0.80,2.7,M,-1.6,M,,*57
$GNGSA,A,3,14,28,17,19,06,30,,,,,,,1.49,0.80,1.26*19
$GPGSV,4,1,14,01,11,042,,02,15,249,08,03,37,057,09,04,03,109,*7C
$GPGSV,4,2,14,06,45,265,34,07,00,168,,09,07,141,,14,83,152,32*70
$GPGSV,4,3,14,17,48,360,26,19,37,327,27,22,13,042,,24,00,309,*77
$GPGSV,4,4,14,28,75,330,31,30,21,200,32*75
$GNRMC,062912.00,A,2218.13591,N,11411.39743,E,10.464,343.81,210521,,,A*49
$GNVTG,343.81,T,,M,10.464,N,19.378,K,A*2D
$GNGNS,062912.00,2218.13591,N,11411.39743,E,AN,06,0.74,2.4,-1.6,,*78
$GNGGA,062912.00,2218.13591,N,11411.39743,E,1,06,0.74,2.4,M,-1.6,M,,*5D
$GNGSA,A,3,14,28,17,19,06,30,,,,,,,1.37,0.74,1.15*1B
$GPGSV,4,1,14,01,11,042,,02,15,249,08,03,37,057,08,04,03,109,*7D
$GPGSV,4,2,14,06,45,265,34,07,00,168,,09,07,141,,14,83,152,33*71
$GPGSV,4,3,14,17,48,360,25,19,37,327,26,22,13,042,,24,00,309,*75
$GPGSV,4,2,14,06,45,265,33,07,00,168,,09,07,141,,14,83,152,32*77
$GNRMC,062914.00,A,2218.13936,N,11411.39220,E,10.238,331.79,210521,,,A*43
$GNVTG,331.79,T,,M,10.238,N,18.960,K,A*22
$GNGNS,062914.00,2218.13936,N,11411.39220,E,AN,06,0.81,2.7,-1.6,,*76
$GNGGA,062914.00,2218.13936,N,11411.39220,E,1,06,0.81,2.7,M,-1.6,M,,*53
$GNGSA,A,3,14,28,17,19,06,30,,,,,,,1.45,0.81,1.20*12
$GPGSV,4,1,14,01,11,042,,02,15,249,08,03,37,057,08,04,03,109,*7D
$GPGSV,4,2,14,06,45,265,33,07,00,168,,09,07,141,,14,83,152,31*74
$GPGSV,4,3,14,17,48,360,19,19,37,327,34,22,13,042,,24,00,309,*79
$GPGSV,4,4,14,28,75,330,31,30,21,200,29*7F
$GNGLL,2218.13936,N,11411.39220,E,062914.00,A,A*76
$GNGRS,062914.00,1,1.5,-0.4,-4.3,-1.8,3.4,-1.8,,,,,,*58
$GNRMC,062915.00,A,2218.14038,N,11411.38969,E,9.799,327.02,210521,,,A*78
$GNVTG,327.02,T,,M,9.799,N,18.147,K,A*12
$GNGNS,062915.00,2218.14038,N,11411.38969,E,AN,07,0.81,3.5,-1.6,,*72
$GNGGA,062915.00,2218.14038,N,11411.38969,E,1,07,0.81,3.5,M,-1.6,M,,*57
$GNGSA,A,3,14,28,17,19,06,02,30,,,,,,1.45,0.81,1.20*10
$GPGSV,4,1,14,01,11,042,,02,15,249,09,03,37,057,08,04,03,109,*7C
$GPGSV,4,2,14,06,45,265,33,07,00,168,,09,07,141,,14,83,152,31*74
$GPGSV,4,3,14,17,48,360,16,19,37,327,35,22,13,042,,24,00,309,*77
$GPGSV,4,4,14,28,75,330,31,30,21,200,28*7E
$GNGLL,2218.14038,N,11411.38969,E,062915.00,A,A*70
$GNGRS,062915.00,1,2.2,1.0,-1.9,-2.3,3.4,-36.1,1.2,,,,,*62
$GNGST,062915.00,27,,,,5.5,6.4,13*6B
$GNZDA,062915.00,21,05,2021,00,00*76
$GNGBS,062915.00,5.5,6.4,12.9,,,,*6E
$GNVLW,,N,,N,0.000,N,0.000,N*44
$PUBX,00,062915.00,2218.14038,N,11411.38969,E,1.913,G3,8.4,13,18.147,327.02,1.239,,0.81,1.20,0.96,7,0,0*79
$PUBX,04,062915.00,210521,455354.99,2158,18,476334,493.459,21*10
$GNRMC,062916.00,A,2218.14109,N,11411.38716,E,9.306,322.27,210521,,,A*7E
$GNVTG,322.27,T,,M,9.306,N,17.235,K,A*1B
$GNGNS,062916.00,2218.14109,N,11411.38716,E,AN,06,0.81,3.5,-1.6,,*75
$GNGGA,062916.00,2218.14109,N,11411.38716,E,1,06,0.81,3.5,M,-1.6,M,,*50
$GNGSA,A,3,14,28,17,19,06,30,,,,,,,1.45,0.81,1.20*12
$GPGSV,4,1,14,01,11,042,,02,15,249,07,03,37,057,07,04,03,109,*7D
$GPGSV,4,2,14,06,45,265,32,07,00,168,,09,07,141,,14,83,152,32*76
$GPGSV,4,3,14,17,48,360,12,19,37,327,32,22,13,042,,24,00,309,*74
$GPGSV,4,4,14,28,75,330,30,30,21,200,29*7E
$GNGLL,2218.14109,N,11411.38716,E,062916.00,A,A*76
$GNGRS,062916.00,1,2.9,0.0,-1.9,-3.1,3.6,3.5,,,,,,*58
$GNGST,062916.00,29,,,,5.2,6.0,12*64
$GNZDA,062916.00,21,05,2021,00,00*75
$GNGBS,062916.00,5.2,6.0,12.1,,,,*66
$GNVLW,,N,,N,0.000,N,0.000,N*44
$PUBX,00,062916.00,2218.14109,N,11411.38716,E,1.886,G3,7.9,12,17.235,322.27,1.165,,0.81,1.20,0.96,6,0,0*71
$PUBX,03,32,1,e,042,11,,000,2,e,249,15,07,000,3,e,057,37,07,000,4,-,109,03,,000,6,U,265,45,32,023,7,e,168,00,,000,9,-,141,07,,000,14,U,152,83,32,014,17,U,360,48,12,000,19,U,327,37,32,004,22,e,042,13,,000,24,-,309,00,,000,28,U,330,75,30,021,30,U,200,21,29,000,159,U,123,47,30,001,160,U,236,47,29,000,161,U,190,64,31,006,162,e,109,33,,000,163,-,255,23,,000,33,-,174,05,,000,34,U,122,75,31,005,35,U,311,74,29,020,36,-,199,04,,000,37,U,328,75,30,018,38,U,329,44,30,002,39,e,039,36,,000,40,U,254,61,31,021,41,-,179,16,26,000,43,-,180,04,,000,48,U,094,37,30,005,49,e,047,09,,000,50,U,308,19,26,000*10
$PUBX,04,062916.00,210521,455355.99,2158,18,476833,494.709,21*1F
$GNRMC,062917.00,A,2218.14103,N,11411.38473,E,8.603,317.42,210521,,,A*71
$GNVTG,317.42,T,,M,8.603,N,15.932,K,A*11
$GNGNS,062917.00,2218.14103,N,11411.38473,E,AN,06,0.83,3.5,-1.6,,*7C
$GNGGA,062917.00,2218.14103,N,11411.38473,E,1,06,0.83,3.5,M,-1.6,M,,*59
$GNGSA,A,3,14,28,19,06,02,30,,,,,,,1.40,0.83,1.13*11
$GPGSV,4,1,14,01,11,042,,02,15,249,09,03,37,057,08,04,03,109,*7C
$GPGSV,4,2,14,06,45,265,33,07,00,168,,09,07,141,,14,83,152,34*71
$GPGSV,4,3,14,17,48,360,10,19,37,327,32,22,13,042,,24,00,309,*76
$GPGSV,4,4,14,28,76,329,29,30,21,200,29*7D
$GNGLL,2218.14103,N,11411.38473,E,062917.00,A,A*7D
$GNGRS,062917.00,1,2.5,-1.7,-2.7,3.8,17.7,5.2,,,,,,*62
$GNGST,062917.00,2803859,,,,4.9,5.6,11*5F
$GNZDA,062917.00,21,05,2021,00,00*74
$GNGBS,062917.00,4.9,5.6,11.4,,,,*6E
$GNVLW,,N,,N,0.000,N,0.000,N*44
$PUBX,00,062917.00,2218.14103,N,11411.38473,E,1.896,G3,7.4,11,15.932,317.42,1.134,,0.83,1.13,0.92,6,0,0*7C
$PUBX,03,32,1,e,042,11,,000,2,U,249,15,09,000,3,e,057,37,08,000,4,-,109,03,,000,6,U,265,45,33,024,7,e,168,00,,000,9,-,141,07,,000,14,U,152,83,34,015,17,e,360,48,10,000,19,U,327,37,32,005,22,e,042,13,,000,24,-,309,00,,000,28,U,329,76,29,022,30,U,200,21,29,001,159,U,123,47,30,002,160,U,236,47,30,000,161,U,190,64,31,007,162,e,109,33,28,000,163,-,255,23,,000,33,-,174,05,,000,34,U,122,75,29,006,35,U,311,74,29,021,36,-,199,04,,000,37,U,328,75,29,019,38,U,329,44,30,003,39,e,039,36,,000,40,U,254,61,32,022,41,-,179,16,27,000,43,-,180,04,,000,48,U,094,37,31,006,49,e,047,09,,000,50,U,308,19,26,001*13
$PUBX,04,062917.00,210521,455356.99,2158,18,477331,494.712,21*1F
$GNRMC,062918.00,A,2218.14061,N,11411.38207,E,8.086,311.48,210521,,,A*79
$GNVTG,311.48,T,,M,8.086,N,14.976,K,A*17
$GNGNS,062918.00,2218.14061,N,11411.38207,E,AN,07,0.75,5.0,-1.6,,*78
$GNGGA,062918.00,2218.14061,N,11411.38207,E,1,07,0.75,5.0,M,-1.6,M,,*5D
$GNGSA,A,3,14,28,17,19,06,02,30,,,,,,1.32,0.75,1.08*11
$GPGSV,4,1,14,01,11,042,,02,15,249,10,03,37,057,07,04,03,109,*7B
$GPGSV,4,2,14,06,45,265,36,07,00,168,,09,07,141,,14,83,152,34*74
$GPGSV,4,3,14,17,48,360,14,19,37,327,33,22,13,042,,24,00,309,*73
$GPGSV,4,4,14,28,76,329,31,30,21,200,31*7D
$GNGLL,2218.14061,N,11411.38207,E,062918.00,A,A*72
$GNGRS,062918.00,1,2.2,-2.5,-2.2,-5.0,3.3,17.0,5.9,,,,,*6F
$GNGST,062918.00,2729076,,,,4.6,4.9,11*53
$GNZDA,062918.00,21,05,2021,00,00*7B
$GNGBS,062918.00,4.6,4.9,10.6,,,,*63
$GNVLW,,N,,N,0.000,N,0.000,N*44
$PUBX,00,062918.00,2218.14061,N,11411.38207,E,3.398,G3,6.8,11,14.976,311.48,0.894,,0.75,1.08,0.84,7,0,0*73
$PUBX,03,32,1,e,042,11,,000,2,U,249,15,10,000,3,e,057,37,07,000,4,-,109,03,,000,6,U,265,45,36,025,7,e,168,00,,000,9,-,141,07,,000,14,U,152,83,34,016,17,U,360,48,14,000,19,U,327,37,33,006,22,e,042,13,,000,24,-,309,00,,000,28,U,329,76,31,023,30,U,200,21,31,003,159,U,123,47,31,000,160,U,236,47,30,000,161,U,190,64,35,008,162,U,109,33,33,000,163,-,255,23,,000,33,-,174,05,,000,34,U,122,75,33,007,35,U,311,74,30,022,36,-,199,04,,000,37,U,328,75,29,020,38,U,329,44,30,004,39,e,039,36,,000,40,U,254,61,33,023,41,-,179,16,28,001,43,-,180,04,,000,48,U,094,37,33,007,49,e,047,09,,000,50,U,308,19,31,003*11
$PUBX,04,062918.00,210521,455357.99,2158,18,477833,495.063,21*18
$GNRMC,062919.00,A,2218.13990,N,11411.37963,E,7.665,305.20,210521,,,A*71
$GNVTG,305.20,T,,M,7.665,N,14.196,K,A*1E
$GNGNS,062919.00,2218.13990,N,11411.37963,E,AN,06,0.78,5.6,-1.6,,*75
$GNGGA,062919.00,2218.13990,N,11411.37963,E,1,06,0.78,5.6,M,-1.6,M,,*50
$GNGSA,A,3,14,28,17,19,06,30,,,,,,,1.42,0.78,1.19*19
$GPGSV,4,1,14,01,11,042,,02,15,249,08,03,37,057,07,04,03,109,*72
$GPGSV,4,2,14,06,45,265,36,07,00,168,,09,07,141,,14,83,152,33*73
$GPGSV,4,3,14,17,48,360,33,19,37,327,33,22,13,042,,24,00,309,*76
$GPGSV,4,4,14,28,76,329,32,30,20,200,31*7F
$GNGLL,2218.13990,N,11411.37963,E,062919.00,A,A*75
$GNTXT,01,01,00,txbuf
$GNRMC,062920.00,A,2218.13889,N,11411.37741,E,7.329,298.63,210521,,,A*73
$GNVTG,298.63,T,,M,7.329,N,13.572,K,A*18
$GNGNS,062920.00,2218.13889,N,11411.37741,E,AN,07,0.72,4.2,-1.6,,*76
$GNGGA,062920.00,2218.13889,N,11411.37741,E,1,07,0.72,4.2,M,-1.6,M,,*53
$GNGSA,A,3,14,28,17,19,06,02,30,,,,,,1.29,0.72,1.07*13
$GPGSV,4,1,14,01,11,042,,02,15,249,10,03,37,057,08,04,03,109,*74
$GPGSV,4,2,14,06,45,265,36,07,00,168,,09,07,141,,14,83,152,32*72
$GPGSV,4,3,14,17,48,360,34,19,37,327,31,22,13,042,,24,00,309,*73
$GPGSV,4,4,14,28,76,329,32,30,20,200,30*7E
$GNRMC,062921.00,A,2218.13778,N,11411.37518,E,7.104,292.00,210521,,,A*7F
$GNVTG,292.00,T,,M,7.104,N,13.156,K,A*18
$GNGNS,062921.00,2218.13778,N,11411.37518,E,AN,06,0.74,4.0,-1.6,,*7D
$GNGGA,062921.00,2218.13778,N,11411.37518,E,1,06,0.74,4.0,M,-1.6,M,,*58
$GNGSA,A,3,14,28,17,19,06,30,,,,,,,1.37,0.74,1.15*1B
$GPGSV,4,1,14,01,11,042,,02,15,249,07,03,37,057,08,04,03,109,*72
$GPGSV,4,2,14,06,45,265,36,07,00,168,,09,07,141,,14,83,152,32*72
$GPGSV,4,3,14,17,48,360,33,19,37,327,31,22,13,042,,24,00,309,*74
$GPGSV,4,2,14,06,45,265,36,07,00,168,,09,07,141,,14,83,152,32*72
$GNRMC,062923.00,A,2218.13576,N,11411.37117,E,6.737,281.43,210521,,,A*78
$GNVTG,281.43,T,,M,6.737,N,12.478,K,A*12
$GNGNS,062923.00,2218.13576,N,11411.37117,E,AN,06,0.77,3.7,-1.6,,*7B
$GNGGA,062923.00,2218.13576,N,11411.37117,E,1,06,0.77,3.7,M,-1.6,M,,*5E
$GNGSA,A,3,14,28,17,19,06,30,,,,,,,1.39,0.77,1.15*16
$GPGSV,4,1,14,01,11,042,,02,15,249,07,03,37,057,08,04,03,109,*72
$GPGSV,4,2,14,06,45,265,36,07,00,168,,09,07,141,,14,83,152,32*72
$GPGSV,4,3,14,17,48,360,34,19,37,327,32,22,13,042,,24,00,309,*70
$GPGSV,4,4,14,28,76,329,33,30,20,200,30*7F
$GNGLL,2218.13576,N,11411.37117,E,062923.00,A,A*73
$GNRMC,062924.00,A,2218.13493,N,11411.36929,E,6.632,277.60,210521,,,A*7D
$GNVTG,277.60,T,,M,6.632,N,12.282,K,A*1D
$GNGNS,062924.00,2218.13493,N,11411.36929,E,AN,07,0.74,3.2,-1.6,,*75
$GNGGA,062924.00,2218.13493,N,11411.36929,E,1,07,0.74,3.2,M,-1.6,M,,*50
$GNGSA,A,3,14,28,17,19,06,02,30,,,,,,1.31,0.74,1.08*13
$GPGSV,4,1,14,01,11,042,,02,15,249,12,03,37,057,08,04,03,109,*76
$GPGSV,4,2,14,06,45,265,35,07,00,168,,09,07,141,,14,83,152,32*71
$GNRMC,062925.00,A,2218.13403,N,11411.36750,E,6.506,274.62,210521,,,A*70
$GNVTG,274.62,T,,M,6.506,N,12.049,K,A*1D
$GNGNS,062925.00,2218.13403,N,11411.36750,E,AN,06,0.77,3.8,-1.6,,*75
$GNGGA,062925.00,2218.13403,N,11411.36750,E,1,06,0.77,3.8,M,-1.6,M,,*50
$GNGSA,A,3,14,28,17,19,06,30,,,,,,,1.39,0.77,1.15*16
$GPGSV,4,1,14,01,11,042,,02,15,249,08,03,37,057,08,04,03,109,*7D
$GPGSV,4,2,14,06,45,265,35,07,00,168,,09,07,141,,14,83,152,33*70
$GNRMC,062927.00,A,2218.13244,N,11411.36385,E,6.409,270.08,210521,,,A*7D
$GNVTG,270.08,T,,M,6.409,N,11.870,K,A*1A
$GNGNS,062927.00,2218.13244,N,11411.36385,E,AN,06,0.71,4.2,-1.6,,*75
$GNGGA,062927.00,2218.13244,N,11411.36385,E,1,06,0.71,4.2,M,-1.6,M,,*50
$GNGSA,A,3,14,28,17,19,06,30,,,,,,,1.33,0.71,1.12*1D
$GPGSV,4,1,14,01,11,042,,02,15,249,08,03,37,057,07,04,03,109,*72
$GPGSV,4,2,14,06,45,265,32,07,00,168,,09,07,141,,14,83,152,31*75
$GPGSV,4,3,14,17,48,360,33,19,37,327,27,22,13,042,,24,00,309,*73
$GPGSV,4,4,14,28,76,329,32,30,20,200,26*79
$GNGLL,2218.13244,N,11411.36385,E,062927.00,A,A*79
$GNGRS,062927.00,1,3.1,-0.5,-12.8,-9.5,1.8,9.0,,,,,,*45
$GNGST,062927.00,30,,,,3.3,3.1,7.5*42
$GNZDA,062927.00,21,05,2021,00,00*77
$GNGBS,062927.00,3.3,3.1,7.5,,,,*57
$GNRMC,062928.00,A,2218.13171,N,11411.36194,E,6.421,268.36,210521,,,A*7B
$GNVTG,268.36,T,,M,6.421,N,11.892,K,A*18
$GNGNS,062928.00,2218.13171,N,11411.36194,E,AN,07,0.75,4.2,-1.6,,*78
$GNGGA,062928.00,2218.13171,N,11411.36194,E,1,07,0.75,4.2,M,-1.6,M,,*5D
$GNGSA,A,3,14,28,17,19,06,02,30,,,,,,1.38,0.75,1.15*17
$GPGSV,4,1,14,01,11,042,,02,15,249,10,03,37,057,08,04,03,109,*74
$GPGSV,4,2,14,06,45,265,29,07,00,168,,09,07,141,,14,83,152,30*7E
$GPGSV,4,3,14,17,48,360,31,19,37,327,28,22,13,042,,24,00,309,*7E
$GPGSV,4,4,14,28,76,329,31,30,20,200,26*7A
$GNGLL,2218.13171,N,11411.36194,E,062928.00,A,A*71
$GNGRS,062928.00,1,3.4,1.3,-6.3,-9.2,1.1,-128,9.9,,,,,*4A
$GNGST,062928.00,32,,,,3.2,3.0,7.4*4E
$GNZDA,062928.00,21,05,2021,00,00*78
$GNGBS,062928.00,3.2,3.0,7.4,,,,*59
$GNVLW,,N,,N,0.000,N,0.000,N*44
$PUBX,00,062928.00,2218.13171,N,11411.36194,E,2.658,G3,4.4,7.4,11.892,268.36,0.489,,0.75,1.15,0.89,7,0,0*52
$PUBX,03,32,1,e,042,11,,000,2,e,249,15,10,000,3,e,057,37,08,000,4,-,109,03,,000,6,U,265,45,29,000,7,e,168,00,,000,9,-,141,07,,000,14,U,152,83,30,026,17,U,360,48,31,009,19,U,327,37,28,016,22,e,042,13,,000,24,-,309,00,,000,28,U,329,76,31,033,30,U,200,20,26,000,159,U,123,47,29,010,160,e,236,47,,000,161,U,190,64,29,000,162,e,109,33,,000,163,-,255,23,,000,33,-,174,05,,000,34,U,122,75,29,017,35,U,311,74,27,032,36,-,199,04,,000,37,U,328,75,27,000,38,U,329,44,27,014,39,U,039,36,22,000,40,U,254,61,30,033,41,-,179,16,18,000,43,-,180,04,,000,48,U,094,37,30,017,49,e,047,09,,000,50,U,308,19,26,003*1C
$PUBX,04,062928.00,210521,455367.99,2158,18,482820,498.022,21*18
$GNRMC,062929.00,A,2218.13123,N,11411.35996,E,6.458,267.13,210521,,,A*72
$GNVTG,267.13,T,,M,6.458,N,11.960,K,A*12
$GNGNS,062929.00,2218.13123,N,11411.35996,E,AN,07,0.73,3.8,-1.6,,*7C
$GNGGA,062929.00,2218.13123,N,11411.35996,E,1,07,0.73,3.8,M,-1.6,M,,*59
$GNGSA,A,3,14,28,17,19,06,02,30,,,,,,1.29,0.73,1.07*12
$GPGSV,4,1,14,01,11,042,,02,15,249,10,03,37,057,08,04,03,109,*74
$GPGSV,4,2,14,06,45,265,14,07,00,168,,09,07,141,,14,83,152,29*78
$GPGSV,4,3,14,17,48,360,25,19,37,327,28,22,13,042,,24,00,309,*7B
$GPGSV,4,4,14,28,76,329,22,30,20,200,22*7C
$GNGLL,2218.13123,N,11411.35996,E,062929.00,A,A*7E
$GNGRS,062929.00,1,6.5,-1.1,-10.8,-3.5,2.7,18.3,11.7,,,,,*61
$GNGST,062929.00,352139,,,,3.2,3.0,7.4*41
$GNZDA,062929.00,21,05,2021,00,00*79
$GNRMC,062930.00,A,2218.13079,N,11411.35789,E,6.507,266.35,210521,,,A*7A
$GNVTG,266.35,T,,M,6.507,N,12.052,K,A*17
$GNGNS,062930.00,2218.13079,N,11411.35789,E,AN,06,0.80,3.4,-1.6,,*7B
$GNGGA,062930.00,2218.13079,N,11411.35789,E,1,06,0.80,3.4,M,-1.6,M,,*5E
$GNGSA,A,3,14,28,17,19,06,30,,,,,,,1.43,0.80,1.19*1F
$GPGSV,4,1,14,01,11,042,,02,15,249,08,03,37,057,08,04,03,109,*7D
$GPGSV,4,2,14,06,45,265,11,07,00,168,,09,07,141,,14,83,152,29*7D
$GNRMC,062931.00,A,2218.13054,N,11411.35584,E,6.527,266.02,210521,,,A*7D
$GNVTG,266.02,T,,M,6.527,N,12.088,K,A*16
$GNGNS,062931.00,2218.13054,N,11411.35584,E,AN,07,0.84,2.9,-1.6,,*73
$GNGGA,062931.00,2218.13054,N,11411.35584,E,1,07,0.84,2.9,M,-1.6,M,,*56
$GNGSA,A,3,14,28,17,19,06,02,30,,,,,,1.45,0.84,1.19*1F
$GPGSV,4,1,14,01,11,042,,02,15,249,11,03,37,057,09,04,03,109,*74
$GPGSV,4,2,14,06,45,265,12,07,00,168,,09,07,141,,14,83,152,29*7E
$GNRMC,062932.00,A,2218.13039,N,11411.35378,E,6.546,266.00,210521,,,A*75
$GNVTG,266.00,T,,M,6.546,N,12.123,K,A*13
$GNGNS,062932.00,2218.13039,N,11411.35378,E,AN,06,0.85,2.4,-1.6,,*73
$GNGGA,062932.00,2218.13039,N,11411.35378,E,1,06,0.85,2.4,M,-1.6,M,,*56
$GNGSA,A,3,14,28,17,19,06,02,,,,,,,1.45,0.85,1.17*13
$GPGSV,4,1,14,01,11,042,,02,15,249,10,03,37,057,09,04,03,109,*75
$GPGSV,4,2,14,06,45,265,13,07,00,168,12,09,07,141,,14,83,152,29*7C
$GPGSV,4,3,14,17,48,360,28,19,37,327,28,22,13,042,,24,00,309,*76
$GPGSV,4,4,14,28,76,329,25,30,20,200,09*72
$GNRMC,062933.00,A,2218.13036,N,11411.35171,E,6.560,266.21,210521,,,A*77
$GNVTG,266.21,T,,M,6.560,N,12.150,K,A*10
$GNGNS,062933.00,2218.13036,N,11411.35171,E,AN,06,0.85,1.5,-1.6,,*74
$GPGSV,4,1,14,01,11,042,,02,15,249,10,03,37,057,08,04,03,109,*74
$GNRMC,062934.00,A,2218.13032,N,11411.34961,E,6.575,266.52,210521,,,A*7C
$GNVTG,266.52,T,,M,6.575,N,12.177,K,A*15
$GNGNS,062934.00,2218.13032,N,11411.34961,E,AN,05,0.94,0.4,-1.6,,*7C
$GNGGA,062934.00,2218.13032,N,11411.34961,E,1,05,0.94,0.4,M,-1.6,M,,*59
$GNGSA,A,3,14,28,17,19,06,,,,,,,,1.64,0.94,1.34*13
$GPGSV,4,1,14,01,11,042,,02,15,249,11,03,37,057,08,04,03,109,*75
$GPGSV,4,2,14,06,45,265,22,07,00,168,10,09,07,141,,14,83,152,28*7D
$GPGSV,4,3,14,17,48,360,29,19,37,327,29,22,13,042,,24,00,309,*76
$GPGSV,4,4,14,28,76,329,27,30,20,200,07*7E
$GNGLL,2218.13032,N,11411.34961,E,062934.00,A,A*7A
$GNGRS,062934.00,1,-0.5,-1.4,-10.6,-9.1,1.2,,,,,,,*48
$GNRMC,062935.00,A,2218.13048,N,11411.34747,E,6.597,266.95,210521,,,A*7D
$GNVTG,266.95,T,,M,6.597,N,12.218,K,A*18
$GNGNS,062935.00,2218.13048,N,11411.34747,E,AN,05,1.35,-1.2,-1.6,,*5A
$GNGGA,062935.00,2218.13048,N,11411.34747,E,1,05,1.35,-1.2,M,-1.6,M,,*7F
$GNGSA,A,3,14,28,17,19,06,,,,,,,,2.20,1.35,1.73*19
$GPGSV,4,1,14,01,11,042,,02,15,249,10,03,37,057,07,04,03,109,*7B
$GPGSV,4,2,14,06,45,265,24,07,00,168,09,09,07,141,,14,83,152,27*7C
$GPGSV,4,3,14,17,48,360,29,19,37,327,29,22,13,042,,24,00,309,*76
$GPGSV,4,4,14,28,76,329,26,30,20,200,08*70
$GNRMC,062936.00,A,2218.13052,N,11411.34540,E,6.608,267.37,210521,,,A*7C
$GNVTG,267.37,T,,M,6.608,N,12.237,K,A*19
$GNGNS,062936.00,2218.13052,N,11411.34540,E,AN,05,1.21,-2.4,-1.6,,*57
$GNGGA,062936.00,2218.13052,N,11411.34540,E,1,05,1.21,-2.4,M,-1.6,M,,*72
$GNGSA,A,3,14,28,17,19,06,,,,,,,,2.08,1.21,1.69*1D
$GPGSV,4,1,14,01,11,042,,02,15,249,09,03,37,057,08,04,03,109,*7C
$GPGSV,4,2,14,06,45,265,25,07,00,168,08,09,07,141,,14,83,152,26*7D
$GPGSV,4,3,14,17,48,360,27,19,37,327,27,22,13,042,,24,00,309,*76
$GNRMC,062938.00,A,2218.13071,N,11411.34141,E,6.594,268.10,210521,,,A*7A
$GNVTG,268.10,T,,M,6.594,N,12.212,K,A*12
$GNGNS,062938.00,2218.13071,N,11411.34141,E,AN,06,1.27,-4.9,-1.6,,*53
$GNGGA,062938.00,2218.13071,N,11411.34141,E,1,06,1.27,-4.9,M,-1.6,M,,*76
$GNGSA,A,3,14,28,17,19,06,02,,,,,,,2.00,1.27,1.54*1F
$GPGSV,4,1,14,01,11,042,,02,15,249,09,03,37,057,08,04,03,109,*7C
$GPGSV,4,2,14,06,45,265,28,07,00,168,09,09,07,141,,14,83,152,26*71
$GPGSV,4,3,14,17,48,360,28,19,37,327,28,22,13,042,,24,00,309,*76
$GPGSV,4,4,14,28,76,329,26,30,20,200,07*7F
$GNRMC,062939.00,A,2218.13093,N,11411.33944,E,6.574,268.52,210521,,,A*75
$GNVTG,268.52,T,,M,6.574,N,12.174,K,A*19
$GNGNS,062939.00,2218.13093,N,11411.33944,E,AN,07,0.93,-6.1,-1.6,,*51
$GNGGA,062939.00,2218.13093,N,11411.33944,E,1,07,0.93,-6.1,M,-1.6,M,,*74
$GNGSA,A,3,14,28,17,19,03,06,02,,,,,,1.56,0.93,1.26*17
$GPGSV,4,1,14,01,11,042,,02,15,249,11,03,37,057,11,04,03,109,*7D
$GPGSV,4,2,14,06,45,265,28,07,00,168,08,09,07,141,,14,83,152,26*70
$GPGSV,4,3,14,17,48,360,28,19,37,327,28,22,13,042,06,24,00,309,*70
$GPGSV,4,4,14,28,76,329,26,30,20,200,07*7F
$GNRMC,062940.00,A,2218.13102,N,11411.33748,E,6.553,268.87,210521,,,A*7D
$GNVTG,268.87,T,,M,6.553,N,12.136,K,A*12
$GNGNS,062940.00,2218.13102,N,11411.33748,E,AN,05,1.06,-6.9,-1.6,,*53
$GNGGA,062940.00,2218.13102,N,11411.33748,E,1,05,1.06,-6.9,M,-1.6,M,,*76
$GNGSA,A,3,14,28,17,19,06,,,,,,,,1.96,1.06,1.65*10
$GPGSV,4,1,14,01,11,042,,02,15,249,08,03,37,057,07,04,03,109,*72
$GPGSV,4,2,14,06,45,265,29,07,00,168,07,09,07,141,,14,83,152,27*7F
$GPGSV,4,3,14,17,48,360,28,19,37,327,28,22,13,042,11,24,00,309,*76
$GPGSV,4,4,14,28,76,329,26,30,20,200,07*7F
$GNGLL,2218.13102,N,11411.33748,E,062940.00,A,A*79
$GNGRS,062940.00,1,-4.6,-3.4,-4.5,-1.3,3.4,,,,,,,*76
$GNGST,062940.00,35,,,,3.2,3.1,7.3*41
$GNZDA,062940.00,21,05,2021,00,00*76
$GNRMC,062941.00,A,2218.13109,N,11411.33566,E,6.522,269.11,210521,,,A*71
$GNVTG,269.11,T,,M,6.522,N,12.079,K,A*10
$GNGNS,062941.00,2218.13109,N,11411.33566,E,AN,06,1.19,-7.6,-1.6,,*54
$GNGGA,062941.00,2218.13109,N,11411.33566,E,1,06,1.19,-7.6,M,-1.6,M,,*71
$GNGSA,A,3,14,28,17,19,03,06,,,,,,,2.22,1.19,1.87*1D
$GPGSV,4,1,14,01,11,042,,02,15,249,09,03,37,057,17,04,03,109,*72
$GPGSV,4,2,14,06,45,265,29,07,00,168,07,09,07,141,,14,83,152,26*7E
$GPGSV,4,3,14,17,48,360,28,19,37,327,27,22,13,042,14,24,00,309,*7C
$GPGSV,4,4,14,28,76,329,26,30,20,200,07*7F
$GNRMC,062942.00,A,2218.13118,N,11411.33393,E,6.480,269.30,210521,,,A*74
$GNVTG,269.30,T,,M,6.480,N,12.001,K,A*15
$GNGNS,062942.00,2218.13118,N,11411.33393,E,AN,07,0.91,-8.2,-1.6,,*50
$GNGGA,062942.00,2218.13118,N,11411.33393,E,1,07,0.91,-8.2,M,-1.6,M,,*75
$GNGSA,A,3,14,28,17,19,03,06,30,,,,,,1.54,0.91,1.24*14
$GPGSV,4,1,14,01,11,042,,02,15,249,11,03,37,057,12,04,03,109,*7E
$GPGSV,4,2,14,06,45,265,29,07,00,168,07,09,07,141,,14,83,152,25*7D
$GNRMC,062943.00,A,2218.13122,N,11411.33219,E,6.446,269.44,210521,,,A*76
$GNVTG,269.44,T,,M,6.446,N,11.938,K,A*1C
$GNGNS,062943.00,2218.13122,N,11411.33219,E,AN,08,0.90,-8.8,-1.6,,*5F
$GNGGA,062943.00,2218.13122,N,11411.33219,E,1,08,0.90,-8.8,M,-1.6,M,,*7A
$GNGSA,A,3,14,28,17,19,03,06,02,30,,,,,1.62,0.90,1.34*13
$GPGSV,4,1,14,01,11,042,,02,15,249,12,03,37,057,22,04,03,109,*7E
$GPGSV,4,2,14,06,45,265,28,07,00,168,07,09,07,141,,14,83,152,26*7F
$GPGSV,4,3,14,17,48,360,28,19,37,327,28,22,13,042,12,24,00,309,*75
$GNRMC,062944.00,A,2218.13115,N,11411.33044,E,6.401,269.48,210521,,,A*70
$GNVTG,269.48,T,,M,6.401,N,11.854,K,A*18
$GNGNS,062944.00,2218.13115,N,11411.33044,E,AN,09,0.79,-8.9,-1.6,,*51
$GNGGA,062944.00,2218.13115,N,11411.33044,E,1,09,0.79,-8.9,M,-1.6,M,,*74
$GNGSA,A,3,14,28,17,19,03,22,06,02,30,,,,1.34,0.79,1.09*19
$GPGSV,4,1,14,01,11,042,,02,15,249,12,03,37,057,23,04,03,109,*7F
$GPGSV,4,2,14,06,45,265,32,07,00,168,09,09,07,141,,14,83,152,32*7F
$GPGSV,4,3,14,17,48,360,30,19,37,327,30,22,13,042,11,24,00,309,*76
$GNRMC,062945.00,A,2218.13101,N,11411.32933,E,6.273,269.42,210521,,,A*75
$GNVTG,269.42,T,,M,6.273,N,11.617,K,A*18
$GNGNS,062945.00,2218.13101,N,11411.32933,E,AN,09,0.71,-9.3,-1.6,,*5E
$GNGGA,062945.00,2218.13101,N,11411.32933,E,1,09,0.71,-9.3,M,-1.6,M,,*7B
$GPGSV,4,1,14,01,11,042,,02,15,249,12,03,37,057,25,04,03,109,*79
$GNRMC,062946.00,A,2218.13085,N,11411.32846,E,6.104,269.31,210521,,,A*7F
$GNVTG,269.31,T,,M,6.104,N,11.305,K,A*19
$GNGNS,062946.00,2218.13085,N,11411.32846,E,AN,09,0.81,-9.9,-1.6,,*56
$GNGGA,062946.00,2218.13085,N,11411.32846,E,1,09,0.81,-9.9,M,-1.6,M,,*73
$GNGSA,A,3,14,28,17,19,03,22,06,02,30,,,,1.61,0.81,1.39*1D
$GPGSV,4,1,14,01,11,042,,02,15,249,14,03,37,057,27,04,03,109,*7D
$GPGSV,4,2,14,06,45,265,34,07,00,168,08,09,07,141,,14,83,152,31*7B
$GPGSV,4,3,14,17,48,360,32,19,37,327,31,22,13,042,14,24,00,309,*70
$GPGSV,4,4,14,28,76,329,28,30,20,200,10*77
$GNGLL,2218.13085,N,11411.32846,E,062946.00,A,A*71
$GNGRS,062946.00,1,-0.3,0.9,-1.4,-1.8,2.6,-41.3,2.4,-27.6,-49.7,,,*4A
$GNGST,062946.00,31,,,,3.1,3.0,7.2*40
$GNRMC,062947.00,A,2218.13089,N,11411.32816,E,5.865,269.30,210521,,,A*7B
$GNVTG,269.30,T,,M,5.865,N,10.862,K,A*1E
$GNGNS,062947.00,2218.13089,N,11411.32816,E,AN,08,0.73,-11.2,-1.6,,*60
$GNGGA,062947.00,2218.13089,N,11411.32816,E,1,08,0.73,-11.2,M,-1.6,M,,*45
$GNGSA,A,3,14,28,17,19,03,22,06,02,,,,,1.34,0.73,1.12*1A
$GPGSV,4,1,14,01,11,042,,02,15,249,09,03,37,057,27,04,03,109,*71
$GPGSV,4,2,14,06,45,265,32,07,00,168,10,09,07,141,,14,83,152,30*75
$GNRMC,062948.00,A,2218.13105,N,11411.32784,E,5.637,269.43,210521,,,A*78
$GNVTG,269.43,T,,M,5.637,N,10.440,K,A*1F
$GNGNS,062948.00,2218.13105,N,11411.32784,E,AN,09,0.71,-12.5,-1.6,,*69
$GNGGA,062948.00,2218.13105,N,11411.32784,E,1,09,0.71,-12.5,M,-1.6,M,,*4C
$GNGSA,A,3,14,28,17,19,03,22,06,02,30,,,,1.33,0.71,1.12*1C
$GPGSV,4,1,14,01,11,042,,02,15,249,10,03,37,057,28,04,03,109,*76
$GPGSV,4,2,14,06,45,265,31,07,00,168,,09,07,141,,14,83,152,30*77
$GPGSV,4,3,14,17,48,360,30,19,37,327,31,22,13,042,16,24,00,309,*70
$GPGSV,4,4,14,28,76,329,26,30,20,200,10*79
$GNGLL,2218.13105,N,11411.32784,E,062948.00,A,A*77
$GNGRS,062948.00,1,-1.4,2.7,-5.8,-2.2,-3.8,-42.8,0.8,21.8,15.1,,,*6C
$GNRMC,062949.00,A,2218.13117,N,11411.32734,E,5.442,269.64,210521,,,A*74
$GNVTG,269.64,T,,M,5.442,N,10.079,K,A*14
$GNGNS,062949.00,2218.13117,N,11411.32734,E,AN,09,0.84,-13.3,-1.6,,*6D
$GNGGA,062949.00,2218.13117,N,11411.32734,E,1,09,0.84,-13.3,M,-1.6,M,,*48
$GNGSA,A,3,14,28,17,19,03,22,06,02,30,,,,1.90,0.84,1.71*1A
$GPGSV,4,1,14,01,11,042,16,02,15,249,12,03,37,057,28,04,03,109,*73
$GPGSV,4,2,14,06,45,265,31,07,00,168,,09,07,141,,14,83,152,29*7F
$GPGSV,4,3,14,17,48,360,31,19,37,327,31,22,13,042,16,24,00,309,*71
$GPGSV,4,4,14,28,76,329,26,30,20,200,10*79
$GNGLL,2218.13117,N,11411.32734,E,062949.00,A,A*7E
$GNGRS,062949.00,1,3.8,6.5,-9.0,-2.6,-9.2,-42.2,-0.6,-123,-102,,,*6C
$GNGST,062949.00,27,,,,3.1,2.9,7.1*43
$GNRMC,062950.00,A,2218.13127,N,11411.32693,E,5.249,269.86,210521,,,A*72
$GNVTG,269.86,T,,M,5.249,N,9.721,K,A*27
$GNGNS,062950.00,2218.13127,N,11411.32693,E,AN,08,0.76,-14.2,-1.6,,*60
$GNGGA,062950.00,2218.13127,N,11411.32693,E,1,08,0.76,-14.2,M,-1.6,M,,*45
$GNGSA,A,3,14,28,17,19,03,22,06,02,,,,,1.44,0.76,1.23*1A
$GPGSV,4,1,14,01,11,042,12,02,15,249,10,03,37,057,28,04,03,109,*75
$GPGSV,4,2,14,06,45,265,31,07,00,168,,09,07,141,,14,83,152,29*7F
$GPGSV,4,3,14,17,48,360,30,19,37,327,31,22,13,042,16,24,00,309,*70
$GPGSV,4,4,14,28,76,329,26,30,20,200,08*70
$GNGLL,2218.13127,N,11411.32693,E,062950.00,A,A*79
$GNGRS,062950.00,1,4.0,8.1,-7.4,-4.3,-11.2,-39.8,-1.8,20.6,,,,*41
$GNGST,062950.00,352139,,,,3.1,2.8,7.1*40
$GNGBS,062950.00,3.1,2.8,7.1,,,,*59
$GNVLW,,N,,N,0.000,N,0.000,N*44
$GNRMC,062951.00,A,2218.13140,N,11411.32637,E,5.089,270.12,210521,,,A*77
$GNVTG,270.12,T,,M,5.089,N,9.426,K,A*28
$GNGNS,062951.00,2218.13140,N,11411.32637,E,AN,09,0.77,-14.8,-1.6,,*64
$GNGGA,062951.00,2218.13140,N,11411.32637,E,1,09,0.77,-14.8,M,-1.6,M,,*41
$GNGSA,A,3,14,28,17,19,03,22,06,02,30,,,,1.56,0.77,1.36*1F
$GPGSV,4,1,14,01,11,042,09,02,15,249,13,03,37,057,28,04,03,109,*7C
$GPGSV,4,2,14,06,45,265,31,07,00,168,,09,07,141,,14,83,152,29*7F
$GPGSV,4,3,14,17,48,360,31,19,37,327,31,22,13,042,17,24,00,309,*70
$GPGSV,4,4,14,28,76,329,26,30,20,200,13*7A
$GNGLL,2218.13140,N,11411.32637,E,062951.00,A,A*77
$GNRMC,062952.00,A,2218.13152,N,11411.32589,E,4.926,270.38,210521,,,A*74
$GNVTG,270.38,T,,M,4.926,N,9.124,K,A*2A
$GNGNS,062952.00,2218.13152,N,11411.32589,E,AN,07,0.89,-15.5,-1.6,,*61
$GNGGA,062952.00,2218.13152,N,11411.32589,E,1,07,0.89,-15.5,M,-1.6,M,,*44
$GNGSA,A,3,14,28,17,19,03,22,06,,,,,,2.03,0.89,1.83*12
$GPGSV,4,1,14,01,11,042,09,02,15,249,07,03,37,057,28,04,03,109,*79
$GNRMC,062953.00,A,2218.13158,N,11411.32555,E,4.747,270.65,210521,,,A*7F
$GNVTG,270.65,T,,M,4.747,N,8.792,K,A*21
$GNGNS,062953.00,2218.13158,N,11411.32555,E,AN,08,0.81,-16.5,-1.6,,*6F
$GNGGA,062953.00,2218.13158,N,11411.32555,E,1,08,0.81,-16.5,M,-1.6,M,,*4A
$GNGSA,A,3,14,28,17,19,03,22,06,02,,,,,1.52,0.81,1.28*1E
$GPGSV,4,1,14,01,11,042,10,02,15,249,10,03,37,057,28,04,03,109,*77
$GPGSV,4,2,14,06,45,265,30,07,00,168,,09,07,141,,14,83,152,29*7E
$GPGSV,4,3,14,17,48,360,30,19,37,327,31,22,13,042,17,24,00,309,*71
$GNRMC,062954.00,A,2218.13166,N,11411.32520,E,4.583,270.91,210521,,,A*76
$GNVTG,270.91,T,,M,4.583,N,8.488,K,A*28
$GNGNS,062954.00,2218.13166,N,11411.32520,E,AN,09,0.75,-17.3,-1.6,,*6A
$GNGGA,062954.00,2218.13166,N,11411.32520,E,1,09,0.75,-17.3,M,-1.6,M,,*4F
$GNGSA,A,3,14,28,17,01,19,03,22,06,30,,,,1.36,0.75,1.13*1F
$GPGSV,4,1,14,01,11,042,11,02,15,249,08,03,37,057,28,04,03,109,*7F
$GPGSV,4,2,14,06,45,265,31,07,00,168,,09,07,141,,14,83,152,30*77
$GNRMC,062955.00,A,2218.13181,N,11411.32489,E,4.423,271.22,210521,,,A*7E
$GNVTG,271.22,T,,M,4.423,N,8.192,K,A*24
$GNGNS,062955.00,2218.13181,N,11411.32489,E,AN,09,0.89,-17.8,-1.6,,*68
$GNGGA,062955.00,2218.13181,N,11411.32489,E,1,09,0.89,-17.8,M,-1.6,M,,*4D
$GNGSA,A,3,14,28,17,19,03,22,06,02,30,,,,2.03,0.89,1.83*13
$GNRMC,062956.00,A,2218.13188,N,11411.32452,E,4.288,271.49,210521,,,A*78
$GNVTG,271.49,T,,M,4.288,N,7.941,K,A*27
$GNGNS,062956.00,2218.13188,N,11411.32452,E,AN,09,0.75,-18.4,-1.6,,*64
$GNGGA,062956.00,2218.13188,N,11411.32452,E,1,09,0.75,-18.4,M,-1.6,M,,*41
$GNGSA,A,3,14,28,17,19,03,22,06,02,30,,,,1.37,0.75,1.15*1B
$GPGSV,4,1,14,01,11,043,08,02,15,249,10,03,37,057,28,04,03,109,*7F
$GPGSV,4,2,14,06,45,265,30,07,00,168,,09,07,141,,14,83,152,29*7E
$GPGSV,4,3,14,17,48,360,29,19,37,327,31,22,13,042,15,24,00,309,*7B
$GPGSV,4,4,14,28,76,329,26,30,20,200,10*79
$GNGLL,2218.13188,N,11411.32452,E,062956.00,A,A*75
$GNRMC,062957.00,A,2218.13194,N,11411.32414,E,4.161,271.71,210521,,,A*79
$GNVTG,271.71,T,,M,4.161,N,7.707,K,A*24
$GNGNS,062957.00,2218.13194,N,11411.32414,E,AN,09,0.75,-18.8,-1.6,,*66
$GNGGA,062957.00,2218.13194,N,11411.32414,E,1,09,0.75,-18.8,M,-1.6,M,,*43
$GNGSA,A,3,14,28,17,19,03,22,06,02,30,,,,1.37,0.75,1.15*1B
$GPGSV,4,1,14,01,11,043,08,02,15,250,12,03,37,057,28,04,03,109,*75
$GPGSV,4,2,14,06,45,265,30,07,00,168,,09,07,141,,14,83,152,30*76
$GNRMC,062958.00,A,2218.13200,N,11411.32376,E,4.044,271.89,210521,,,A*7A
$GNVTG,271.89,T,,M,4.044,N,7.489,K,A*20
$GNGNS,062958.00,2218.13200,N,11411.32376,E,AN,08,0.89,-19.4,-1.6,,*6B
$GNGGA,062958.00,2218.13200,N,11411.32376,E,1,08,0.89,-19.4,M,-1.6,M,,*4E
$GNGSA,A,3,14,28,17,19,03,22,06,02,,,,,2.03,0.89,1.83*10
$GPGSV,4,1,14,01,11,043,08,02,15,250,09,03,36,056,28,04,03,109,*7F
$GPGSV,4,2,14,06,45,265,30,07,00,168,,09,07,141,,14,83,152,30*76
$GPGSV,4,3,14,17,48,360,29,19,37,327,32,22,13,042,16,24,00,309,*7B
$GNRMC,062959.00,A,2218.13210,N,11411.32318,E,3.958,272.10,210521,,,A*72
$GNVTG,272.10,T,,M,3.958,N,7.330,K,A*25
$GNGNS,062959.00,2218.13210,N,11411.32318,E,AN,09,0.75,-20.0,-1.6,,*6F
$GNGGA,062959.00,2218.13210,N,11411.32318,E,1,09,0.75,-20.0,M,-1.6,M,,*4A
$GNGSA,A,3,14,28,17,19,03,22,06,02,30,,,,1.37,0.75,1.15*1B
$GPGSV,4,1,14,01,11,043,08,02,15,250,11,03,36,056,28,04,03,109,*76
$GPGSV,4,2,14,06,45,265,30,07,00,168,,09,07,141,,14,83,152,30*76
$GNRMC,063000.00,A,2218.13217,N,11411.32285,E,3.847,272.29,210521,,,A*71
$GNVTG,272.29,T,,M,3.847,N,7.125,K,A*26
$GNGNS,063000.00,2218.13217,N,11411.32285,E,AN,08,0.81,-20.3,-1.6,,*60
$GNGGA,063000.00,2218.13217,N,11411.32285,E,1,08,0.81,-20.3,M,-1.6,M,,*45
$GNGSA,A,3,14,28,17,19,03,22,06,02,,,,,1.52,0.81,1.28*1E
$GPGSV,4,1,14,01,11,043,,02,15,250,09,03,36,056,28,04,03,109,*77
$GPGSV,4,2,14,06,45,265,30,07,00,168,,09,07,141,,14,83,152,31*77
$GPGSV,4,3,14,17,48,360,30,19,37,327,32,22,13,042,17,24,00,309,*72
$GPGSV,4,4,14,28,76,329,27,30,20,200,07*7E
$GNRMC,063002.00,A,2218.13227,N,11411.32210,E,3.656,272.63,210521,,,A*7C
$GNVTG,272.63,T,,M,3.656,N,6.770,K,A*21
$GNGNS,063002.00,2218.13227,N,11411.32210,E,AN,09,0.75,-21.1,-1.6,,*64
$GNGGA,063002.00,2218.13227,N,11411.32210,E,1,09,0.75,-21.1,M,-1.6,M,,*41
$GNGSA,A,3,14,28,17,19,03,22,06,02,30,,,,1.37,0.75,1.15*1B
$GPGSV,4,1,14,01,11,043,,02,15,250,13,03,36,056,28,04,03,109,*7C
$GPGSV,4,2,14,06,45,266,30,07,00,168,,09,07,141,,14,83,152,30*75
$GPGSV,4,3,14,17,48,360,29,19,37,327,31,22,13,042,17,24,00,309,*79
$GPGSV,4,4,14,28,76,329,27,30,20,200,10*78
$GNGLL,2218.13227,N,11411.32210,E,063002.00,A,A*7A
$GNGRS,063002.00,1,5.4,6.1,-5.1,-9.2,1.8,-45.1,4.4,20.0,15.3,,,*61
$GNGST,063002.00,2734401,,,,2.9,2.4,6.8*7A
$GNZDA,063002.00,21,05,2021,00,00*78
$GNGBS,063002.00,2.9,2.4,6.8,,,,*5B
$GNVLW,,N,,N,0.000,N,0.000,N*44
$PUBX,00,063002.00,2218.13227,N,11411.32210,E,-22.717,G3,3.8,6.8,6.770,272.63,1.122,,0.75,1.15,0.88,9,0,0*7E
$PUBX,03,32,1,e,043,11,,000,2,U,250,15,13,000,3,U,056,36,28,017,4,-,109,03,,000,6,U,266,45,30,004,7,e,168,00,,000,9,-,141,07,,000,14,U,152,83,30,004,17,U,360,48,29,014,19,U,327,37,31,025,22,e,042,13,17,000,24,-,309,00,,000,28,U,329,76,27,018,30,U,200,20,10,000,159,U,123,47,29,003,160,U,236,47,30,000,161,U,190,64,30,005,162,e,109,33,27,000,163,-,255,23,,000,33,-,174,05,,000,34,U,123,75,30,008,35,U,312,74,30,018,36,-,199,04,,000,37,U,327,75,28,012,38,U,330,44,29,003,39,U,040,35,27,010,40,U,255,61,31,012,41,-,179,17,,000,43,-,180,04,,000,48,U,093,37,34,018,49,e,047,09,,000,50,e,308,19,,000*14
$PUBX,04,063002.00,210521,455401.99,2158,18,499704,496.231,21*12
$GNRMC,063003.00,A,2218.13233,N,11411.32175,E,3.567,272.78,210521,,,A*73
$GNVTG,272.78,T,,M,3.567,N,6.605,K,A*29
$GNGNS,063003.00,2218.13233,N,11411.32175,E,AN,09,0.75,-21.5,-1.6,,*64
$GNGGA,063003.00,2218.13233,N,11411.32175,E,1,09,0.75,-21.5,M,-1.6,M,,*41
$GNGSA,A,3,14,28,17,19,03,22,06,02,30,,,,1.37,0.75,1.15*1B
$GPGSV,4,1,14,01,11,043,,02,15,250,11,03,36,056,28,04,03,109,*7E
$GPGSV,4,2,14,06,45,266,30,07,00,168,,09,07,141,,14,83,152,30*75
$GPGSV,4,3,14,17,48,360,30,19,37,327,31,22,13,042,16,24,00,309,*70
$GPGSV,4,4,14,28,76,329,28,30,20,200,10*77
$GNGLL,2218.13233,N,11411.32175,E,063003.00,A,A*7E
$GNGRS,063003.00,1,6.1,6.2,-2.9,-7.5,2.8,-47.4,4.5,21.5,15.8,,,*69
$?ˇˇP?ˇˇ?
$?ˇˇP?ˇˇ?
$GNRMC,063004.00,A,2218.13240,N,11411.32134,E,3.492,272.92,210521,,,A*7A
$GNVTG,272.92,T,,M,3.492,N,6.467,K,A*20
$GNGNS,063004.00,2218.13240,N,11411.32134,E,AN,09,0.89,-21.9,-1.6,,*6D
$GNGGA,063004.00,2218.13240,N,11411.32134,E,1,09,0.89,-21.9,M,-1.6,M,,*48
$GNGSA,A,3,14,28,17,19,03,22,06,02,30,,,,2.03,0.89,1.83*13
$GPGSV,4,1,14,01,11,043,,02,15,250,12,03,36,056,28,04,03,109,*7D
$GPGSV,4,2,14,06,45,266,30,07,00,168,,09,07,141,,14,83,152,30*75
$GPGSV,4,3,14,17,48,360,30,19,37,327,31,22,13,042,17,24,00,309,*71
$GPGSV,4,4,14,28,76,329,28,30,20,200,09*7F
$GNRMC,063005.00,A,2218.13243,N,11411.32061,E,3.458,273.01,210521,,,A*74
$GNVTG,273.01,T,,M,3.458,N,6.404,K,A*28
$GNGNS,063005.00,2218.13243,N,11411.32061,E,AN,09,0.75,-22.8,-1.6,,*6F
$GNGGA,063005.00,2218.13243,N,11411.32061,E,1,09,0.75,-22.8,M,-1.6,M,,*4A
$GNGSA,A,3,14,28,17,19,03,22,06,02,30,,,,1.37,0.75,1.15*1B
$GPGSV,4,1,14,01,11,043,,02,15,250,13,03,36,056,28,04,03,109,*7C
$GPGSV,4,2,14,06,45,266,30,07,00,168,,09,07,141,,14,83,152,30*75
$GNRMC,063007.00,A,2218.13254,N,11411.31970,E,3.343,273.17,210521,,,A*70
$GNVTG,273.17,T,,M,3.343,N,6.191,K,A*2B
$GNGNS,063007.00,2218.13254,N,11411.31970,E,AN,09,0.89,-23.7,-1.6,,*6C
$GNGGA,063007.00,2218.13254,N,11411.31970,E,1,09,0.89,-23.7,M,-1.6,M,,*49
$GNGSA,A,3,14,28,17,19,03,22,06,02,30,,,,2.03,0.89,1.83*13
$GPGSV,4,1,14,01,11,043,06,02,15,250,09,03,36,056,28,04,03,109,*71
$GPGSV,4,2,14,06,45,266,35,07,00,168,,09,07,141,,14,83,152,31*71
$GPGSV,4,3,14,17,48,360,31,19,37,327,32,22,13,042,18,24,00,309,*7C
$GPGSV,4,4,14,28,76,329,28,30,20,200,09*7F
$GNGLL,2218.13254,N,11411.31970,E,063007.00,A,A*75
$GNRMC,063008.00,A,2218.13251,N,11411.31942,E,3.270,273.23,210521,,,A*7D
$GNVTG,273.23,T,,M,3.270,N,6.055,K,A*24
$GNGNS,063008.00,2218.13251,N,11411.31942,E,AN,09,0.71,-23.9,-1.6,,*6E
$GNGGA,063008.00,2218.13251,N,11411.31942,E,1,09,0.71,-23.9,M,-1.6,M,,*4B
$GNGSA,A,3,14,28,17,19,03,22,06,02,30,,,,1.33,0.71,1.12*1C
$GPGSV,4,1,14,01,11,043,07,02,15,250,09,03,36,056,28,04,03,109,20*72
$GPGSV,4,2,14,06,45,266,32,07,00,168,,09,07,141,,14,82,153,31*76
$GPGSV,4,3,14,17,48,360,31,19,37,327,32,22,13,042,20,24,00,309,*77
$GPGSV,4,4,14,28,76,329,28,30,20,200,11*76
$GNRMC,063009.00,A,2218.13258,N,11411.31908,E,3.206,273.35,210521,,,A*7D
$GNVTG,273.35,T,,M,3.206,N,5.938,K,A*23
$GNGNS,063009.00,2218.13258,N,11411.31908,E,AN,09,0.71,-24.1,-1.6,,*67
$GNGGA,063009.00,2218.13258,N,11411.31908,E,1,09,0.71,-24.1,M,-1.6,M,,*42
$GNGSA,A,3,14,28,17,19,03,22,06,02,30,,,,1.33,0.71,1.12*1C
$GPGSV,4,1,14,01,11,043,08,02,15,250,09,03,36,056,28,04,03,109,18*76
$GNRMC,063010.00,A,2218.13262,N,11411.31876,E,3.144,273.46,210521,,,A*75
$GNVTG,273.46,T,,M,3.144,N,5.822,K,A*28
$GNGNS,063010.00,2218.13262,N,11411.31876,E,AN,09,0.84,-24.3,-1.6,,*66
$GNGGA,063010.00,2218.13262,N,11411.31876,E,1,09,0.84,-24.3,M,-1.6,M,,*43
$GNGSA,A,3,14,28,17,19,03,22,06,02,30,,,,1.90,0.84,1.71*1A
$GPGSV,4,1,14,01,11,043,08,02,15,250,10,03,36,056,28,04,03,109,17*71
$GPGSV,4,2,14,06,45,266,32,07,00,168,05,09,07,141,,14,82,153,30*72
$GNRMC,063011.00,A,2218.13265,N,11411.31852,E,3.078,273.56,210521,,,A*7A
$GNVTG,273.56,T,,M,3.078,N,5.701,K,A*29
$GNGNS,063011.00,2218.13265,N,11411.31852,E,AN,08,0.74,-24.4,-1.6,,*6F
$GNGGA,063011.00,2218.13265,N,11411.31852,E,1,08,0.74,-24.4,M,-1.6,M,,*4A
$GNGSA,A,3,14,28,17,19,03,22,06,30,,,,,1.52,0.74,1.33*1F
$GPGSV,4,1,14,01,11,043,08,02,15,250,08,03,36,056,28,04,03,109,18*77
$GPGSV,4,2,14,06,45,266,32,07,00,168,06,09,07,141,,14,82,153,30*71
$GNTXT,01,01,00,txbuf
$GNRMC,063012.00,A,2218.13276,N,11411.31817,E,3.027,273.72,210521,,,A*76
$GNVTG,273.72,T,,M,3.027,N,5.606,K,A*23
$GNGNS,063012.00,2218.13276,N,11411.31817,E,AN,09,0.74,-24.2,-1.6,,*68
$GNGGA,063012.00,2218.13276,N,11411.31817,E,1,09,0.74,-24.2,M,-1.6,M,,*4D
$GNGSA,A,3,14,28,17,19,03,22,06,02,30,,,,1.52,0.74,1.33*1D
$GPGSV,4,1,14,01,11,043,09,02,15,250,09,03,36,056,28,04,03,109,20*7C
$GPGSV,4,2,14,06,45,266,32,07,00,168,08,09,07,141,,14,82,153,30*7F
$GPGSV,4,3,14,17,48,001,29,19,37,327,31,22,13,042,16,24,00,309,*7C
$GPGSV,4,4,14,28,76,329,28,30,20,200,11*76
$GNGLL,2218.13276,N,11411.31817,E,063012.00,A,A*71
$GNRMC,063013.00,A,2218.13286,N,11411.31791,E,2.969,273.90,210521,,,A*77
$GNVTG,273.90,T,,M,2.969,N,5.498,K,A*28
$GNGNS,063013.00,2218.13286,N,11411.31791,E,AN,09,0.89,-24.3,-1.6,,*64
$GNGGA,063013.00,2218.13286,N,11411.31791,E,1,09,0.89,-24.3,M,-1.6,M,,*41
$GNGSA,A,3,14,28,17,19,03,22,06,02,30,,,,2.03,0.89,1.83*13
$GPGSV,4,1,14,01,11,043,08,02,15,250,11,03,36,056,29,04,03,109,19*7F
$GPGSV,4,2,14,06,45,266,32,07,00,168,08,09,07,141,,14,82,153,30*7F
$GPGSV,4,3,14,17,48,001,30,19,37,327,31,22,13,042,16,24,00,309,*74
$GPGSV,4,4,14,28,76,329,28,30,20,200,10*77
$GNGLL,2218.13286,N,11411.31791,E,063013.00,A,A*7E
$GNRMC,063014.00,A,2218.13295,N,11411.31763,E,2.914,274.10,210521,,,A*7A
$GNVTG,274.10,T,,M,2.914,N,5.396,K,A*24
$GNGNS,063014.00,2218.13295,N,11411.31763,E,AN,09,0.75,-24.4,-1.6,,*68
$GNGGA,063014.00,2218.13295,N,11411.31763,E,1,09,0.75,-24.4,M,-1.6,M,,*4D
$GNGSA,A,3,14,28,17,19,03,22,06,02,30,,,,1.37,0.75,1.15*1B
$GPGSV,4,1,14,01,11,043,08,02,15,250,10,03,36,056,29,04,03,109,18*7F
$GNRMC,063015.00,A,2218.13297,N,11411.31735,E,2.862,274.24,210521,,,A*7D
$GNVTG,274.24,T,,M,2.862,N,5.300,K,A*2C
$GNGNS,063015.00,2218.13297,N,11411.31735,E,AN,09,0.75,-24.5,-1.6,,*69
$GNGGA,063015.00,2218.13297,N,11411.31735,E,1,09,0.75,-24.5,M,-1.6,M,,*4C
$GNGSA,A,3,14,28,17,19,03,22,06,02,30,,,,1.37,0.75,1.15*1B
$GPGSV,4,1,14,01,11,043,08,02,15,250,11,03,36,056,30,04,03,109,17*79
$GPGSV,4,2,14,06,45,266,32,07,00,168,09,09,07,141,,14,82,153,30*7E
$GPGSV,4,3,14,17,48,001,30,19,37,327,31,22,13,042,18,24,00,309,*7A
$GPGSV,4,4,14,28,76,329,28,30,20,200,11*76
$GNRMC,063016.00,A,2218.13295,N,11411.31708,E,2.811,274.31,210521,,,A*72
$GNVTG,274.31,T,,M,2.811,N,5.206,K,A*2B
$GNGNS,063016.00,2218.13295,N,11411.31708,E,AN,09,0.89,-24.6,-1.6,,*66
$GNGGA,063016.00,2218.13295,N,11411.31708,E,1,09,0.89,-24.6,M,-1.6,M,,*43
$GNGSA,A,3,14,28,17,19,03,22,06,02,30,,,,2.03,0.89,1.83*13
$GPGSV,4,1,14,01,11,043,07,02,15,250,09,03,36,056,29,04,03,109,16*76
$GPGSV,4,2,14,06,45,266,32,07,00,168,09,09,07,141,,14,82,153,31*7F
$GNRMC,063017.00,A,2218.13301,N,11411.31685,E,2.759,274.40,210521,,,A*7E
$GNVTG,274.40,T,,M,2.759,N,5.109,K,A*22
$GNGNS,063017.00,2218.13301,N,11411.31685,E,AN,08,0.77,-24.6,-1.6,,*6F
$GNGGA,063017.00,2218.13301,N,11411.31685,E,1,08,0.77,-24.6,M,-1.6,M,,*4A
$GNGSA,A,3,14,28,17,19,03,22,06,30,,,,,1.56,0.77,1.35*1E
$GPGSV,4,1,14,01,11,043,08,02,15,250,08,03,36,056,29,04,03,109,17*79
$GNRMC,063018.00,A,2218.13306,N,11411.31664,E,2.709,274.50,210521,,,A*7D
$GNVTG,274.50,T,,M,2.709,N,5.016,K,A*29
$GNGNS,063018.00,2218.13306,N,11411.31664,E,AN,08,0.77,-24.6,-1.6,,*68
$GNGGA,063018.00,2218.13306,N,11411.31664,E,1,08,0.77,-24.6,M,-1.6,M,,*4D
$GNGSA,A,3,14,28,17,19,03,22,06,30,,,,,1.56,0.77,1.35*1E
$GPGSV,4,1,14,01,11,043,08,02,15,250,06,03,36,056,29,04,03,109,16*76
$GPGSV,4,2,14,06,45,266,32,07,00,168,09,09,07,141,,14,82,153,31*7F
$GPGSV,4,3,14,17,48,001,30,19,37,327,31,22,12,042,16,24,00,308,*74
$GPGSV,4,4,14,28,76,329,28,30,20,200,09*7F
$GNGLL,2218.13306,N,11411.31664,E,063018.00,A,A*77
$GNRMC,063020.00,A,2218.13323,N,11411.31613,E,2.623,274.77,210521,,,A*7D
$GNVTG,274.77,T,,M,2.623,N,4.858,K,A*26
$GNGNS,063020.00,2218.13323,N,11411.31613,E,AN,09,0.75,-24.7,-1.6,,*66
$GNGGA,063020.00,2218.13323,N,11411.31613,E,1,09,0.75,-24.7,M,-1.6,M,,*43
$GNGSA,A,3,14,28,17,19,03,22,06,02,30,,,,1.37,0.75,1.15*1B
$GPGSV,4,1,14,01,11,043,10,02,15,250,11,03,36,056,29,04,03,109,18*77
$GNRMC,063021.00,A,2218.13324,N,11411.31597,E,2.576,274.84,210521,,,A*7B
$GNVTG,274.84,T,,M,2.576,N,4.772,K,A*2E
$GNGNS,063021.00,2218.13324,N,11411.31597,E,AN,09,0.75,-24.8,-1.6,,*60
$GNGGA,063021.00,2218.13324,N,11411.31597,E,1,09,0.75,-24.8,M,-1.6,M,,*45
$GNGSA,A,3,14,28,17,19,03,22,06,02,30,,,,1.37,0.75,1.15*1B
$GPGSV,4,1,14,01,11,043,13,02,15,250,12,03,36,056,30,04,03,109,18*7F
$GPGSV,4,2,14,06,45,266,32,07,00,168,08,09,07,141,,14,82,153,31*7E
$GNRMC,063022.00,A,2218.13332,N,11411.31585,E,2.530,274.95,210521,,,A*7E
$GNVTG,274.95,T,,M,2.530,N,4.685,K,A*25
$GNGNS,063022.00,2218.13332,N,11411.31585,E,AN,08,0.84,-25.0,-1.6,,*61
$GNGGA,063022.00,2218.13332,N,11411.31585,E,1,08,0.84,-25.0,M,-1.6,M,,*44
$GNGSA,A,3,14,28,17,19,03,22,06,02,,,,,1.90,0.84,1.71*19
$GPGSV,4,1,14,01,11,043,13,02,15,250,10,03,36,056,30,04,03,109,17*72
$GPGSV,4,2,14,06,45,266,33,07,00,168,08,09,07,141,,14,82,153,31*7F
$GNTXT,01,01,00,txbuf
$GNRMC,063023.00,A,2218.13335,N,11411.31566,E,2.489,275.04,210521,,,A*7F
$GNVTG,275.04,T,,M,2.489,N,4.610,K,A*23
$GNGNS,063023.00,2218.13335,N,11411.31566,E,AN,09,0.71,-25.2,-1.6,,*63
$GNGGA,063023.00,2218.13335,N,11411.31566,E,1,09,0.71,-25.2,M,-1.6,M,,*46
