% program   : RTKLIB ver.2.4.3
% inp file  : /home/kcwian/Workspace/catkin_gnss/src/raw_gnss_rtklib/dataset/gps_solution_TST/COM3_190428_124409.obs
% inp file  : /home/kcwian/Workspace/catkin_gnss/src/raw_gnss_rtklib/dataset/gps_solution_TST/hksc1180.19o
% inp file  : /home/kcwian/Workspace/catkin_gnss/src/raw_gnss_rtklib/dataset/gps_solution_TST/hksc1180.19b
% inp file  : /home/kcwian/Workspace/catkin_gnss/src/raw_gnss_rtklib/dataset/gps_solution_TST/hksc1180.19n
% obs start : 2019/04/28 12:44:34.0 GPST (week2051  45874.0s)
% obs end   : 2019/04/28 13:13:53.0 GPST (week2051  47633.0s)
% pos mode  : Kinematic
% freqs     : L1+2
% solution  : Combined
% elev mask : 15.0 deg
% dynamics  : off
% tidecorr  : off
% ionos opt : Broadcast
% tropo opt : Saastamoinen
% ephemeris : Broadcast
% navi sys  : GPS GLONASS Galileo QZSS BDS NavIC SBAS
% amb res   : Fix and Hold
% amb glo   : ON
% val thres : 3.0
% antenna1  :                       ( 0.0000  0.0000  0.0000)
% antenna2  :                       ( 0.0000  0.0000  0.0000)
% ref pos   : 22.322172082, 114.141187963,   20.2386
%
% (lat/lon/height=WGS84/ellipsoidal,Q=1:fix,2:float,3:sbas,4:dgps,5:single,6:ppp,ns=# of satellites)
%  GPST        , latitude(deg),longitude(deg), height(m),  Q, ns,  sdn(m),  sde(m),  sdu(m), sdne(m), sdeu(m), sdun(m),age(s), ratio
2051, 45874.000,  22.301450394, 114.190267655,    7.3219,  2,  5,  0.3643,  0.4405,  3.4570, -0.3191, -1.0443,  0.8568,  4.00,   0.0
2051, 45876.000,  22.301449770, 114.190268851,    4.1003,  2,  4,  0.3778,  0.4536,  3.4845, -0.3367, -1.0672,  0.8843,  6.00,   0.0
2051, 45879.000,  22.301477199, 114.190294657,   11.3514,  2,  6,  0.2079,  0.2733,  1.5590,  0.0433, -0.5714,  0.2967,  9.00,   0.0
2051, 45880.000,  22.301476322, 114.190293514,   12.7074,  2,  6,  0.1943,  0.2622,  1.5345,  0.0874, -0.5544,  0.2630, 10.00,   0.0
2051, 45881.000,  22.301475795, 114.190293522,   12.8472,  2,  6,  0.1941,  0.2618,  1.5330,  0.0877, -0.5537,  0.2623, 11.00,   0.0
2051, 45882.000,  22.301473099, 114.190292595,   11.5956,  2,  6,  0.1941,  0.2618,  1.5329,  0.0879, -0.5536,  0.2622, 12.00,   0.0
2051, 45883.000,  22.301474219, 114.190306161,    6.2030,  2,  6,  0.2363,  0.2843,  1.5893,  0.2097, -0.5952, -0.3212, 13.00,   0.0
2051, 45884.000,  22.301481484, 114.190306467,    6.7679,  2,  5,  0.2374,  0.2852,  1.5945,  0.2095, -0.5975, -0.3226, 14.00,   0.0
2051, 45885.000,  22.301479259, 114.190305845,    4.5619,  2,  6,  0.2362,  0.2837,  1.5879,  0.2098, -0.5940, -0.3214, 15.00,   0.0
2051, 45886.000,  22.301478359, 114.190320553,  -12.8231,  2,  6,  0.1328,  0.1349,  0.6307,  0.0542, -0.2151,  0.1076, 16.00,   0.0
2051, 45887.000,  22.301478222, 114.190320590,  -12.6022,  2,  6,  0.1330,  0.1357,  0.6335,  0.0523, -0.2176,  0.1111, 17.00,   0.0
2051, 45888.000,  22.301475751, 114.190318899,  -12.8125,  2,  6,  0.1343,  0.1389,  0.6457,  0.0462, -0.2261,  0.1217, 18.00,   0.0
2051, 45889.000,  22.301469741, 114.190322447,  -14.8208,  2,  6,  0.1307,  0.1305,  0.6091,  0.0597, -0.2020,  0.0909, 19.00,   0.0
2051, 45890.000,  22.301440772, 114.190351594,  -71.6999,  2,  4,  0.1331,  0.1333,  0.8635,  0.0534, -0.2406,  0.1548, 20.00,   0.0
2051, 45891.000,  22.301460514, 114.190326835,  -23.9716,  2,  6,  0.1304,  0.1298,  0.6068,  0.0602, -0.2005,  0.0894, 21.00,   0.0
2051, 45892.000,  22.301466679, 114.190332065,  -24.7340,  2,  4,  0.1327,  0.1304,  0.6242,  0.0614, -0.2010,  0.1022, 22.00,   0.0
2051, 45893.000,  22.301469987, 114.190335723,  -26.5863,  2,  6,  0.1304,  0.1295,  0.6053,  0.0606, -0.1996,  0.0887, 23.00,   0.0
2051, 45894.000,  22.301517200, 114.190375470,  -32.7787,  2,  5,  0.2339,  0.1894,  0.6434,  0.1746, -0.2646, -0.1864, 24.00,   0.0
2051, 45895.000,  22.301474406, 114.190342540,  -27.2799,  2,  6,  0.1304,  0.1300,  0.6074,  0.0603, -0.2017,  0.0854, 25.00,   1.1
2051, 45896.000,  22.301474929, 114.190341135,  -26.8224,  2,  6,  0.1298,  0.1290,  0.5499,  0.0622, -0.1806,  0.0515, 26.00,  19.7
2051, 45897.000,  22.301472484, 114.190343241,  -30.2901,  2,  5,  0.1300,  0.1293,  0.5556,  0.0622, -0.1814,  0.0540, 27.00,   8.7
2051, 45898.000,  22.301473111, 114.190343732,  -29.9837,  2,  6,  0.1301,  0.1293,  0.5457,  0.0625, -0.1808,  0.0515, 28.00,  52.9
2051, 45899.000,  22.301474099, 114.190344616,  -29.7964,  2,  6,  0.1303,  0.1295,  0.5452,  0.0627, -0.1810,  0.0511, 29.00, 930.7
2051, 45900.000,  22.301473627, 114.190343097,  -29.4429,  2,  6,  0.1293,  0.1283,  0.5417,  0.0625, -0.1800,  0.0521, -0.00,  17.7
2051, 45901.000,  22.301474770, 114.190343477,  -28.8574,  2,  5,  0.1314,  0.1267,  0.5930,  0.0513, -0.1967,  0.0728,  1.00,   3.5
2051, 45902.000,  22.301474411, 114.190342526,  -28.3507,  2,  5,  0.1310,  0.1262,  0.5659,  0.0514, -0.1955,  0.0726,  2.00, 201.3
2051, 45903.000,  22.301472191, 114.190345009,  -28.8740,  2,  6,  0.1296,  0.1246,  0.5561,  0.0542, -0.1906,  0.0618,  3.00,  12.9
2051, 45904.000,  22.301472569, 114.190343718,  -28.2598,  2,  6,  0.1294,  0.1244,  0.5558,  0.0544, -0.1904,  0.0607,  4.00,   3.1
2051, 45905.000,  22.301469706, 114.190342068,  -27.8103,  2,  5,  0.1315,  0.1250,  0.5584,  0.0570, -0.1908,  0.0614,  5.00,   4.6
2051, 45906.000,  22.301479715, 114.190342836,  -25.4328,  2,  6,  0.1292,  0.1247,  0.5672,  0.0541, -0.1934,  0.0645,  6.00,   8.1
2051, 45907.000,  22.301481775, 114.190333962,  -17.3173,  2,  6,  0.1288,  0.1237,  0.5431,  0.0558, -0.1867,  0.0492,  7.00,   1.4
2051, 45908.000,  22.301480801, 114.190303831,   -1.2231,  1,  6,  0.1237,  0.0176,  0.2470, -0.0278,  0.0211, -0.1669,  8.00,  17.8
2051, 45909.000,  22.301477115, 114.190307736,   -3.2993,  2,  6,  0.1296,  0.1225,  0.5353,  0.0564, -0.1814,  0.0538,  9.00, 278.6
2051, 45911.000,  22.301483304, 114.190270749,    2.1415,  2,  6,  0.1292,  0.1217,  0.5251,  0.0570, -0.1778,  0.0415, 11.00,   0.0
2051, 45912.000,  22.301476448, 114.190258861,    5.2624,  2,  6,  0.1292,  0.1218,  0.5278,  0.0566, -0.1786,  0.0450, 12.00,   0.0
2051, 45913.000,  22.301473435, 114.190249059,    6.2604,  2,  6,  0.1289,  0.1211,  0.5147,  0.0577, -0.1739,  0.0292, 13.00,   0.0
2051, 45914.000,  22.301474681, 114.190238444,    7.4588,  2,  6,  0.1290,  0.1211,  0.5126,  0.0579, -0.1734,  0.0270, 14.00,   0.0
2051, 45915.000,  22.301479667, 114.190229125,    8.4307,  2,  6,  0.1292,  0.1212,  0.5114,  0.0581, -0.1730,  0.0246, 15.00,   0.0
2051, 45916.000,  22.301487677, 114.190222186,    8.6197,  2,  6,  0.1294,  0.1213,  0.5107,  0.0584, -0.1727,  0.0221, 16.00,   0.0
2051, 45917.000,  22.301496514, 114.190214809,    9.0194,  2,  6,  0.1297,  0.1215,  0.5103,  0.0586, -0.1725,  0.0195, 17.00,   0.0
2051, 45918.000,  22.301507319, 114.190207320,    9.6270,  2,  6,  0.1300,  0.1218,  0.5107,  0.0589, -0.1726,  0.0176, 18.00,   0.0
2051, 45919.000,  22.301544928, 114.190233650,    7.4937,  2,  6,  0.1225,  0.1174,  0.4835,  0.0540, -0.1867,  0.0784, 19.00,   1.4
2051, 45920.000,  22.301564413, 114.190225836,    7.4678,  2,  6,  0.1223,  0.1172,  0.4828,  0.0540, -0.1864,  0.0783, 20.00,   1.1
2051, 45921.000,  22.301587703, 114.190215996,    7.6011,  2,  6,  0.1222,  0.1171,  0.4827,  0.0538, -0.1863,  0.0786, 21.00,   1.6
2051, 45922.000,  22.301613946, 114.190205900,    7.4736,  2,  6,  0.1221,  0.1170,  0.4830,  0.0537, -0.1864,  0.0789, 22.00,   1.1
2051, 45923.000,  22.301640652, 114.190195205,    7.4891,  2,  6,  0.1220,  0.1170,  0.4838,  0.0536, -0.1865,  0.0794, 23.00,   1.1
2051, 45924.000,  22.301667855, 114.190183966,    7.5496,  2,  6,  0.1220,  0.1170,  0.4854,  0.0535, -0.1868,  0.0800, 24.00,   1.0
2051, 45925.000,  22.301696155, 114.190172669,    7.1382,  2,  6,  0.1223,  0.1177,  0.4938,  0.0523, -0.1905,  0.0846, 25.00,   1.5
2051, 45926.000,  22.301726996, 114.190160026,    7.2579,  2,  6,  0.1223,  0.1176,  0.4911,  0.0527, -0.1897,  0.0831, 26.00,   1.0
2051, 45927.000,  22.301759959, 114.190146760,    7.2828,  2,  6,  0.1224,  0.1176,  0.4909,  0.0528, -0.1897,  0.0830, 27.00,   1.4
2051, 45928.000,  22.301794711, 114.190133020,    7.2616,  2,  6,  0.1226,  0.1178,  0.4916,  0.0529, -0.1900,  0.0833, 28.00,   1.2
2051, 45929.000,  22.301830339, 114.190117519,    7.2847,  2,  6,  0.1228,  0.1180,  0.4927,  0.0530, -0.1905,  0.0837, 29.00,   1.1
2051, 45930.000,  22.301865494, 114.190101131,    7.6329,  2,  6,  0.1217,  0.1161,  0.4767,  0.0548, -0.1840,  0.0741, -0.00,   1.1
2051, 45931.000,  22.301892199, 114.190093731,    1.9339,  1,  6,  0.0479,  0.0509,  0.2505, -0.0181, -0.0970,  0.0663,-29.00,   7.2
2051, 45932.000,  22.301924981, 114.190078375,    1.9320,  1,  6,  0.0463,  0.0492,  0.2421, -0.0174, -0.0937,  0.0641,-28.00,   6.9
2051, 45933.000,  22.301957817, 114.190062944,    1.9043,  1,  6,  0.0447,  0.0475,  0.2337, -0.0168, -0.0904,  0.0618,-27.00,   6.8
2051, 45934.000,  22.301990659, 114.190047171,    1.8539,  1,  6,  0.0431,  0.0458,  0.2254, -0.0162, -0.0872,  0.0596,-26.00,   7.1
2051, 45935.000,  22.302024358, 114.190030746,    1.8443,  1,  6,  0.0415,  0.0441,  0.2170, -0.0156, -0.0839,  0.0574,-25.00,   7.3
2051, 45936.000,  22.302057592, 114.190014499,    1.7982,  1,  6,  0.0399,  0.0423,  0.2087, -0.0150, -0.0806,  0.0552,-24.00,   7.1
2051, 45937.000,  22.302089176, 114.189998386,    1.8078,  1,  6,  0.0477,  0.0430,  0.2003,  0.0139, -0.0776,  0.0524,-23.00,   3.6
2051, 45938.000,  22.302127514, 114.189973096,    7.5749,  2,  5,  0.1242,  0.1175,  0.4824,  0.0563, -0.1858,  0.0749,  8.00,   1.8
2051, 45939.000,  22.302160929, 114.189954104,    7.5578,  2,  5,  0.1241,  0.1174,  0.4822,  0.0563, -0.1858,  0.0751,  9.00,   2.3
2051, 45940.000,  22.302193693, 114.189932633,    7.5039,  2,  5,  0.1241,  0.1174,  0.4822,  0.0563, -0.1858,  0.0752, 10.00,   2.9
2051, 45941.000,  22.302228078, 114.189906837,   10.3212,  1,  5,  0.0245,  0.0220,  0.1027,  0.0072, -0.0397,  0.0265, 11.00,   3.8
2051, 45942.000,  22.302255185, 114.189880158,   10.3129,  1,  5,  0.0264,  0.0236,  0.1105,  0.0078, -0.0427,  0.0285, 12.00,   3.3
2051, 45943.000,  22.302273835, 114.189851977,    7.3987,  2,  5,  0.1243,  0.1175,  0.4834,  0.0565, -0.1863,  0.0761, 13.00,   2.2
2051, 45944.000,  22.302289885, 114.189819020,    7.3578,  2,  5,  0.1244,  0.1176,  0.4842,  0.0566, -0.1866,  0.0765, 14.00,   1.4
2051, 45945.000,  22.302298330, 114.189784510,    7.4432,  2,  5,  0.1246,  0.1178,  0.4851,  0.0567, -0.1870,  0.0770, 15.00,   1.1
2051, 45946.000,  22.302299613, 114.189750985,    7.4790,  2,  5,  0.1249,  0.1180,  0.4863,  0.0568, -0.1875,  0.0775, 16.00,   1.4
2051, 45947.000,  22.302295419, 114.189719298,    7.4420,  2,  5,  0.1252,  0.1183,  0.4877,  0.0570, -0.1880,  0.0781, 17.00,   1.7
2051, 45948.000,  22.302284447, 114.189684608,    7.4514,  2,  5,  0.1255,  0.1186,  0.4893,  0.0571, -0.1887,  0.0787, 18.00,   1.8
2051, 45949.000,  22.302267311, 114.189648427,    7.4869,  2,  5,  0.1259,  0.1189,  0.4911,  0.0573, -0.1894,  0.0794, 19.00,   1.5
2051, 45950.000,  22.302245741, 114.189611892,    7.5312,  2,  5,  0.1263,  0.1194,  0.4931,  0.0575, -0.1902,  0.0802, 20.00,   1.2
2051, 45951.000,  22.302221525, 114.189574047,    7.5572,  2,  6,  0.1260,  0.1196,  0.4952,  0.0568, -0.1909,  0.0821, 21.00,   1.2
2051, 45952.000,  22.302185127, 114.189537413,    3.3673,  1,  6,  0.0163,  0.0163,  0.0799, -0.0042, -0.0306,  0.0209, -8.00,  25.7
2051, 45953.000,  22.302156225, 114.189495298,    3.3697,  1,  6,  0.0281,  0.0280,  0.0868,  0.0235, -0.0435, -0.0276, -7.00,   3.5
2051, 45954.000,  22.302134166, 114.189446558,    7.7581,  2,  5,  0.1364,  0.1329,  0.5168,  0.0772, -0.2101,  0.0358, 24.00,   2.0
2051, 45955.000,  22.302102616, 114.189400028,    7.9026,  2,  5,  0.1372,  0.1340,  0.5209,  0.0780, -0.2121,  0.0340, 25.00,   2.9
2051, 45956.000,  22.302075520, 114.189354532,    8.2311,  1,  5,  0.0761,  0.0789,  0.2659,  0.0614, -0.1288, -0.0719, 26.00,   4.2
2051, 45957.000,  22.302044326, 114.189309285,    4.4238,  2,  5,  0.0256,  0.0237,  0.0611,  0.0224, -0.0339, -0.0273, 27.00,   5.4
2051, 45958.000,  22.302035749, 114.189262962,    8.3002,  1,  5,  0.0798,  0.0833,  0.2843,  0.0638, -0.1368, -0.0739, 28.00,   7.8
2051, 45959.000,  22.302025706, 114.189217948,    8.3728,  1,  5,  0.0817,  0.0856,  0.2936,  0.0651, -0.1409, -0.0751, 29.00,  14.4
2051, 45960.000,  22.302022433, 114.189174395,    8.5129,  1,  5,  0.0312,  0.0276,  0.0600,  0.0280, -0.0373, -0.0346, -0.00,  34.5
2051, 45961.000,  22.302023443, 114.189131912,    8.4246,  2,  5,  0.1285,  0.1216,  0.4798,  0.0679, -0.1889,  0.0531,  1.00,   1.8
2051, 45962.000,  22.302030962, 114.189092852,    8.3321,  2,  5,  0.1254,  0.1191,  0.4783,  0.0626, -0.1863,  0.0628,  2.00,   1.1
2051, 45963.000,  22.302042672, 114.189053966,    8.6447,  2,  5,  0.0484,  0.0422,  0.0850,  0.0440, -0.0567, -0.0564,  3.00,  21.4
2051, 45964.000,  22.302062906, 114.189017477,    8.5679,  1,  5,  0.0398,  0.0355,  0.0800,  0.0358, -0.0491, -0.0454,  4.00,  17.1
2051, 45965.000,  22.302085588, 114.188980919,    8.3205,  2,  5,  0.0353,  0.0322,  0.0788,  0.0314, -0.0456, -0.0393,  5.00,   5.3
2051, 45966.000,  22.302106983, 114.188944302,    8.8057,  1,  4,  0.1056,  0.0944,  0.1193,  0.0989, -0.0941, -0.0945,  6.00,   3.5
2051, 45969.000,  22.302227890, 114.188897746,   10.7594,  2,  4,  1.1900,  1.5189,  7.9477, -1.3376, -3.3814,  2.9872,  9.00,   0.0
2051, 45970.000,  22.302270664, 114.188941887,  -26.6430,  2,  4,  0.1628,  0.1964,  1.3231, -0.0782, -0.4198,  0.3435, 10.00,   0.0
2051, 45971.000,  22.302284592, 114.188913988,  -25.3782,  2,  4,  0.1615,  0.1951,  1.3197, -0.0796, -0.4184,  0.3430, 11.00,   0.0
2051, 45974.000,  22.302243385, 114.188740605,   -8.9120,  2,  4,  0.1753,  0.2220,  1.5039, -0.1451, -0.5106,  0.4292, 14.00,   0.0
2051, 45975.000,  22.302230850, 114.188729554,  -12.1159,  2,  5,  0.1501,  0.1834,  1.3134, -0.0992, -0.4137,  0.3448, 15.00,   0.0
2051, 45976.000,  22.302218457, 114.188719682,  -13.2379,  2,  5,  0.1499,  0.1830,  1.3124, -0.0991, -0.4132,  0.3447, 16.00,   0.0
2051, 45977.000,  22.302210445, 114.188712153,  -11.1071,  2,  5,  0.1498,  0.1828,  1.3120, -0.0990, -0.4128,  0.3447, 17.00,   0.0
2051, 45978.000,  22.302207623, 114.188715212,  -12.4165,  2,  5,  0.1500,  0.1827,  1.3124, -0.0989, -0.4128,  0.3448, 18.00,   0.0
2051, 45980.000,  22.302148999, 114.188715828,    0.3197,  2,  5,  0.1497,  0.1824,  1.3135, -0.0993, -0.4125,  0.3456, 20.00,   0.0
2051, 45981.000,  22.302147600, 114.188718844,   -1.6696,  2,  5,  0.1497,  0.1824,  1.3153, -0.0995, -0.4128,  0.3464, 21.00,   0.0
2051, 45982.000,  22.302146878, 114.188718439,   -1.3746,  2,  5,  0.1499,  0.1825,  1.3180, -0.0997, -0.4134,  0.3472, 22.00,   0.0
2051, 45983.000,  22.302147271, 114.188717616,   -0.2914,  2,  5,  0.1501,  0.1827,  1.3215, -0.1001, -0.4142,  0.3483, 23.00,   0.0
2051, 45984.000,  22.302147708, 114.188717571,   -0.0463,  2,  5,  0.1505,  0.1832,  1.3258, -0.1007, -0.4152,  0.3496, 24.00,   0.0
2051, 45985.000,  22.302088577, 114.188769798,  -48.6945,  1,  6,  0.0965,  0.1816,  0.2758,  0.1193,  0.0389,  0.0802, 25.00,  91.8
2051, 45995.000,  22.302156048, 114.188703237,   10.3154,  2,  6,  0.1280,  0.1110,  0.5568, -0.0256, -0.0958,  0.1594,  5.00,   2.6
2051, 45996.000,  22.302156080, 114.188702785,   10.8750,  2,  6,  0.1275,  0.1106,  0.5554, -0.0261, -0.0965,  0.1588,  6.00,   1.2
2051, 45997.000,  22.302156370, 114.188702052,   11.4086,  2,  6,  0.1271,  0.1103,  0.5550, -0.0265, -0.0976,  0.1584,  7.00,   1.4
2051, 45998.000,  22.302156535, 114.188701378,   11.9588,  2,  6,  0.1268,  0.1103,  0.5561, -0.0270, -0.0998,  0.1583,  8.00,   1.6
2051, 45999.000,  22.302156696, 114.188700820,   12.3617,  2,  6,  0.1266,  0.1108,  0.5629, -0.0281, -0.1058,  0.1591,  9.00,   1.3
2051, 46007.000,  22.302156912, 114.188701435,   11.7891,  2,  6,  0.1257,  0.1083,  0.5399, -0.0260, -0.0911,  0.1546, 17.00,   1.0
2051, 46008.000,  22.302156762, 114.188701941,   11.3772,  2,  6,  0.1257,  0.1082,  0.5391, -0.0261, -0.0906,  0.1545, 18.00,   1.1
2051, 46013.000,  22.302156961, 114.188702029,   10.5681,  2,  6,  0.1258,  0.1081,  0.5388, -0.0264, -0.0899,  0.1545, 23.00,   1.7
2051, 46014.000,  22.302157174, 114.188701825,   10.5409,  2,  6,  0.1260,  0.1082,  0.5391, -0.0265, -0.0897,  0.1547, 24.00,   1.1
2051, 46015.000,  22.302157390, 114.188701614,   10.4996,  2,  6,  0.1262,  0.1083,  0.5396, -0.0266, -0.0895,  0.1549, 25.00,   1.0
2051, 46016.000,  22.302156903, 114.188702501,   10.2111,  2,  6,  0.1265,  0.1084,  0.5403, -0.0267, -0.0893,  0.1551, 26.00,   1.0
2051, 46017.000,  22.302156623, 114.188702846,   10.2937,  2,  6,  0.1268,  0.1086,  0.5412, -0.0268, -0.0891,  0.1554, 27.00,   1.8
2051, 46018.000,  22.302156851, 114.188702668,   10.2354,  2,  6,  0.1271,  0.1088,  0.5422, -0.0269, -0.0889,  0.1557, 28.00,   1.1
2051, 46019.000,  22.302157217, 114.188702279,   10.2639,  2,  6,  0.1275,  0.1090,  0.5435, -0.0271, -0.0887,  0.1562, 29.00,   1.7
2051, 46020.000,  22.302156441, 114.188702854,   10.4238,  2,  6,  0.1248,  0.1076,  0.5371, -0.0256, -0.0890,  0.1544, -0.00,   2.8
2051, 46021.000,  22.302147770, 114.188698391,   11.2894,  1,  6,  0.0080,  0.0062,  0.0295,  0.0006, -0.0035,  0.0087,  1.00,   4.4
2051, 46022.000,  22.302155890, 114.188703445,   10.1030,  2,  6,  0.1256,  0.1082,  0.5397, -0.0244, -0.0881,  0.1555,  2.00,   1.7
2051, 46023.000,  22.302156449, 114.188702895,   10.0384,  2,  6,  0.1255,  0.1080,  0.5391, -0.0246, -0.0881,  0.1553,  3.00,   1.1
2051, 46024.000,  22.302156534, 114.188702976,   10.0901,  2,  6,  0.1254,  0.1080,  0.5387, -0.0247, -0.0880,  0.1552,  4.00,   1.3
2051, 46030.000,  22.302156702, 114.188702144,   11.4465,  2,  6,  0.1257,  0.1081,  0.5397, -0.0252, -0.0874,  0.1556, 10.00,   1.4
2051, 46033.000,  22.302155272, 114.188701019,   11.3816,  2,  6,  0.1264,  0.1087,  0.5410, -0.0272, -0.0863,  0.1556, 13.00,   1.8
2051, 46034.000,  22.302149262, 114.188699395,   10.9539,  2,  6,  0.1263,  0.1086,  0.5416, -0.0263, -0.0864,  0.1559, 14.00,   1.1
2051, 46035.000,  22.302135791, 114.188695270,   10.9181,  2,  6,  0.1265,  0.1087,  0.5425, -0.0260, -0.0863,  0.1562, 15.00,   1.1
2051, 46036.000,  22.302126819, 114.188693486,    9.7106,  1,  6,  0.0303,  0.0217,  0.0857, -0.0148,  0.0134,  0.0250,-14.00,   3.3
2051, 46037.000,  22.302092442, 114.188678839,   11.2685,  2,  5,  0.1286,  0.1099,  0.5452, -0.0309, -0.0876,  0.1581, 17.00,   1.2
2051, 46039.000,  22.302032146, 114.188654433,   10.9127,  2,  6,  0.1295,  0.1101,  0.5450, -0.0318, -0.0900,  0.1587, 19.00,   2.1
2051, 46048.000,  22.301730507, 114.188395343,   19.7201,  2,  4,  0.9158,  1.1043,  5.9306, -0.9981, -2.4916,  2.2685, 28.00,  43.0
2051, 46049.000,  22.301686269, 114.188362116,   15.2979,  2,  4,  0.9179,  1.1060,  5.9429, -0.9999, -2.4962,  2.2734, 29.00,  14.4
2051, 46050.000,  22.301667146, 114.188293751,   23.3797,  2,  4,  0.9175,  1.1034,  5.9377, -0.9994, -2.4921,  2.2728, -0.00,   6.6
2051, 46081.000,  22.301865505, 114.188466339,  -33.0686,  2,  4,  0.4877,  0.4406,  2.1018, -0.3430, -0.7551,  0.7502,  1.00, 999.9
2051, 46082.000,  22.301908854, 114.188499482,  -34.9485,  2,  5,  0.4453,  0.3506,  1.5849, -0.2549, -0.4508,  0.5393,  2.00,  24.3
2051, 46083.000,  22.301962100, 114.188529835,  -28.8862,  2,  5,  0.4448,  0.3502,  1.5834, -0.2547, -0.4503,  0.5391,  3.00,   5.6
2051, 46108.000,  22.302781245, 114.188499929,   -0.9429,  2,  5,  0.2625,  0.2401,  1.0623,  0.0794, -0.3984,  0.2029, 28.00,   0.0
2051, 46109.000,  22.302830933, 114.188471142,    1.2987,  2,  6,  0.2598,  0.2396,  1.0614,  0.0834, -0.3980,  0.2008, 29.00,   0.0
2051, 46110.000,  22.302885558, 114.188436725,    2.0181,  2,  6,  0.2597,  0.2395,  1.0610,  0.0835, -0.3977,  0.2005,  0.00,   0.0
2051, 46111.000,  22.302943207, 114.188395560,    1.3721,  2,  6,  0.2608,  0.2407,  1.0719,  0.0821, -0.4010,  0.2065,  1.00,   0.0
2051, 46112.000,  22.302997849, 114.188352027,    0.9017,  2,  6,  0.2606,  0.2402,  1.0689,  0.0826, -0.3996,  0.2060,  2.00,   0.0
2051, 46113.000,  22.303058557, 114.188299244,    3.5750,  2,  5,  0.2768,  0.2279,  1.1405,  0.0926, -0.3439,  0.2899,  3.00,   0.0
2051, 46114.000,  22.303119019, 114.188245200,    1.7799,  2,  4,  0.3000,  0.2431,  1.1605,  0.0662, -0.4160,  0.3126,  4.00,   0.0
2051, 46120.000,  22.303452038, 114.187820600,  -14.7913,  2,  4,  0.2796,  0.2563,  1.0785,  0.1278, -0.4183,  0.1462, 10.00,   0.0
2051, 46121.000,  22.303505690, 114.187730546,  -15.3548,  2,  4,  0.2810,  0.2579,  1.0807,  0.1308, -0.4206,  0.1391, 11.00,   0.0
2051, 46132.000,  22.304190444, 114.186863526,   -3.8308,  2,  4,  0.4637,  0.4955,  1.6521,  0.3536, -0.8315, -0.6028, 22.00,   0.0
2051, 46135.000,  22.304271580, 114.186589765,    4.0605,  2,  5,  0.4179,  0.4327,  1.5090,  0.2761, -0.7262, -0.4731, 25.00,   0.0
2051, 46136.000,  22.304327379, 114.186530492,    3.7182,  2,  5,  0.4174,  0.4332,  1.5089,  0.2762, -0.7273, -0.4760, 26.00,   0.0
2051, 46138.000,  22.304433080, 114.186410099,    4.1034,  2,  4,  0.5021,  0.5298,  1.7052,  0.4006, -0.8766, -0.6635, 28.00,   0.0
2051, 46142.000,  22.304575505, 114.186186756,    2.7109,  2,  4,  0.3432,  0.3261,  1.1902,  0.2905, -0.5647, -0.4312,  2.00,   1.5
2051, 46143.000,  22.304606825, 114.186152837,    1.7307,  1,  5,  0.1096,  0.0970,  0.2812,  0.0915, -0.1448, -0.1099,-27.00,   6.5
2051, 46144.000,  22.304650892, 114.186152182,    0.7320,  1,  5,  0.0329,  0.0290,  0.0714,  0.0288, -0.0408, -0.0359,  4.00,   3.0
2051, 46146.000,  22.304666416, 114.186103134,    0.6306,  1,  5,  0.0307,  0.0269,  0.0775,  0.0254, -0.0395, -0.0295,  6.00,   3.5
2051, 46148.000,  22.304677851, 114.186066280,    2.2976,  2,  4,  0.2627,  0.2506,  1.0944,  0.1982, -0.4655, -0.2813,  8.00,   1.1
2051, 46150.000,  22.304685636, 114.186073091,    3.8437,  1,  4,  0.2601,  0.2921,  1.0867,  0.2747, -0.5611, -0.5253, 10.00,   3.8
2051, 46151.000,  22.304684160, 114.186069224,    5.0451,  1,  4,  0.2391,  0.2682,  1.0012,  0.2520, -0.5153, -0.4813, 11.00,  48.2
2051, 46152.000,  22.304678269, 114.186060742,    3.3111,  2,  4,  0.2612,  0.2500,  1.0881,  0.1983, -0.4653, -0.2871, 12.00,   2.2
2051, 46153.000,  22.304670496, 114.186051293,    6.9226,  2,  4,  0.2064,  0.1724,  0.8469,  0.1023, -0.3054,  0.1599, 13.00,   1.2
2051, 46154.000,  22.304669724, 114.186051286,    6.3278,  2,  5,  0.2048,  0.1720,  0.8243,  0.1021, -0.3045,  0.1455, 14.00,   1.7
2051, 46155.000,  22.304669526, 114.186051037,    6.5028,  2,  5,  0.2045,  0.1717,  0.8228,  0.1019, -0.3039,  0.1454, 15.00,   1.5
2051, 46157.000,  22.304669716, 114.186051043,    6.7612,  2,  5,  0.2042,  0.1713,  0.8212,  0.1017, -0.3031,  0.1454, 17.00,   1.7
2051, 46158.000,  22.304669392, 114.186050912,    6.6901,  2,  5,  0.2042,  0.1712,  0.8206,  0.1015, -0.3028,  0.1456, 18.00,   2.3
2051, 46159.000,  22.304659772, 114.186042649,    8.8690,  1,  5,  0.0419,  0.0336,  0.1791,  0.0152, -0.0583,  0.0513, 19.00,   3.4
2051, 46160.000,  22.304671601, 114.186052135,    6.6821,  2,  5,  0.0209,  0.0167,  0.0890,  0.0075, -0.0291,  0.0252, 20.00,   3.2
2051, 46161.000,  22.304658536, 114.186041139,    9.4572,  1,  5,  0.0456,  0.0369,  0.1901,  0.0167, -0.0640,  0.0533, 21.00,   3.5
2051, 46162.000,  22.304669729, 114.186050870,    6.9292,  2,  5,  0.2046,  0.1712,  0.8215,  0.1014, -0.3026,  0.1472, 22.00,   1.1
2051, 46163.000,  22.304669937, 114.186050891,    6.9545,  2,  5,  0.2049,  0.1713,  0.8225,  0.1015, -0.3029,  0.1478, 23.00,   1.7
2051, 46164.000,  22.304670212, 114.186051062,    6.9427,  2,  5,  0.2053,  0.1716,  0.8241,  0.1016, -0.3032,  0.1487, 24.00,   1.7
2051, 46185.000,  22.304671565, 114.186053003,    6.6552,  2,  5,  0.2043,  0.1702,  0.8234,  0.1023, -0.3004,  0.1449, 15.00,   1.1
2051, 46186.000,  22.304671746, 114.186053149,    6.6267,  2,  5,  0.2043,  0.1702,  0.8214,  0.1023, -0.3006,  0.1433, 16.00,   1.1
2051, 46187.000,  22.304672023, 114.186053110,    6.7004,  2,  5,  0.2045,  0.1704,  0.8214,  0.1024, -0.3008,  0.1431, 17.00,   2.3
2051, 46188.000,  22.304672208, 114.186053039,    6.7858,  2,  5,  0.2048,  0.1706,  0.8221,  0.1025, -0.3011,  0.1432, 18.00,   1.2
2051, 46189.000,  22.304672332, 114.186053041,    6.7794,  2,  5,  0.2052,  0.1709,  0.8233,  0.1027, -0.3015,  0.1437, 19.00,   1.4
2051, 46196.000,  22.304672718, 114.186052554,    7.0566,  2,  5,  0.2076,  0.1723,  0.8310,  0.1035, -0.3036,  0.1474, 26.00,   2.8
2051, 46207.000,  22.304671383, 114.186051866,    7.0970,  2,  5,  0.2034,  0.1688,  0.8140,  0.1029, -0.2972,  0.1381,  7.00,   1.2
2051, 46210.000,  22.304671430, 114.186051909,    7.0832,  2,  5,  0.2037,  0.1689,  0.8150,  0.1030, -0.2974,  0.1383, 10.00,   1.0
2051, 46211.000,  22.304671479, 114.186051762,    7.1468,  2,  5,  0.2038,  0.1691,  0.8158,  0.1031, -0.2977,  0.1384, 11.00,   1.1
2051, 46306.000,  22.306602633, 114.184594096,  -90.4470,  2,  4,  0.6510,  0.3880,  3.3569,  0.1966, -0.5693,  1.2364, 16.00,   0.0
2051, 46309.000,  22.306689353, 114.184599404,    1.9753,  2,  6,  0.4663,  0.3772,  2.1116,  0.0867, -0.6193,  0.4897, 19.00,  20.8
2051, 46382.000,  22.307823911, 114.184501780,  145.1283,  2,  5,  0.4384,  0.3605,  1.9239, -0.2114, -0.6342,  0.5987,  2.00,   1.5
2051, 46383.000,  22.307819184, 114.184506413,  143.0960,  2,  5,  0.4374,  0.3596,  1.9194, -0.2109, -0.6324,  0.5973,  3.00, 240.3
2051, 46384.000,  22.307818715, 114.184506867,  142.3937,  2,  5,  0.4369,  0.3590,  1.9169, -0.2107, -0.6313,  0.5966,  4.00,   4.8
2051, 46387.000,  22.307878857, 114.184449285,  179.5758,  2,  5,  0.5415,  0.4740,  2.6885, -0.3766, -0.8624,  0.8920,  7.00,   1.4
2051, 46434.000,  22.307887132, 114.184786143,  -29.4303,  2,  6,  0.3595,  0.4264,  1.6622,  0.1394, -0.7295, -0.1253, 24.00,   0.0
2051, 46444.000,  22.308409955, 114.184188442,  -25.3558,  2,  4,  0.4096,  0.3817,  1.9592,  0.3129, -0.5424,  0.0864,  4.00, 213.9
2051, 46449.000,  22.308612273, 114.183905431,   14.6593,  2,  6,  0.3267,  0.3531,  1.1132,  0.2569, -0.4769, -0.1663,  9.00,   0.0
2051, 46450.000,  22.308672114, 114.183868097,   17.5788,  2,  5,  0.4097,  0.3973,  1.1566,  0.3305, -0.4215,  0.2202, 10.00,   0.0
2051, 46455.000,  22.308756843, 114.183624011,   17.9211,  2,  4,  0.3108,  0.3617,  1.3104,  0.2020, -0.5565,  0.2110, 15.00,   0.0
2051, 46456.000,  22.308756883, 114.183571417,   17.2096,  2,  5,  0.2975,  0.3281,  1.2616,  0.1643, -0.5066,  0.2763, 16.00,   0.0
2051, 46457.000,  22.308748653, 114.183522241,   18.2571,  2,  5,  0.2967,  0.3282,  1.2617,  0.1643, -0.5066,  0.2754, 17.00,   0.0
2051, 46458.000,  22.308722003, 114.183466947,   17.6291,  2,  5,  0.2999,  0.3315,  1.2780,  0.1587, -0.5154,  0.2906, 18.00,   0.0
2051, 46459.000,  22.308689639, 114.183405460,   16.8640,  2,  4,  0.6128,  0.4838,  2.1327,  0.0611, -0.1706,  1.0395, 19.00,   0.0
2051, 46460.000,  22.308634055, 114.183401088,    5.3091,  2,  4,  0.9331,  0.8861,  3.7509, -0.8973, -1.7481,  1.8189, 20.00,   0.0
2051, 46461.000,  22.308604378, 114.183328575,    6.8644,  2,  4,  0.9341,  0.8864,  3.7528, -0.8980, -1.7488,  1.8202, 21.00,   0.0
2051, 46463.000,  22.308350005, 114.183360783,  -69.6579,  2,  4,  0.3063,  0.2278,  2.0031, -0.2232, -0.5720,  0.7134, 23.00,   0.0
2051, 46464.000,  22.308308528, 114.183279978,  -69.4462,  2,  4,  0.3062,  0.2273,  2.0057, -0.2229, -0.5717,  0.7137, 23.99,   0.0
2051, 46465.000,  22.308478309, 114.182966547,    0.7750,  2,  5,  0.2340,  0.1897,  0.9839, -0.1601, -0.3627,  0.4072, 24.99,   0.0
2051, 46466.000,  22.308264054, 114.183007615,  -66.0289,  2,  4,  0.2557,  0.2028,  1.0627, -0.1796, -0.3999,  0.4544, 25.99,   0.0
2051, 46467.000,  22.308205838, 114.182922563,  -67.3192,  2,  5,  0.2455,  0.2032,  1.0515, -0.1766, -0.3983,  0.4413, 26.99,   0.0
2051, 46468.000,  22.308230891, 114.182755864,  -24.2660,  2,  4,  0.6183,  0.5485,  3.0523, -0.5659, -1.2717,  1.3494, 27.99,   0.0
2051, 46471.000,  22.308168003, 114.182408385,    4.7685,  2,  4,  0.3163,  0.2373,  1.2260, -0.2306, -0.4829,  0.5587,  0.99,   0.0
2051, 46472.000,  22.308090421, 114.182328925,   -1.0757,  2,  5,  0.2827,  0.2415,  1.2143, -0.2211, -0.4859,  0.5255,  1.99,   0.0
2051, 46473.000,  22.308033977, 114.182249324,   -4.3643,  2,  5,  0.1736,  0.1308,  0.7184, -0.0603, -0.1787,  0.2330,  2.99,   0.0
2051, 46474.000,  22.307996604, 114.182158128,   -2.2001,  2,  6,  0.1683,  0.1257,  0.6773, -0.0467, -0.1696,  0.2206,  3.99,   0.0
2051, 46475.000,  22.307948476, 114.182081675,   -0.9427,  2,  7,  0.1679,  0.1210,  0.6514, -0.0433, -0.1491,  0.2180,  4.99,   0.0
2051, 46476.000,  22.307899668, 114.182009791,   -0.4361,  2,  7,  0.1682,  0.1220,  0.6509, -0.0400, -0.1469,  0.2182,  5.99,   0.0
2051, 46477.000,  22.307854235, 114.181945805,    6.6159,  2,  6,  0.1670,  0.1191,  0.6669, -0.0456, -0.1468,  0.2211,  6.99,   0.0
2051, 46478.000,  22.307810391, 114.181879984,   13.6997,  2,  6,  0.1664,  0.1212,  0.6631, -0.0478, -0.1611,  0.2185,  7.99,   0.0
2051, 46479.000,  22.307762104, 114.181815686,   14.1112,  2,  7,  0.1656,  0.1186,  0.6467, -0.0462, -0.1501,  0.2152,  8.99,   0.0
2051, 46480.000,  22.307713440, 114.181750936,   15.0246,  2,  7,  0.1655,  0.1185,  0.6461, -0.0463, -0.1500,  0.2150,  9.99,   0.0
2051, 46481.000,  22.307666218, 114.181682612,   14.7350,  2,  7,  0.1654,  0.1184,  0.6458, -0.0463, -0.1498,  0.2150, 10.99,   0.0
2051, 46482.000,  22.307608027, 114.181620084,   11.3372,  1,  7,  0.1231,  0.1307,  0.5945,  0.1228, -0.2692, -0.2453,-18.01,  79.4
2051, 46483.000,  22.307556594, 114.181544537,   11.2760,  1,  7,  0.1279,  0.1402,  0.6255,  0.1316, -0.2927, -0.2737,-17.01,   4.1
2051, 46484.000,  22.307516383, 114.181458686,   17.2763,  1,  7,  0.0819,  0.0877,  0.4014,  0.0817, -0.1818, -0.1656, 13.99,  11.8
2051, 46485.000,  22.307454514, 114.181386224,   17.2229,  1,  7,  0.0798,  0.0852,  0.3879,  0.0793, -0.1763, -0.1609, 14.99,   4.7
2051, 46486.000,  22.307386126, 114.181316400,   15.6899,  2,  7,  0.1669,  0.1187,  0.6477, -0.0461, -0.1494,  0.2164, 15.99,   1.8
2051, 46487.000,  22.307303179, 114.181251081,   11.4383,  1,  7,  0.2141,  0.2381,  1.0608,  0.2248, -0.5004, -0.4712,-13.00,  12.0
2051, 46488.000,  22.307246265, 114.181172323,   15.5103,  1,  7,  0.0757,  0.0792,  0.3600,  0.0731, -0.1623, -0.1473, 18.00,  26.5
2051, 46489.000,  22.307171728, 114.181197963,   16.3762,  1,  4,  1.0095,  2.9744,  1.0066,  1.7321,  1.7126,  0.9983, 19.00,  10.8
2051, 46491.000,  22.307011403, 114.180954367,   14.7164,  2,  4,  1.9137,  1.7228,  4.0352,  1.7316, -2.3907, -2.2219, 21.00,   0.0
2051, 46498.000,  22.306377024, 114.180452384,   -1.6459,  2,  4,  0.8569,  0.4099,  1.3369,  0.4087, -0.4335, -0.9032, 28.00,   0.0
2051, 46507.000,  22.305912094, 114.179990552,    6.7096,  2,  5,  0.1866,  0.1395,  0.8196, -0.0955, -0.2041,  0.2064,  7.00,   0.0
2051, 46508.000,  22.305874218, 114.179940687,    8.0098,  2,  5,  0.1865,  0.1389,  0.8178, -0.0954, -0.2042,  0.2061,  8.00,   0.0
2051, 46509.000,  22.305809312, 114.179792363,   -4.8025,  2,  5,  0.1912,  0.1466,  0.8267, -0.0660, -0.1893,  0.2202,  9.00,   0.0
2051, 46510.000,  22.305774389, 114.179768778,    0.4210,  2,  4,  0.1944,  0.4175,  0.9328,  0.0909,  0.3650,  0.2509, 10.00,   0.0
2051, 46514.000,  22.305920057, 114.179289771,  107.1389,  2,  4,  1.4579,  1.0452,  5.7020, -1.2274, -2.4270,  2.8623, 14.00,   0.0
2051, 46525.000,  22.305353110, 114.178701494,    6.0054,  2,  7,  0.1774,  0.1331,  0.8090, -0.0892, -0.2070,  0.2015, 24.99,   0.0
2051, 46526.000,  22.305283721, 114.178645587,    5.8258,  2,  7,  0.1774,  0.1332,  0.8100, -0.0892, -0.2072,  0.2014, 25.99,   0.0
2051, 46527.000,  22.305203418, 114.178597943,    5.8227,  2,  7,  0.1775,  0.1332,  0.8115, -0.0893, -0.2075,  0.2015, 26.99,   0.0
2051, 46528.000,  22.305115982, 114.178555998,    7.8416,  2,  6,  0.1781,  0.1363,  0.8461, -0.0909, -0.2230,  0.2067, 27.99,   0.0
2051, 46529.000,  22.305021499, 114.178521539,    7.7224,  2,  5,  0.1801,  0.1367,  0.8505, -0.0904, -0.2245,  0.2052, 29.00,   0.0
2051, 46530.000,  22.304924564, 114.178491711,    7.9780,  2,  6,  0.1771,  0.1348,  0.8294, -0.0901, -0.2167,  0.2036,  0.00,   0.0
2051, 46531.000,  22.304822411, 114.178460937,   10.2149,  2,  6,  0.1693,  0.1477,  0.9464, -0.1010, -0.2991,  0.2874,  1.00,   2.0
2051, 46532.000,  22.304748555, 114.178418004,   12.4843,  1,  6,  0.1782,  0.1170,  0.6163, -0.1440, -0.2683,  0.3308,  2.00,   7.2
2051, 46534.000,  22.304526508, 114.178380300,   14.4719,  2,  5,  0.1734,  0.1510,  0.9589, -0.1082, -0.3151,  0.3064,  4.00, 734.6
2051, 46535.000,  22.304437813, 114.178350039,   14.7908,  2,  5,  0.1748,  0.1520,  0.9589, -0.1105, -0.3164,  0.3087,  5.00,   1.6
2051, 46536.000,  22.304370576, 114.178292010,   13.5020,  1,  4,  0.1384,  0.2913,  0.6701, -0.1891, -0.4221,  0.2909,-24.00,   5.4
2051, 46537.000,  22.304276402, 114.178277156,   13.0803,  2,  4,  0.0720,  0.1762,  0.3632, -0.1100, -0.2485,  0.1589,  7.00,  18.9
2051, 46538.000,  22.304384616, 114.178077831,   89.9409,  1,  6,  0.0751,  0.1914,  0.4105, -0.1164, -0.2754,  0.1725,  8.00,  21.5
2051, 46539.000,  22.304249581, 114.178055567,  110.0000,  2,  4,  0.2058,  0.2114,  1.4428, -0.1717, -0.5085,  0.4772,  9.00, 186.0
2051, 46540.000,  22.304138892, 114.178026448,   65.7799,  2,  4,  0.4810,  0.3101,  4.5986, -0.3522, -1.0867,  1.4559, 10.00,  36.4
2051, 46541.000,  22.304043229, 114.178067707,   60.3617,  2,  6,  0.1594,  0.1482,  0.9485, -0.1011, -0.3113,  0.2983, 11.00,  94.4
2051, 46542.000,  22.303966619, 114.178018871,   58.9281,  2,  6,  0.1597,  0.1483,  0.9485, -0.1017, -0.3117,  0.2989, 12.00,  10.2
2051, 46543.000,  22.303889190, 114.177971376,   53.3356,  2,  7,  0.1597,  0.1463,  0.9264, -0.1008, -0.3035,  0.2958, 13.00,   6.2
2051, 46544.000,  22.303829529, 114.177901339,   60.8819,  2,  5,  0.1667,  0.1574,  0.9967, -0.1135, -0.3360,  0.3220, 14.00,  20.1
2051, 46545.000,  22.303765966, 114.177843229,   60.2985,  2,  4,  0.1681,  0.1602,  1.0064, -0.1163, -0.3394,  0.3253, 15.00,   2.3
2051, 46546.000,  22.303705810, 114.177787239,   59.8527,  2,  5,  0.1687,  0.1608,  1.0043, -0.1171, -0.3425,  0.3278, 16.00,  42.8
2051, 46547.000,  22.303648740, 114.177735167,   60.0011,  2,  5,  0.1688,  0.1608,  1.0078, -0.1171, -0.3436,  0.3291, 17.00, 999.9
2051, 46548.000,  22.303499444, 114.177779215,   11.8970,  1,  6,  0.0484,  0.0486,  0.2145, -0.0443, -0.0917,  0.0905,-12.00,   7.1
2051, 46549.000,  22.303463018, 114.177744960,  -11.5616,  2,  6,  0.1912,  0.1578,  1.2420, -0.1343, -0.3919,  0.4163, 19.00,   1.0
2051, 46550.000,  22.303416419, 114.177694443,   -7.9600,  2,  6,  0.1892,  0.1511,  1.1824, -0.1292, -0.3696,  0.4010, 20.00,   2.5
2051, 46551.000,  22.303366935, 114.177652325,  -10.1932,  2,  6,  0.1896,  0.1515,  1.1977, -0.1293, -0.3693,  0.4031, 21.00,   1.3
2051, 46552.000,  22.303362135, 114.177582801,    1.6719,  1,  5,  0.0799,  0.0788,  0.3690, -0.0716, -0.1578,  0.1554, 22.00,   9.1
2051, 46555.000,  22.303224676, 114.177519043,   -1.2610,  2,  5,  0.1670,  0.1369,  1.0509, -0.0983, -0.2796,  0.3206, 25.00,   1.9
2051, 46556.000,  22.303193103, 114.177502236,   -1.6910,  2,  5,  0.1661,  0.1361,  1.0505, -0.0965, -0.2790,  0.3199, 26.00,   1.2
2051, 46558.000,  22.303146279, 114.177479421,    0.7772,  2,  6,  0.1672,  0.1383,  1.0285, -0.0927, -0.2800,  0.3133, 28.00,  10.4
2051, 46559.000,  22.303130394, 114.177476052,   -1.7156,  2,  5,  0.1667,  0.1390,  1.0413, -0.0938, -0.2789,  0.3158, 29.00,   2.5
2051, 46560.000,  22.303113220, 114.177471130,  -15.8431,  2,  4,  0.2066,  0.1446,  1.9145, -0.0644, -0.1136,  0.5540,  0.00,  10.4
2051, 46561.000,  22.303132643, 114.177477099,   13.5769,  2,  5,  0.1629,  0.1375,  1.0351, -0.0953, -0.2779,  0.3187,  1.00,   3.1
2051, 46562.000,  22.303131621, 114.177479083,   13.2577,  2,  6,  0.1612,  0.1334,  0.9938, -0.0912, -0.2605,  0.3078,  2.00,   3.0
2051, 46563.000,  22.303131965, 114.177479256,   13.5480,  2,  6,  0.1612,  0.1333,  0.9926, -0.0910, -0.2601,  0.3075,  3.00, 999.9
2051, 46565.000,  22.303151158, 114.177482011,   18.3600,  2,  4,  0.1654,  0.1368,  1.0282, -0.0953, -0.2757,  0.3176,  5.00,   0.0
2051, 46566.000,  22.303100606, 114.177505266,   12.7184,  1,  4,  0.3115,  0.0647,  0.8296,  0.1286,  0.1967,  0.4976,-24.00,   4.5
2051, 46567.000,  22.303089549, 114.177504121,    8.8721,  1,  4,  0.2394,  0.0434,  0.6427,  0.0996,  0.1612,  0.3905,  7.00,  36.1
2051, 46568.000,  22.303134306, 114.177483952,   20.1402,  2,  4,  0.4773,  0.1315,  0.9750, -0.0746, -0.2431, -0.3433,  8.00,   1.1
2051, 46569.000,  22.303136026, 114.177483933,   19.6925,  2,  4,  0.4771,  0.1311,  0.9728, -0.0738, -0.2419, -0.3435,  9.00,   1.1
2051, 46570.000,  22.303134013, 114.177484472,   20.1110,  2,  4,  0.4771,  0.1308,  0.9712, -0.0730, -0.2407, -0.3439, 10.00,   1.0
2051, 46571.000,  22.303114473, 114.177502613,    9.1673,  1,  4,  0.2200,  0.0424,  0.5871,  0.0917,  0.1455,  0.3556, 11.00,  11.2
2051, 46574.000,  22.303148040, 114.177485542,   26.1633,  2,  4,  0.5099,  0.1300,  1.0221, -0.0749, -0.2345, -0.4223, 14.00,   1.5
2051, 46575.000,  22.303147103, 114.177486778,   25.9379,  2,  4,  0.5102,  0.1299,  1.0217, -0.0742, -0.2339, -0.4222, 15.00,   4.9
2051, 46576.000,  22.303144362, 114.177486644,   26.3938,  2,  4,  0.5107,  0.1299,  1.0217, -0.0735, -0.2334, -0.4224, 16.00,   1.2
2051, 46579.000,  22.303076969, 114.177481510,   21.2634,  2,  4,  0.4148,  0.1299,  0.9114, -0.0525, -0.2401, -0.1979, 19.00,  77.2
2051, 46580.000,  22.303079642, 114.177481172,   20.7460,  2,  4,  0.4155,  0.1301,  0.9121, -0.0514, -0.2399, -0.1965, 20.00,  17.9
2051, 46581.000,  22.303076523, 114.177480848,   21.3047,  2,  4,  0.4163,  0.1303,  0.9132, -0.0502, -0.2399, -0.1951, 21.00,  16.5
2051, 46582.000,  22.303078246, 114.177481501,   21.4586,  2,  4,  0.4174,  0.1306,  0.9147, -0.0490, -0.2399, -0.1937, 22.00, 999.9
2051, 46583.000,  22.303080430, 114.177480694,   21.5853,  2,  4,  0.4186,  0.1309,  0.9167, -0.0477, -0.2400, -0.1923, 23.00, 285.8
2051, 46584.000,  22.303081104, 114.177481582,   21.2437,  2,  4,  0.4200,  0.1313,  0.9191, -0.0463, -0.2402, -0.1909, 24.00,  13.4
2051, 46597.000,  22.303078777, 114.177460303,   15.5721,  2,  4,  0.6577,  0.3106,  1.6650,  0.1650, -0.3780,  0.8465,  7.00,   0.0
2051, 46598.000,  22.303070572, 114.177460278,   12.8127,  2,  4,  0.6569,  0.3103,  1.6623,  0.1648, -0.3772,  0.8454,  8.00,   0.0
2051, 46599.000,  22.303079493, 114.177456383,   14.2281,  2,  4,  0.6567,  0.3101,  1.6610,  0.1648, -0.3764,  0.8452,  9.00,   0.0
2051, 46600.000,  22.303036106, 114.177488397,   -3.1914,  2,  5,  0.4145,  0.2762,  1.0071,  0.2578, -0.3614,  0.1890, 10.00,   0.0
2051, 46601.000,  22.303039260, 114.177488348,   -3.1057,  2,  5,  0.4142,  0.2759,  1.0054,  0.2578, -0.3611,  0.1874, 11.00,   0.0
2051, 46602.000,  22.303040275, 114.177490564,   -3.5415,  2,  5,  0.4142,  0.2759,  1.0046,  0.2578, -0.3612,  0.1863, 12.00,   0.0
2051, 46605.000,  22.303179005, 114.177451765,   13.1408,  2,  4,  0.4708,  0.2063,  0.9530,  0.2299, -0.2674,  0.2552, 15.00,   0.0
2051, 46606.000,  22.303173430, 114.177452065,   12.2317,  2,  4,  0.4707,  0.2061,  0.9523,  0.2297, -0.2669,  0.2552, 16.00,   0.0
2051, 46607.000,  22.303173984, 114.177453402,   11.9823,  2,  4,  0.4707,  0.2059,  0.9519,  0.2297, -0.2665,  0.2554, 17.00,   0.0
2051, 46612.000,  22.303083807, 114.177488146,   17.3048,  2,  4,  0.4718,  0.2061,  0.9523,  0.2305, -0.2656,  0.2560, 22.00,   0.0
2051, 46614.000,  22.303075031, 114.177484346,   17.6453,  2,  4,  0.4731,  0.2064,  0.9552,  0.2311, -0.2656,  0.2582, 24.00,   0.0
2051, 46615.000,  22.303075725, 114.177483097,   18.5225,  2,  4,  0.4742,  0.2068,  0.9573,  0.2317, -0.2658,  0.2595, 25.00,   0.0
2051, 46616.000,  22.303077101, 114.177483623,   17.9535,  2,  4,  0.4756,  0.2073,  0.9600,  0.2324, -0.2661,  0.2611, 26.00,   0.0
2051, 46617.000,  22.303110990, 114.177480203,   12.8694,  2,  5,  0.4795,  0.2102,  1.1866,  0.0422,  0.1369, -0.2993, 27.00,   0.0
2051, 46621.000,  22.302993573, 114.177474232,   -4.6538,  2,  4,  0.3538,  0.3701,  2.9595,  0.2033, -0.9228,  0.3548,  1.00,   0.0
2051, 46623.000,  22.302924670, 114.177515643,    2.6697,  2,  4,  0.4883,  0.2271,  1.2692,  0.2499, -0.3494,  0.2814,  3.00,   0.0
2051, 46624.000,  22.302872595, 114.177558838,    6.0631,  2,  5,  0.3358,  0.2295,  1.4546,  0.1212, -0.2354, -0.0657,  4.00,   0.0
2051, 46625.000,  22.302852380, 114.177623622,    5.4334,  2,  4,  0.9605,  0.7055,  1.7936,  0.7983, -0.9998, -1.0553,  5.00,   0.0
2051, 46626.000,  22.302838859, 114.177685227,    5.2774,  2,  4,  0.4836,  0.2256,  1.2410,  0.2477, -0.3498,  0.2544,  6.00,   0.0
2051, 46631.000,  22.302676799, 114.178021922,    8.0940,  2,  4,  0.3516,  0.2299,  1.4409,  0.1372, -0.2358, -0.1730, 11.00,   0.0
2051, 46633.000,  22.302617235, 114.178174254,   16.0687,  1,  4,  0.5759,  0.0305,  0.8947, -0.0809,  0.0978, -0.7091,-17.00,  10.4
2051, 46634.000,  22.302588910, 114.178249919,   15.9553,  1,  4,  0.5697,  0.0263,  0.8807, -0.0805,  0.0979, -0.7021, 14.00,   7.8
2051, 46656.000,  22.302019085, 114.179642447,   10.2862,  2,  4,  0.3480,  0.3990,  1.4645,  0.2564, -0.6238, -0.2655,  6.00,   0.0
2051, 46657.000,  22.301964085, 114.179630855,   13.8454,  2,  5,  0.3453,  0.3943,  1.4550,  0.2595, -0.6166, -0.2732,  7.00,   0.0
2051, 46658.000,  22.301916635, 114.179633734,    8.0971,  2,  4,  0.3485,  0.4032,  1.4557,  0.2676, -0.6084, -0.2627,  8.00,   0.0
2051, 46659.000,  22.301883068, 114.179633254,    7.3967,  2,  4,  0.3480,  0.4026,  1.4535,  0.2671, -0.6077, -0.2628,  9.00,   0.0
2051, 46660.000,  22.301855970, 114.179622435,    8.4000,  2,  5,  0.3438,  0.3929,  1.4490,  0.2586, -0.6137, -0.2721, 10.00,   0.0
2051, 46661.000,  22.301847835, 114.179622607,    9.6186,  2,  5,  0.3436,  0.3927,  1.4486,  0.2585, -0.6136, -0.2723, 11.00,   0.0
2051, 46662.000,  22.301849715, 114.179622250,    9.5761,  2,  5,  0.3437,  0.3928,  1.4491,  0.2585, -0.6137, -0.2725, 12.00,   0.0
2051, 46663.000,  22.301862361, 114.179618950,    6.0201,  2,  5,  0.4256,  0.5518,  2.0503,  0.2930, -0.9603, -0.4956, 13.00,   1.3
2051, 46664.000,  22.301853286, 114.179609482,    3.7484,  1,  5,  0.1145,  0.3581,  0.1816,  0.1992,  0.1973,  0.1125, 14.00,  30.6
2051, 46814.000,  22.299024296, 114.178733376,    4.3922,  2,  4,  1.0099,  0.3218,  1.7950,  0.3118, -0.4158, -0.4143, 14.00,   0.0
2051, 46815.000,  22.298985618, 114.178669318,    0.4445,  2,  4,  0.4344,  0.3206,  1.9342,  0.1462, -0.2394,  0.4937, 15.00,   0.0
2051, 46817.000,  22.298894576, 114.178547649,    2.1410,  2,  5,  0.4115,  0.3162,  1.9312,  0.1185, -0.2257,  0.5082, 17.00,   0.0
2051, 46818.000,  22.298852844, 114.178491456,    2.1051,  2,  4,  0.4264,  0.3215,  1.9391,  0.0885, -0.2036,  0.4913, 18.00,   0.0
2051, 46879.000,  22.297280529, 114.175461820,   -5.7438,  2,  4,  0.8722,  2.7875,  2.4990,  1.4563,  2.3241,  1.2986, 19.00,   0.0
2051, 46881.000,  22.297375639, 114.175480323,   -5.0673,  2,  4,  0.4208,  0.5099,  1.8683,  0.1635,  0.2715,  0.4608, 21.00,   0.0
2051, 46910.000,  22.299391297, 114.175724731,   25.4729,  2,  4,  0.7547,  2.1748,  2.3165,  1.1794,  1.9994,  1.2082, 20.00,   0.0
2051, 46911.000,  22.299409180, 114.175722294,   30.6971,  2,  4,  0.7548,  2.1762,  2.3182,  1.1798,  2.0009,  1.2087, 21.00,   0.0
2051, 46912.000,  22.299394314, 114.175669362,   26.9547,  2,  4,  0.7554,  2.1789,  2.3215,  1.1809,  2.0037,  1.2100, 22.00,   0.0
2051, 46913.000,  22.299385740, 114.175603044,   26.5711,  2,  4,  0.4258,  1.4161,  1.6020,  0.5917,  1.3295,  0.7190, 23.00,   0.0
2051, 46914.000,  22.299387607, 114.175616366,   28.1398,  2,  4,  0.4255,  1.4182,  1.6033,  0.5914,  1.3314,  0.7187, 24.00,   0.0
2051, 46915.000,  22.299386314, 114.175645033,   28.6914,  2,  4,  0.4179,  1.3663,  1.8160,  0.6820,  1.4799,  0.7685, 25.00,   0.0
2051, 46916.000,  22.299383663, 114.175638431,   27.7152,  2,  4,  0.4180,  1.3674,  1.8179,  0.6824,  1.4813,  0.7689, 26.00,   0.0
2051, 46917.000,  22.299383033, 114.175634631,   26.7552,  2,  4,  0.4182,  1.3690,  1.8208,  0.6830,  1.4835,  0.7698, 27.00,   0.0
2051, 46918.000,  22.299388715, 114.175646727,   29.1714,  2,  4,  0.4185,  1.3714,  1.8250,  0.6839,  1.4867,  0.7711, 28.00,   0.0
2051, 46919.000,  22.299389344, 114.175654388,   29.8664,  2,  4,  0.4191,  1.3745,  1.8305,  0.6853,  1.4909,  0.7728, 29.00,   0.0
2051, 46920.000,  22.299387311, 114.175644274,   28.5040,  2,  4,  0.4170,  1.3684,  1.8172,  0.6815,  1.4817,  0.7676,  0.00,   0.0
2051, 46921.000,  22.299411725, 114.175760191,   50.1783,  2,  4,  0.4233,  1.2613,  1.6637,  0.6645,  1.3359,  0.7580,  1.00,   0.0
2051, 46922.000,  22.299407573, 114.175745336,   47.4436,  2,  4,  0.4222,  1.2580,  1.6572,  0.6627,  1.3311,  0.7555,  2.00,   0.0
2051, 46924.000,  22.299403962, 114.175730733,   42.5292,  2,  4,  0.4209,  1.2544,  1.6508,  0.6608,  1.3264,  0.7529,  4.00,   0.0
2051, 46930.000,  22.299339344, 114.175729629,  -17.1155,  2,  4,  0.4195,  1.2520,  1.6426,  0.6589,  1.3211,  0.7499, 10.00,   0.0
2051, 46932.000,  22.299500389, 114.175926481,   10.3644,  2,  4,  0.4193,  1.2526,  1.6414,  0.6588,  1.3207,  0.7494, 12.00,   0.0
2051, 46933.000,  22.299542768, 114.175929840,    9.5799,  2,  4,  0.4195,  1.2535,  1.6418,  0.6591,  1.3213,  0.7496, 13.00,   0.0
2051, 46935.000,  22.299596081, 114.175857603,   -9.9820,  2,  4,  0.3720,  0.4172,  1.8109,  0.1370, -0.0499,  0.6716, 15.00,   0.0
2051, 46936.000,  22.299658280, 114.175878421,  -10.3907,  2,  4,  0.3718,  0.4172,  1.8114,  0.1373, -0.0426,  0.6711, 16.00,   0.0
2051, 46965.000,  22.302362385, 114.176775808,    3.3808,  2,  4,  0.1376,  0.4154,  1.5051,  0.1889, -0.7751, -0.3288, 15.00,   0.0
2051, 46966.000,  22.302433791, 114.176840115,   -1.2508,  2,  5,  0.0992,  0.0687,  0.3378,  0.0235,  0.0320,  0.1125, 16.00,   0.0
2051, 46967.000,  22.302510086, 114.176877295,   -1.1649,  2,  7,  0.0956,  0.0669,  0.3281,  0.0293,  0.0189,  0.1127, 17.00,   0.0
2051, 46968.000,  22.302573537, 114.176911663,   -1.4276,  2,  7,  0.0953,  0.0667,  0.3270,  0.0292,  0.0189,  0.1123, 18.00,   0.0
2051, 46969.000,  22.302623227, 114.176940552,   -1.3066,  2,  7,  0.0950,  0.0666,  0.3261,  0.0291,  0.0190,  0.1119, 19.00,   0.0
2051, 46970.000,  22.302660286, 114.176962366,   -1.2617,  2,  7,  0.0947,  0.0664,  0.3253,  0.0290,  0.0191,  0.1116, 20.00,   0.0
2051, 46971.000,  22.302684538, 114.176977003,   -1.3517,  2,  7,  0.0945,  0.0663,  0.3248,  0.0289,  0.0194,  0.1114, 21.00,   0.0
2051, 46972.000,  22.302699321, 114.176985754,   -1.3828,  2,  7,  0.0944,  0.0663,  0.3244,  0.0289,  0.0199,  0.1113, 22.00,   0.0
2051, 46973.000,  22.302707669, 114.176990691,   -1.2216,  2,  7,  0.0944,  0.0663,  0.3244,  0.0288,  0.0210,  0.1113, 23.00,   0.0
2051, 46974.000,  22.302709985, 114.176992206,   -1.2286,  2,  7,  0.0948,  0.0665,  0.3256,  0.0286,  0.0239,  0.1117, 24.00,   0.0
2051, 46975.000,  22.302708143, 114.176992725,   -2.5316,  1,  7,  0.0218,  0.0717,  0.0483,  0.0364,  0.0418,  0.0251, -5.00,  31.2
2051, 46976.000,  22.302708718, 114.176992102,   -2.1614,  2,  7,  0.0199,  0.0657,  0.0443,  0.0334,  0.0383,  0.0227, 26.00,   5.4
2051, 46977.000,  22.302720866, 114.176988583,    7.2311,  1,  7,  0.0608,  0.1518,  0.1939,  0.0769,  0.0877,  0.0662, 27.00,   3.9
2051, 46978.000,  22.302709657, 114.176992120,   -1.3802,  2,  7,  0.0935,  0.0659,  0.3211,  0.0288,  0.0171,  0.1098, 28.00,   1.0
2051, 46979.000,  22.302706662, 114.176992886,   -3.2526,  1,  7,  0.0212,  0.0743,  0.0449,  0.0378,  0.0428,  0.0239, -1.00,   4.0
2051, 46980.000,  22.302715295, 114.176995012,    1.8412,  2,  7,  0.0089,  0.0137,  0.0303,  0.0092,  0.0023,  0.0077,  0.00,   3.2
2051, 46981.000,  22.302710366, 114.176992416,   -1.1307,  2,  7,  0.0999,  0.0678,  0.3409,  0.0321,  0.0258,  0.1179,  1.00,   1.1
2051, 46982.000,  22.302710232, 114.176992414,   -1.1616,  2,  7,  0.0994,  0.0678,  0.3393,  0.0324,  0.0269,  0.1174,  2.00,   1.6
2051, 46983.000,  22.302710229, 114.176992496,   -1.1500,  2,  7,  0.0990,  0.0679,  0.3380,  0.0330,  0.0286,  0.1170,  3.00,   1.4
2051, 46984.000,  22.302710200, 114.176992567,   -1.1740,  2,  7,  0.0988,  0.0684,  0.3371,  0.0339,  0.0313,  0.1168,  4.00,   1.2
2051, 46985.000,  22.302710219, 114.176992606,   -1.1519,  2,  7,  0.0988,  0.0695,  0.3370,  0.0357,  0.0360,  0.1171,  5.00,   1.4
2051, 46986.000,  22.302710210, 114.176992779,   -1.1415,  2,  7,  0.0998,  0.0728,  0.3392,  0.0404,  0.0466,  0.1189,  6.00,   1.2
2051, 46987.000,  22.302710186, 114.176992755,   -1.2330,  2,  7,  0.0962,  0.0644,  0.3307,  0.0285,  0.0171,  0.1136,  7.00,   1.2
2051, 46988.000,  22.302710101, 114.176992809,   -1.2408,  2,  7,  0.0957,  0.0641,  0.3297,  0.0282,  0.0158,  0.1131,  8.00,   1.3
2051, 46989.000,  22.302710135, 114.176992808,   -1.2425,  2,  7,  0.0954,  0.0639,  0.3288,  0.0280,  0.0148,  0.1127,  9.00,   1.1
2051, 46990.000,  22.302710074, 114.176992792,   -1.2499,  2,  7,  0.0951,  0.0637,  0.3283,  0.0279,  0.0134,  0.1123, 10.00,   1.0
2051, 46991.000,  22.302710022, 114.176992718,   -1.2473,  2,  7,  0.0949,  0.0637,  0.3282,  0.0279,  0.0103,  0.1120, 11.00,   1.1
2051, 46992.000,  22.302709899, 114.176992654,   -1.2322,  2,  7,  0.0946,  0.0638,  0.3296,  0.0279, -0.0102,  0.1116, 12.00,   1.1
2051, 46993.000,  22.302709869, 114.176992739,   -1.3038,  2,  7,  0.0945,  0.0633,  0.3249,  0.0281,  0.0172,  0.1110, 13.00,   1.1
2051, 46994.000,  22.302709814, 114.176992675,   -1.2883,  2,  7,  0.0943,  0.0631,  0.3240,  0.0281,  0.0186,  0.1109, 14.00,   1.1
2051, 46995.000,  22.302709756, 114.176992646,   -1.2976,  2,  7,  0.0942,  0.0631,  0.3236,  0.0280,  0.0192,  0.1107, 15.00,   1.0
2051, 46996.000,  22.302709754, 114.176992647,   -1.2950,  2,  7,  0.0942,  0.0630,  0.3233,  0.0280,  0.0196,  0.1107, 16.00,   1.0
2051, 46997.000,  22.302709747, 114.176992589,   -1.3054,  2,  7,  0.0942,  0.0630,  0.3232,  0.0281,  0.0200,  0.1106, 17.00,   1.0
2051, 46998.000,  22.302709699, 114.176992600,   -1.3207,  2,  7,  0.0942,  0.0630,  0.3232,  0.0281,  0.0203,  0.1106, 18.00,   1.1
2051, 46999.000,  22.302709692, 114.176992578,   -1.3342,  2,  7,  0.0942,  0.0630,  0.3233,  0.0281,  0.0206,  0.1106, 19.00,   1.1
2051, 47000.000,  22.302709717, 114.176992564,   -1.3358,  2,  7,  0.0943,  0.0631,  0.3235,  0.0282,  0.0210,  0.1107, 20.00,   1.2
2051, 47001.000,  22.302709719, 114.176992602,   -1.3332,  2,  7,  0.0944,  0.0632,  0.3238,  0.0282,  0.0214,  0.1108, 21.00,   1.2
2051, 47002.000,  22.302709736, 114.176992612,   -1.3563,  2,  7,  0.0945,  0.0632,  0.3243,  0.0283,  0.0217,  0.1110, 22.00,   1.2
2051, 47003.000,  22.302709706, 114.176992587,   -1.3647,  2,  7,  0.0947,  0.0633,  0.3248,  0.0284,  0.0221,  0.1111, 23.00,   1.2
2051, 47004.000,  22.302709724, 114.176992568,   -1.3699,  2,  7,  0.0949,  0.0635,  0.3255,  0.0284,  0.0226,  0.1114, 24.00,   1.2
2051, 47005.000,  22.302709755, 114.176992577,   -1.3912,  2,  7,  0.0952,  0.0636,  0.3262,  0.0285,  0.0230,  0.1116, 25.00,   1.1
2051, 47006.000,  22.302709787, 114.176992561,   -1.4003,  2,  7,  0.0955,  0.0638,  0.3271,  0.0287,  0.0235,  0.1119, 26.00,   1.1
2051, 47007.000,  22.302709777, 114.176992556,   -1.4244,  2,  7,  0.0958,  0.0640,  0.3281,  0.0288,  0.0240,  0.1123, 27.00,   1.0
2051, 47008.000,  22.302709842, 114.176992506,   -1.4086,  2,  7,  0.0961,  0.0642,  0.3292,  0.0289,  0.0245,  0.1127, 28.00,   1.0
2051, 47009.000,  22.302709835, 114.176992515,   -1.4365,  2,  7,  0.0965,  0.0644,  0.3304,  0.0291,  0.0250,  0.1132, 29.00,   1.2
2051, 47010.000,  22.302709931, 114.176992643,   -1.3114,  2,  7,  0.0929,  0.0622,  0.3190,  0.0278,  0.0214,  0.1093,  0.00,   1.4
2051, 47011.000,  22.302709693, 114.176992633,   -1.2576,  2,  7,  0.0942,  0.0629,  0.3231,  0.0281,  0.0217,  0.1112,  1.00,   1.4
2051, 47012.000,  22.302709658, 114.176992627,   -1.2600,  2,  7,  0.0940,  0.0628,  0.3225,  0.0280,  0.0217,  0.1108,  2.00,   1.4
2051, 47013.000,  22.302709602, 114.176992619,   -1.2910,  2,  7,  0.0938,  0.0627,  0.3221,  0.0280,  0.0218,  0.1106,  3.00,   1.4
2051, 47014.000,  22.302709601, 114.176992580,   -1.3109,  2,  7,  0.0937,  0.0627,  0.3217,  0.0280,  0.0219,  0.1104,  4.00,   1.1
2051, 47015.000,  22.302709570, 114.176992569,   -1.2981,  2,  7,  0.0936,  0.0627,  0.3214,  0.0280,  0.0221,  0.1102,  5.00,   1.0
2051, 47016.000,  22.302709545, 114.176992528,   -1.2994,  2,  7,  0.0935,  0.0626,  0.3213,  0.0280,  0.0223,  0.1101,  6.00,   1.0
2051, 47017.000,  22.302709544, 114.176992537,   -1.2805,  2,  7,  0.0935,  0.0626,  0.3212,  0.0280,  0.0225,  0.1100,  7.00,   1.0
2051, 47018.000,  22.302709627, 114.176992573,   -1.2867,  2,  7,  0.0935,  0.0627,  0.3212,  0.0280,  0.0227,  0.1099,  8.00,   1.1
2051, 47019.000,  22.302711916, 114.176993918,   -1.2479,  2,  7,  0.0935,  0.0627,  0.3214,  0.0280,  0.0230,  0.1099,  9.00,   1.1
2051, 47020.000,  22.302718958, 114.176998253,   -1.2291,  2,  7,  0.0936,  0.0628,  0.3216,  0.0281,  0.0233,  0.1100, 10.00,   1.1
2051, 47021.000,  22.302737240, 114.177009071,   -1.1767,  2,  7,  0.0937,  0.0629,  0.3220,  0.0281,  0.0236,  0.1100, 11.00,   1.1
2051, 47022.000,  22.302764263, 114.177025148,   -1.1578,  2,  7,  0.0939,  0.0630,  0.3225,  0.0282,  0.0239,  0.1101, 12.00,   1.0
2051, 47023.000,  22.302798500, 114.177044965,   -1.1680,  2,  7,  0.0941,  0.0631,  0.3231,  0.0283,  0.0243,  0.1103, 13.00,   1.0
2051, 47024.000,  22.302836475, 114.177066655,   -1.1379,  2,  7,  0.0943,  0.0633,  0.3238,  0.0284,  0.0247,  0.1105, 14.00,   1.1
2051, 47025.000,  22.302874655, 114.177092219,   -1.0545,  2,  7,  0.0945,  0.0634,  0.3246,  0.0285,  0.0252,  0.1107, 15.00,   1.2
2051, 47026.000,  22.302907519, 114.177124637,   -1.0532,  2,  7,  0.0948,  0.0636,  0.3256,  0.0286,  0.0257,  0.1110, 16.00,   1.3
2051, 47027.000,  22.302932412, 114.177162929,   -1.0804,  2,  7,  0.0952,  0.0639,  0.3267,  0.0288,  0.0262,  0.1113, 17.00,   1.3
2051, 47028.000,  22.302948090, 114.177208347,   -1.1620,  2,  6,  0.0959,  0.0663,  0.3356,  0.0312,  0.0439,  0.1143, 18.00,   1.0
2051, 47029.000,  22.302949726, 114.177260665,   -1.2277,  2,  6,  0.0964,  0.0668,  0.3377,  0.0316,  0.0456,  0.1149, 19.00,   1.0
2051, 47030.000,  22.302936281, 114.177315517,   -1.3203,  2,  6,  0.0969,  0.0673,  0.3399,  0.0319,  0.0474,  0.1156, 20.00,   1.0
2051, 47031.000,  22.302912826, 114.177374758,   -1.4967,  2,  6,  0.0974,  0.0679,  0.3423,  0.0324,  0.0492,  0.1164, 21.00,   1.0
2051, 47032.000,  22.302886036, 114.177440755,   -1.4433,  2,  6,  0.0981,  0.0685,  0.3448,  0.0328,  0.0510,  0.1173, 22.00,   1.0
2051, 47033.000,  22.302856379, 114.177508320,   -1.4292,  2,  6,  0.0987,  0.0692,  0.3476,  0.0333,  0.0529,  0.1182, 23.00,   1.0
2051, 47034.000,  22.302825185, 114.177574885,   -1.3552,  2,  5,  0.0994,  0.0705,  0.3825,  0.0338,  0.0395,  0.1189, 24.00,   1.1
2051, 47035.000,  22.302795404, 114.177648970,   -1.3337,  2,  5,  0.1065,  0.0738,  0.3869,  0.0434,  0.0350,  0.1175, 25.00,   1.3
2051, 47036.000,  22.302770551, 114.177730439,    1.0711,  1,  4,  0.8284,  0.0178,  1.1181,  0.1105, -0.1279, -0.9616, -4.00,  21.1
2051, 47038.000,  22.302726619, 114.177919560,   -4.4875,  2,  4,  0.5922,  0.0774,  0.9005,  0.0745, -0.0549, -0.6729, 28.00,   3.0
2051, 47039.000,  22.302681293, 114.178022898,   -3.0762,  1,  4,  0.8308,  0.0509,  1.1486,  0.1178, -0.1246, -0.9586, 29.00,   3.3
2051, 47074.000,  22.302328887, 114.179505073,    5.0635,  2,  4,  0.5264,  0.3869,  2.2242, -0.0113,  0.5123,  0.2971,  4.00,   0.0
2051, 47075.000,  22.302280662, 114.179546727,    4.9138,  2,  4,  0.5258,  0.3862,  2.2214, -0.0066,  0.5122,  0.2970,  5.00,   0.0
2051, 47082.000,  22.301912002, 114.179624121,    0.8740,  2,  5,  0.3930,  0.4076,  1.5459,  0.2962, -0.5682, -0.2392, 12.00,   0.0
2051, 47084.000,  22.301907637, 114.179623443,    1.8557,  2,  5,  0.3925,  0.4072,  1.5443,  0.2958, -0.5673, -0.2386, 14.00,   0.0
2051, 47086.000,  22.301898097, 114.179624347,    0.4114,  2,  5,  0.3923,  0.4070,  1.5440,  0.2956, -0.5669, -0.2385, 16.00,   0.0
2051, 47087.000,  22.301898911, 114.179636099,    1.6333,  2,  5,  0.3929,  0.4076,  1.5456,  0.2966, -0.5658, -0.2365, 17.00,   0.0
2051, 47088.000,  22.301880742, 114.179627284,    0.8305,  2,  4,  0.4014,  0.4276,  1.5543,  0.3137, -0.5494, -0.2106, 18.00,   0.0
2051, 47089.000,  22.301850967, 114.179615161,    1.0417,  2,  4,  0.5516,  0.7275,  2.0390,  0.5190,  0.0875,  0.6146, 19.00,   2.8
2051, 47090.000,  22.301814892, 114.179620233,    1.6168,  1,  4,  0.2151,  0.8684,  0.3603,  0.4284,  0.5111,  0.2540, 20.00,   8.1
2051, 47206.000,  22.299022170, 114.178718581,    4.1447,  2,  5,  0.3384,  0.2560,  1.4078,  0.1570, -0.1786,  0.3354, 16.00,   0.0
2051, 47207.000,  22.298972433, 114.178661936,    3.5580,  2,  6,  0.3248,  0.2503,  1.4078,  0.1401, -0.1733,  0.3388, 17.00,   0.0
2051, 47208.000,  22.298932809, 114.178607059,    3.8214,  2,  5,  0.3259,  0.2565,  1.4663,  0.1453, -0.0846,  0.3542, 18.00,   0.0
2051, 47210.000,  22.298861394, 114.178519829,    3.8055,  2,  4,  0.3337,  0.2649,  1.4717,  0.1392, -0.0735,  0.3459, 20.00,   0.0
2051, 47213.000,  22.298733557, 114.178378996,  -15.5792,  2,  4,  1.0595,  0.2565,  5.5832, -0.3526, -0.8471,  2.2948, 23.00,   0.0
2051, 47285.000,  22.297083484, 114.176324984,   -3.8927,  2,  4,  0.5390,  0.2163,  1.7380, -0.0657, -0.2236,  0.7745,  5.00,   0.0
2051, 47286.000,  22.297083953, 114.176249018,   -0.9970,  2,  4,  0.4423,  0.3129,  1.5377,  0.2712,  0.5009,  0.5485,  6.00,   0.0
2051, 47287.000,  22.297063395, 114.176223276,   -9.6238,  2,  4,  0.5919,  0.3004,  2.2009, -0.2642, -0.6437,  0.9614,  7.00,   0.0
2051, 47288.000,  22.297062813, 114.176157139,  -10.3120,  2,  4,  0.5912,  0.2993,  2.1972, -0.2633, -0.6415,  0.9600,  8.00,   0.0
2051, 47289.000,  22.297144500, 114.176080174,    3.1501,  2,  5,  0.6289,  0.2008,  1.0499,  0.1989,  0.1606,  0.4443,  9.00,   0.0
2051, 47290.000,  22.297264931, 114.176024984,  -12.9986,  2,  4,  0.3935,  0.2034,  1.3748,  0.1493,  0.1748,  0.1801, 10.00,   0.0
2051, 47291.000,  22.297137819, 114.175956991,    5.4972,  2,  4,  0.3194,  0.2026,  1.3814,  0.1361,  0.1805,  0.2343, 11.00,   0.0
2051, 47295.000,  22.297188415, 114.175804544,   23.1093,  2,  4,  0.3188,  0.2029,  1.3799,  0.1362,  0.1832,  0.2347, 15.00,   0.0
2051, 47296.000,  22.297187488, 114.175795431,   20.9497,  2,  5,  0.3076,  0.2012,  1.3765,  0.1276,  0.1918,  0.2527, 16.00,   0.0
2051, 47297.000,  22.297193056, 114.175793424,   24.6920,  2,  5,  0.3076,  0.2014,  1.3777,  0.1276,  0.1926,  0.2530, 17.00,   0.0
2051, 47298.000,  22.297199019, 114.175794791,   26.5349,  2,  5,  0.3078,  0.2018,  1.3797,  0.1279,  0.1937,  0.2534, 18.00,   0.0
2051, 47352.000,  22.297368516, 114.175501952,    7.3385,  2,  4,  0.3154,  0.5374,  2.6147,  0.1946,  0.6787,  0.0488, 12.00,   0.0
2051, 47400.000,  22.298983825, 114.174604574, -158.7436,  2,  4,  0.9653,  4.1952,  4.1951,  1.7131,  3.8741,  1.7375,  0.00,   3.2
2051, 47442.000,  22.302413570, 114.176826499,    6.3572,  2,  5,  0.1026,  0.0656,  0.3298,  0.0110,  0.0478,  0.1057, 12.00,   0.0
2051, 47443.000,  22.302475024, 114.176851997,    6.3074,  2,  6,  0.0972,  0.0630,  0.3213,  0.0255,  0.0333,  0.1136, 13.00,   0.0
2051, 47444.000,  22.302530651, 114.176876129,    6.3273,  2,  7,  0.0925,  0.0621,  0.3150,  0.0300,  0.0393,  0.1056, 14.00,   0.0
2051, 47445.000,  22.302582627, 114.176898026,    6.2076,  2,  7,  0.0921,  0.0620,  0.3141,  0.0300,  0.0382,  0.1050, 15.00,   0.0
