% program   : RTKLIB ver.2.4.2
% inp file  : /home/kcwian/Workspace/catkin_gnss/src/GraphGNSSLib/global_fusion/dataset/gps_solution_TST/COM3_190428_124409.obs
% inp file  : /home/kcwian/Workspace/catkin_gnss/src/GraphGNSSLib/global_fusion/dataset/gps_solution_TST/hksc0740ss.20o
% inp file  : /home/kcwian/Workspace/catkin_gnss/src/GraphGNSSLib/global_fusion/dataset/gps_solution_TST/hksc0740ss.20b
% inp file  : /home/kcwian/Workspace/catkin_gnss/src/GraphGNSSLib/global_fusion/dataset/gps_solution_TST/hksc1180.19n
% obs start : 2019/04/28 12:44:34.0 GPST (week2051  45874.0s)
% obs end   : 2019/04/28 13:13:53.0 GPST (week2051  47633.0s)
% pos mode  : kinematic
% freqs     : L1+L2
% solution  : combined
% elev mask : 15.0 deg
% dynamics  : off
% tidecorr  : off
% ionos opt : broadcast
% tropo opt : saastamoinen
% ephemeris : broadcast
% navi sys  : gps glonass galileo qzss sbas
% amb res   : fix and hold
% amb glo   : on
% val thres : 3.0
% antenna1  :                       ( 0.0000  0.0000  0.0000)
% antenna2  :                       ( 0.0000  0.0000  0.0000)
% ref pos   : 22.322172082, 114.141187963,   20.2386
%
% (lat/lon/height=WGS84/ellipsoidal,Q=1:fix,2:float,3:sbas,4:dgps,5:single,6:ppp,ns=# of satellites)
%  GPST        , latitude(deg),longitude(deg), height(m),  Q, ns,  sdn(m),  sde(m),  sdu(m), sdne(m), sdeu(m), sdun(m),age(s), ratio
2051, 45874.000,  22.301491179, 114.190304450,   15.8642,  5,  6,  2.0754,  2.2544, 10.9917, -0.7967, -4.2856,  2.8454,  0.00,   0.0
2051, 45875.000,  22.301532608, 114.190346436,   -2.0659,  5,  6,  2.0755,  2.2534, 10.9900, -0.7962, -4.2837,  2.8455,  0.00,   0.0
2051, 45876.000,  22.301496257, 114.190294095,   10.1744,  5,  6,  2.0755,  2.2525, 10.9883, -0.7957, -4.2818,  2.8456,  0.00,   0.0
2051, 45877.000,  22.301490522, 114.190287414,   -1.0672,  5,  6,  2.0756,  2.2516, 10.9867, -0.7952, -4.2799,  2.8457,  0.00,   0.0
2051, 45878.000,  22.301498292, 114.190249964,   37.6980,  5,  6,  2.0757,  2.2507, 10.9849, -0.7946, -4.2780,  2.8458,  0.00,   0.0
2051, 45879.000,  22.301480404, 114.190301149,    5.8845,  5,  6,  2.0757,  2.2497, 10.9833, -0.7941, -4.2762,  2.8459,  0.00,   0.0
2051, 45880.000,  22.301485816, 114.190276190,   20.6522,  5,  6,  2.0758,  2.2488, 10.9816, -0.7936, -4.2743,  2.8459,  0.00,   0.0
2051, 45881.000,  22.301472235, 114.190282105,   20.1007,  5,  6,  2.0758,  2.2479, 10.9799, -0.7931, -4.2724,  2.8460,  0.00,   0.0
2051, 45882.000,  22.301442875, 114.190267353,    9.5059,  5,  6,  2.0759,  2.2470, 10.9782, -0.7926, -4.2706,  2.8461,  0.00,   0.0
2051, 45883.000,  22.301448773, 114.190306762,    3.7300,  5,  6,  2.0760,  2.2461, 10.9765, -0.7921, -4.2687,  2.8462,  0.00,   0.0
2051, 45884.000,  22.301481322, 114.190325154,    4.8240,  5,  6,  2.0760,  2.2452, 10.9748, -0.7916, -4.2668,  2.8463,  0.00,   0.0
2051, 45885.000,  22.301465980, 114.190296340,   -4.3573,  5,  6,  2.0761,  2.2442, 10.9731, -0.7910, -4.2649,  2.8464,  0.00,   0.0
2051, 45886.000,  22.301435006, 114.190311424,   -4.8374,  5,  6,  2.0761,  2.2433, 10.9714, -0.7905, -4.2631,  2.8465,  0.00,   0.0
2051, 45887.000,  22.301484640, 114.190324188,    5.6512,  5,  6,  2.0762,  2.2424, 10.9697, -0.7900, -4.2612,  2.8465,  0.00,   0.0
2051, 45888.000,  22.301465584, 114.190327489,   -9.9519,  5,  6,  2.0762,  2.2415, 10.9681, -0.7895, -4.2593,  2.8466,  0.00,   0.0
2051, 45889.000,  22.301487532, 114.190310679,   -3.8858,  5,  6,  2.0763,  2.2406, 10.9664, -0.7890, -4.2575,  2.8467,  0.00,   0.0
2051, 45890.000,  22.301435394, 114.190357330,  -28.9234,  5,  6,  2.0764,  2.2397, 10.9647, -0.7885, -4.2556,  2.8468,  0.00,   0.0
2051, 45891.000,  22.301470591, 114.190377679,  -41.5410,  5,  6,  2.0764,  2.2388, 10.9630, -0.7879, -4.2537,  2.8468,  0.00,   0.0
2051, 45892.000,  22.301462868, 114.190334801,  -19.0240,  5,  6,  2.0765,  2.2378, 10.9613, -0.7874, -4.2518,  2.8469,  0.00,   0.0
2051, 45893.000,  22.301459854, 114.190318684,  -19.9010,  5,  6,  2.0765,  2.2369, 10.9596, -0.7869, -4.2500,  2.8470,  0.00,   0.0
2051, 45894.000,  22.301452113, 114.190314160,  -10.5448,  5,  6,  2.0766,  2.2360, 10.9579, -0.7863, -4.2481,  2.8470,  0.00,   0.0
2051, 45895.000,  22.301520880, 114.190280197,   10.7429,  5,  6,  2.0766,  2.2351, 10.9562, -0.7858, -4.2462,  2.8471,  0.00,   0.0
2051, 45896.000,  22.301505889, 114.190284890,   14.6842,  5,  6,  2.0767,  2.2342, 10.9545, -0.7853, -4.2443,  2.8471,  0.00,   0.0
2051, 45897.000,  22.301451344, 114.190315627,   -7.4568,  5,  6,  2.0767,  2.2333, 10.9528, -0.7848, -4.2425,  2.8472,  0.00,   0.0
2051, 45898.000,  22.301473462, 114.190313367,   -7.4579,  5,  6,  2.0768,  2.2324, 10.9511, -0.7842, -4.2406,  2.8473,  0.00,   0.0
2051, 45899.000,  22.301510267, 114.190317644,    4.9389,  5,  6,  2.0768,  2.2315, 10.9494, -0.7837, -4.2387,  2.8473,  0.00,   0.0
2051, 45900.000,  22.301501596, 114.190288768,   12.0446,  5,  6,  2.0769,  2.2305, 10.9477, -0.7831, -4.2368,  2.8474,  0.00,   0.0
2051, 45901.000,  22.301488600, 114.190314935,  -13.4695,  5,  6,  2.0770,  2.2296, 10.9460, -0.7826, -4.2350,  2.8475,  0.00,   0.0
2051, 45902.000,  22.301500530, 114.190261175,   10.8970,  5,  6,  2.0770,  2.2287, 10.9443, -0.7821, -4.2331,  2.8475,  0.00,   0.0
2051, 45903.000,  22.301486079, 114.190287663,   20.0824,  5,  6,  2.0771,  2.2278, 10.9426, -0.7815, -4.2312,  2.8476,  0.00,   0.0
2051, 45904.000,  22.301498443, 114.190282176,   16.3760,  5,  6,  2.0771,  2.2269, 10.9409, -0.7810, -4.2293,  2.8477,  0.00,   0.0
2051, 45905.000,  22.301477916, 114.190343506,  -11.6572,  5,  6,  2.0772,  2.2260, 10.9392, -0.7805, -4.2275,  2.8477,  0.00,   0.0
2051, 45906.000,  22.301484491, 114.190318374,   -9.6120,  5,  6,  2.0772,  2.2251, 10.9375, -0.7799, -4.2256,  2.8478,  0.00,   0.0
2051, 45907.000,  22.301467020, 114.190313506,   -7.1162,  5,  6,  2.0773,  2.2242, 10.9358, -0.7794, -4.2237,  2.8478,  0.00,   0.0
2051, 45908.000,  22.301454241, 114.190318609,  -12.3836,  5,  6,  2.0773,  2.2233, 10.9341, -0.7789, -4.2218,  2.8479,  0.00,   0.0
2051, 45909.000,  22.301452246, 114.190302911,  -15.8278,  5,  6,  2.0774,  2.2224, 10.9324, -0.7783, -4.2200,  2.8480,  0.00,   0.0
2051, 45910.000,  22.301451244, 114.190318081,  -32.9664,  5,  6,  2.0774,  2.2215, 10.9307, -0.7778, -4.2181,  2.8480,  0.00,   0.0
2051, 45911.000,  22.301509930, 114.190289547,   -2.9611,  5,  6,  2.0775,  2.2206, 10.9289, -0.7772, -4.2162,  2.8480,  0.00,   0.0
2051, 45912.000,  22.301487372, 114.190283586,   11.7795,  5,  6,  2.0775,  2.2197, 10.9272, -0.7767, -4.2143,  2.8481,  0.00,   0.0
2051, 45913.000,  22.301463911, 114.190297448,  -12.8873,  5,  6,  2.0776,  2.2188, 10.9255, -0.7761, -4.2125,  2.8481,  0.00,   0.0
2051, 45914.000,  22.301482922, 114.190261084,    1.2349,  5,  6,  2.0776,  2.2179, 10.9238, -0.7756, -4.2106,  2.8482,  0.00,   0.0
2051, 45915.000,  22.301507505, 114.190251170,   12.1906,  5,  6,  2.0777,  2.2170, 10.9221, -0.7750, -4.2087,  2.8482,  0.00,   0.0
2051, 45916.000,  22.301533194, 114.190288691,   -7.7357,  5,  6,  2.0777,  2.2161, 10.9204, -0.7745, -4.2068,  2.8483,  0.00,   0.0
2051, 45917.000,  22.301531188, 114.190279949,  -10.5140,  5,  6,  2.0778,  2.2152, 10.9187, -0.7739, -4.2049,  2.8483,  0.00,   0.0
2051, 45918.000,  22.301544354, 114.190256219,    1.4946,  5,  6,  2.0778,  2.2143, 10.9170, -0.7734, -4.2031,  2.8483,  0.00,   0.0
2051, 45919.000,  22.301557803, 114.190254219,    0.2985,  5,  6,  2.0779,  2.2134, 10.9153, -0.7728, -4.2012,  2.8484,  0.00,   0.0
2051, 45920.000,  22.301560317, 114.190261127,   -2.5206,  5,  6,  2.0779,  2.2125, 10.9136, -0.7723, -4.1993,  2.8484,  0.00,   0.0
2051, 45921.000,  22.301582975, 114.190231049,    6.6798,  5,  6,  2.0780,  2.2116, 10.9118, -0.7717, -4.1974,  2.8484,  0.00,   0.0
2051, 45922.000,  22.301615840, 114.190229450,    0.6278,  5,  6,  2.0780,  2.2107, 10.9101, -0.7712, -4.1955,  2.8485,  0.00,   0.0
2051, 45923.000,  22.301640792, 114.190217525,    0.8351,  5,  6,  2.0781,  2.2098, 10.9084, -0.7706, -4.1937,  2.8485,  0.00,   0.0
2051, 45924.000,  22.301666557, 114.190205503,    0.9158,  5,  6,  2.0781,  2.2089, 10.9067, -0.7700, -4.1918,  2.8485,  0.00,   0.0
2051, 45925.000,  22.301694104, 114.190194102,    0.8394,  5,  6,  2.0782,  2.2080, 10.9050, -0.7695, -4.1899,  2.8485,  0.00,   0.0
2051, 45926.000,  22.301724537, 114.190180566,    1.4088,  5,  6,  2.0782,  2.2071, 10.9033, -0.7689, -4.1880,  2.8485,  0.00,   0.0
2051, 45927.000,  22.301756761, 114.190166209,    0.8621,  5,  6,  2.0783,  2.2062, 10.9016, -0.7683, -4.1861,  2.8486,  0.00,   0.0
2051, 45928.000,  22.301792250, 114.190153737,    0.4286,  5,  6,  2.0783,  2.2053, 10.8999, -0.7678, -4.1843,  2.8486,  0.00,   0.0
2051, 45929.000,  22.301828895, 114.190134107,    2.2028,  5,  6,  2.0784,  2.2044, 10.8981, -0.7672, -4.1824,  2.8486,  0.00,   0.0
2051, 45930.000,  22.301863768, 114.190118042,    1.8529,  5,  6,  2.0784,  2.2035, 10.8964, -0.7666, -4.1805,  2.8486,  0.00,   0.0
2051, 45931.000,  22.301895337, 114.190105266,    1.0112,  5,  6,  2.0784,  2.2026, 10.8947, -0.7661, -4.1786,  2.8486,  0.00,   0.0
2051, 45932.000,  22.301928649, 114.190089465,    1.0963,  5,  6,  2.0785,  2.2017, 10.8930, -0.7655, -4.1767,  2.8486,  0.00,   0.0
2051, 45933.000,  22.301959995, 114.190075567,    0.0181,  5,  6,  2.0785,  2.2008, 10.8913, -0.7649, -4.1749,  2.8486,  0.00,   0.0
2051, 45934.000,  22.301991667, 114.190058122,   -0.2082,  5,  6,  2.0786,  2.1999, 10.8896, -0.7643, -4.1730,  2.8487,  0.00,   0.0
2051, 45935.000,  22.302026365, 114.190046090,   -2.4831,  5,  6,  2.0786,  2.1990, 10.8878, -0.7638, -4.1711,  2.8487,  0.00,   0.0
2051, 45936.000,  22.302060481, 114.190030797,   -3.0755,  5,  6,  2.0787,  2.1981, 10.8861, -0.7632, -4.1692,  2.8487,  0.00,   0.0
2051, 45937.000,  22.302090832, 114.190012875,   -2.4507,  5,  6,  2.0787,  2.1972, 10.8844, -0.7626, -4.1673,  2.8487,  0.00,   0.0
2051, 45938.000,  22.302131824, 114.190000474,   -3.2817,  5,  6,  2.0788,  2.1963, 10.8827, -0.7620, -4.1655,  2.8487,  0.00,   0.0
2051, 45939.000,  22.302154165, 114.189975331,   -2.0782,  5,  6,  2.0788,  2.1954, 10.8810, -0.7615, -4.1636,  2.8487,  0.00,   0.0
2051, 45940.000,  22.302192961, 114.189959932,   -3.3299,  5,  6,  2.0788,  2.1945, 10.8792, -0.7609, -4.1617,  2.8487,  0.00,   0.0
2051, 45941.000,  22.302213325, 114.189933440,   -2.6101,  5,  6,  2.0789,  2.1937, 10.8775, -0.7603, -4.1598,  2.8487,  0.00,   0.0
2051, 45942.000,  22.302233416, 114.189904370,   -3.2430,  5,  6,  2.0789,  2.1928, 10.8758, -0.7597, -4.1579,  2.8487,  0.00,   0.0
2051, 45943.000,  22.302235633, 114.189859213,   -1.6886,  5,  6,  2.0790,  2.1919, 10.8741, -0.7591, -4.1560,  2.8487,  0.00,   0.0
2051, 45944.000,  22.302230689, 114.189812622,   -0.8407,  5,  6,  2.0790,  2.1910, 10.8723, -0.7586, -4.1541,  2.8487,  0.00,   0.0
2051, 45945.000,  22.302238638, 114.189777188,   -0.6585,  5,  6,  2.0791,  2.1901, 10.8706, -0.7580, -4.1523,  2.8487,  0.00,   0.0
2051, 45946.000,  22.302244026, 114.189743667,    1.0310,  5,  6,  2.0791,  2.1892, 10.8689, -0.7574, -4.1504,  2.8487,  0.00,   0.0
2051, 45947.000,  22.302230254, 114.189705817,    2.7206,  5,  6,  2.0792,  2.1883, 10.8672, -0.7568, -4.1485,  2.8488,  0.00,   0.0
2051, 45948.000,  22.302215871, 114.189671293,    2.2331,  5,  6,  2.0792,  2.1874, 10.8654, -0.7562, -4.1466,  2.8488,  0.00,   0.0
2051, 45949.000,  22.302214766, 114.189643526,    1.2294,  5,  6,  2.0792,  2.1865, 10.8637, -0.7557, -4.1447,  2.8488,  0.00,   0.0
2051, 45950.000,  22.302195592, 114.189608622,    0.3532,  5,  6,  2.0793,  2.1856, 10.8620, -0.7551, -4.1428,  2.8488,  0.00,   0.0
2051, 45951.000,  22.302227891, 114.189600890,    0.0935,  5,  6,  2.0793,  2.1847, 10.8603, -0.7545, -4.1409,  2.8488,  0.00,   0.0
2051, 45952.000,  22.302184032, 114.189553052,    0.8338,  5,  6,  2.0794,  2.1839, 10.8585, -0.7539, -4.1390,  2.8488,  0.00,   0.0
2051, 45953.000,  22.302158825, 114.189515432,    0.0776,  5,  6,  2.0794,  2.1830, 10.8568, -0.7533, -4.1372,  2.8488,  0.00,   0.0
2051, 45954.000,  22.302138468, 114.189480910,   -2.2961,  5,  6,  2.0795,  2.1821, 10.8551, -0.7528, -4.1353,  2.8488,  0.00,   0.0
2051, 45955.000,  22.302098657, 114.189425939,   -0.3657,  5,  6,  2.0795,  2.1812, 10.8534, -0.7522, -4.1334,  2.8488,  0.00,   0.0
2051, 45956.000,  22.302066286, 114.189373266,    1.2130,  5,  5,  3.1696,  3.4468, 12.3033,  2.4126, -5.7050, -2.3984,  0.00,   0.0
2051, 45957.000,  22.302061996, 114.189344111,   -1.7451,  5,  5,  3.1687,  3.4456, 12.3021,  2.4117, -5.7034, -2.3972,  0.00,   0.0
2051, 45958.000,  22.302047732, 114.189304248,   -4.0834,  5,  5,  3.1677,  3.4445, 12.3009,  2.4108, -5.7018, -2.3960,  0.00,   0.0
2051, 45959.000,  22.302024713, 114.189246897,   -1.7547,  5,  5,  3.1668,  3.4433, 12.2996,  2.4100, -5.7001, -2.3948,  0.00,   0.0
2051, 45960.000,  22.302017313, 114.189200686,   -1.2888,  5,  5,  3.1659,  3.4422, 12.2984,  2.4091, -5.6985, -2.3936,  0.00,   0.0
2051, 45961.000,  22.302022252, 114.189158023,   -0.8065,  5,  5,  3.1650,  3.4410, 12.2972,  2.4082, -5.6969, -2.3924,  0.00,   0.0
2051, 45962.000,  22.302029423, 114.189115891,    0.1944,  5,  5,  3.1641,  3.4399, 12.2959,  2.4073, -5.6953, -2.3912,  0.00,   0.0
2051, 45963.000,  22.302045138, 114.189076000,    1.1238,  5,  5,  3.1632,  3.4387, 12.2947,  2.4064, -5.6937, -2.3900,  0.00,   0.0
2051, 45964.000,  22.302067629, 114.189036282,    3.1193,  5,  5,  3.1623,  3.4376, 12.2934,  2.4055, -5.6921, -2.3888,  0.00,   0.0
2051, 45965.000,  22.302074068, 114.188983860,   -2.1206,  5,  5,  3.1613,  3.4364, 12.2922,  2.4046, -5.6905, -2.3876,  0.00,   0.0
2051, 45966.000,  22.302106631, 114.188959685,   -0.1773,  5,  5,  3.1604,  3.4353, 12.2910,  2.4038, -5.6888, -2.3864,  0.00,   0.0
2051, 45967.000,  22.302121392, 114.188930892,    7.2060,  5,  5,  3.1595,  3.4341, 12.2897,  2.4029, -5.6872, -2.3852,  0.00,   0.0
2051, 45968.000,  22.302149236, 114.188905092,   -0.0923,  5,  4,  3.7890,  4.0490, 13.3112,  3.2035, -4.6196,  2.2415,  0.00,   0.0
2051, 45969.000,  22.302172502, 114.188921722,   -5.7052,  5,  5,  2.0850,  2.1689, 13.2439, -0.7431, -4.0998,  3.0334,  0.00,   0.0
2051, 45970.000,  22.302195082, 114.188864529,  -11.5286,  5,  5,  2.0850,  2.1680, 13.2422, -0.7424, -4.0971,  3.0339,  0.00,   0.0
2051, 45971.000,  22.302243151, 114.188789675,    3.5529,  5,  5,  2.0851,  2.1671, 13.2405, -0.7417, -4.0944,  3.0344,  0.00,   0.0
2051, 45972.000,  22.302225826, 114.188763409,   12.5820,  5,  5,  2.0852,  2.1662, 13.2388, -0.7410, -4.0917,  3.0349,  0.00,   0.0
2051, 45973.000,  22.302218440, 114.188773872,   12.5322,  5,  5,  2.0852,  2.1654, 13.2371, -0.7403, -4.0890,  3.0355,  0.00,   0.0
2051, 45974.000,  22.302181170, 114.188767997,   -4.3156,  5,  5,  2.0853,  2.1645, 13.2354, -0.7396, -4.0863,  3.0360,  0.00,   0.0
2051, 45975.000,  22.302167504, 114.188746387,   14.4049,  5,  6,  2.0803,  2.1636, 10.8187, -0.7402, -4.0956,  2.8486,  0.00,   0.0
2051, 45976.000,  22.302156699, 114.188740611,  -25.6252,  5,  5,  2.0855,  2.1628, 13.2320, -0.7382, -4.0809,  3.0371,  0.00,   0.0
2051, 45977.000,  22.302166162, 114.188694007,    1.4190,  5,  5,  2.0855,  2.1619, 13.2302, -0.7375, -4.0782,  3.0376,  0.00,   0.0
2051, 45978.000,  22.302157474, 114.188782679,  -14.8650,  5,  5,  2.0856,  2.1610, 13.2285, -0.7368, -4.0755,  3.0381,  0.00,   0.0
2051, 45980.000,  22.302186435, 114.188715874,   -3.4934,  5,  5,  2.0857,  2.1593, 13.2251, -0.7354, -4.0701,  3.0392,  0.00,   0.0
2051, 45981.000,  22.302168344, 114.188771357,  -26.3652,  5,  5,  2.0858,  2.1585, 13.2234, -0.7347, -4.0674,  3.0397,  0.00,   0.0
2051, 45982.000,  22.302135862, 114.188763415,  -20.3989,  5,  5,  2.0859,  2.1576, 13.2217, -0.7340, -4.0647,  3.0402,  0.00,   0.0
2051, 45983.000,  22.302114212, 114.188825256,  -57.0877,  5,  6,  2.0441,  1.4981,  7.2569,  0.3276,  0.8030,  2.1568,  0.00,   0.0
2051, 45984.000,  22.302129464, 114.188821925,  -52.2748,  5,  6,  2.0442,  1.4981,  7.2580,  0.3284,  0.8054,  2.1579,  0.00,   0.0
2051, 45985.000,  22.302136579, 114.188814737,  -48.5745,  5,  6,  2.0442,  1.4982,  7.2590,  0.3291,  0.8077,  2.1589,  0.00,   0.0
2051, 45995.000,  22.302165347, 114.188718015,    3.8889,  5,  6,  2.0450,  1.4988,  7.2698,  0.3364,  0.8313,  2.1694,  0.00,   0.0
2051, 45996.000,  22.302160081, 114.188707961,   19.4435,  5,  6,  2.0451,  1.4989,  7.2708,  0.3371,  0.8337,  2.1705,  0.00,   0.0
2051, 45997.000,  22.302162803, 114.188690670,   32.1098,  5,  6,  2.0451,  1.4990,  7.2719,  0.3378,  0.8360,  2.1715,  0.00,   0.0
2051, 45998.000,  22.302163984, 114.188674461,   45.5335,  5,  6,  2.0452,  1.4990,  7.2730,  0.3385,  0.8383,  2.1726,  0.00,   0.0
2051, 45999.000,  22.302165486, 114.188666654,   52.5287,  5,  6,  2.0453,  1.4991,  7.2740,  0.3393,  0.8407,  2.1736,  0.00,   0.0
2051, 46007.000,  22.302167696, 114.188673469,   44.8084,  5,  6,  2.0459,  1.4997,  7.2826,  0.3450,  0.8590,  2.1819,  0.00,   0.0
2051, 46008.000,  22.302162996, 114.188691041,   31.2399,  5,  6,  2.0460,  1.4997,  7.2837,  0.3458,  0.8613,  2.1830,  0.00,   0.0
2051, 46013.000,  22.302171150, 114.188693332,    6.9074,  5,  6,  2.0463,  1.5001,  7.2891,  0.3494,  0.8726,  2.1882,  0.00,   0.0
2051, 46014.000,  22.302176684, 114.188687266,    5.6789,  5,  6,  2.0464,  1.5001,  7.2902,  0.3501,  0.8749,  2.1892,  0.00,   0.0
2051, 46015.000,  22.302187002, 114.188680537,    4.1844,  5,  6,  2.0465,  1.5002,  7.2913,  0.3508,  0.8772,  2.1902,  0.00,   0.0
2051, 46016.000,  22.302170184, 114.188707567,   -4.8889,  5,  6,  2.0466,  1.5003,  7.2923,  0.3515,  0.8794,  2.1913,  0.00,   0.0
2051, 46017.000,  22.302157527, 114.188720025,   -2.6788,  5,  6,  2.0466,  1.5004,  7.2934,  0.3522,  0.8816,  2.1923,  0.00,   0.0
2051, 46018.000,  22.302163631, 114.188718671,   -4.3322,  5,  6,  2.0467,  1.5004,  7.2945,  0.3529,  0.8839,  2.1933,  0.00,   0.0
2051, 46019.000,  22.302179713, 114.188704937,   -4.7635,  5,  6,  2.0468,  1.5005,  7.2956,  0.3537,  0.8861,  2.1944,  0.00,   0.0
2051, 46020.000,  22.302158611, 114.188725131,    0.4201,  5,  6,  2.0469,  1.5006,  7.2966,  0.3544,  0.8883,  2.1954,  0.00,   0.0
2051, 46021.000,  22.302167101, 114.188725170,   -4.1681,  5,  6,  2.0469,  1.5006,  7.2977,  0.3551,  0.8906,  2.1964,  0.00,   0.0
2051, 46022.000,  22.302150477, 114.188745354,   -8.9633,  5,  6,  2.0470,  1.5007,  7.2988,  0.3558,  0.8928,  2.1975,  0.00,   0.0
2051, 46023.000,  22.302171402, 114.188726061,  -10.9773,  5,  6,  2.0471,  1.5008,  7.2999,  0.3565,  0.8950,  2.1985,  0.00,   0.0
2051, 46024.000,  22.302172542, 114.188726532,  -10.1340,  5,  6,  2.0472,  1.5009,  7.3010,  0.3572,  0.8972,  2.1995,  0.00,   0.0
2051, 46030.000,  22.302162015, 114.188741755,   45.1495,  5,  7,  2.0476,  1.3024,  6.4829,  0.3639, -1.2997,  2.2074,  0.00,   0.0
2051, 46033.000,  22.302169795, 114.188727345,   44.3667,  5,  7,  2.0478,  1.3021,  6.4846,  0.3644, -1.2973,  2.2092,  0.00,   0.0
2051, 46034.000,  22.302175283, 114.188693921,   13.5856,  5,  6,  2.0479,  1.5016,  7.3117,  0.3644,  0.9193,  2.2097,  0.00,   0.0
2051, 46035.000,  22.302167329, 114.188690525,   11.3279,  5,  6,  2.0480,  1.5017,  7.3128,  0.3651,  0.9214,  2.2107,  0.00,   0.0
2051, 46036.000,  22.302157046, 114.188684979,   -1.0551,  5,  6,  2.0481,  1.5018,  7.3139,  0.3658,  0.9236,  2.2118,  0.00,   0.0
2051, 46037.000,  22.302115118, 114.188679731,   20.6559,  5,  6,  2.0481,  1.5018,  7.3150,  0.3665,  0.9258,  2.2128,  0.00,   0.0
2051, 46039.000,  22.302012231, 114.188702646,    3.9821,  5,  7,  2.0483,  1.3016,  6.4881,  0.3654, -1.2925,  2.2130,  0.00,   0.0
2051, 46040.000,  22.301997507, 114.188683688,   22.6597,  5,  7,  2.0484,  1.3015,  6.4887,  0.3656, -1.2917,  2.2136,  0.00,   0.0
2051, 46041.000,  22.301979703, 114.188627596,   45.4192,  5,  7,  2.0484,  1.3014,  6.4893,  0.3658, -1.2909,  2.2142,  0.00,   0.0
2051, 46045.000,  22.301868465, 114.188436188,   71.2755,  5,  6,  2.0488,  1.5025,  7.3236,  0.3722,  0.9432,  2.2210,  0.00,   0.0
2051, 46048.000,  22.301797983, 114.188288830,   85.7650,  5,  6,  2.0490,  1.5027,  7.3268,  0.3743,  0.9497,  2.2240,  0.00,   0.0
2051, 46049.000,  22.301767880, 114.188238331,   88.6678,  5,  7,  2.0490,  1.3007,  6.4939,  0.3672, -1.2843,  2.2191,  0.00,   0.0
2051, 46050.000,  22.301779849, 114.188157579,   88.9371,  5,  7,  2.0491,  1.3006,  6.4944,  0.3674, -1.2835,  2.2197,  0.00,   0.0
2051, 46080.000,  22.302414212, 114.187682873,  304.9259,  5,  4,  2.4490,  2.2815, 13.3297, -1.2770, -3.4487,  2.4730,  0.00,   0.0
2051, 46081.000,  22.301815159, 114.188510681,  -64.5447,  5,  5,  2.3886,  1.6623,  7.3800, -0.8394,  0.8250,  2.3903,  0.00,   0.0
2051, 46082.000,  22.301893533, 114.188499206,  -45.4839,  5,  5,  2.3889,  1.6624,  7.3813, -0.8393,  0.8264,  2.3919,  0.00,   0.0
2051, 46083.000,  22.301956862, 114.188539631,  -21.9520,  5,  5,  2.3893,  1.6624,  7.3826, -0.8391,  0.8278,  2.3936,  0.00,   0.0
2051, 46084.000,  22.302087589, 114.188561603,  -18.9838,  5,  4,  3.1685,  2.3315,  7.4300, -2.0261,  1.4283,  2.0039,  0.00,   0.0
2051, 46094.000,  22.302673169, 114.188510379,   -0.9637,  5,  5,  2.4408,  1.8963,  7.4393, -1.1645,  1.4839,  1.9691,  0.00,   0.0
2051, 46095.000,  22.302788012, 114.188923188,   53.3893,  5,  4,  5.9661, 11.7376, 16.6915,  7.8552, 13.2393,  9.2316,  0.00,   0.0
2051, 46096.000,  22.302744201, 114.188795705,   42.1427,  5,  4,  5.9631, 11.7373, 16.6902,  7.8527, 13.2384,  9.2287,  0.00,   0.0
2051, 46097.000,  22.302799714, 114.188863225,   58.4997,  5,  4,  5.9601, 11.7369, 16.6888,  7.8501, 13.2374,  9.2257,  0.00,   0.0
2051, 46098.000,  22.302648457, 114.188540650,   10.4582,  5,  5,  2.4410,  1.8964,  7.4433, -1.1633,  1.4885,  1.9745,  0.00,   0.0
2051, 46099.000,  22.302652893, 114.188536618,   13.1925,  5,  5,  2.4410,  1.8964,  7.4443, -1.1630,  1.4896,  1.9758,  0.00,   0.0
2051, 46100.000,  22.302611616, 114.188521809,    4.7876,  5,  5,  2.4411,  1.8965,  7.4453, -1.1627,  1.4908,  1.9772,  0.00,   0.0
2051, 46101.000,  22.302583774, 114.188532703,    4.8658,  5,  5,  2.4411,  1.8965,  7.4463, -1.1624,  1.4919,  1.9785,  0.00,   0.0
2051, 46102.000,  22.302579420, 114.188528014,   -1.8313,  5,  5,  2.4412,  1.8965,  7.4473, -1.1621,  1.4931,  1.9799,  0.00,   0.0
2051, 46103.000,  22.302601940, 114.188526354,   -9.5372,  5,  5,  2.4412,  1.8966,  7.4483, -1.1618,  1.4942,  1.9812,  0.00,   0.0
2051, 46104.000,  22.302614992, 114.188538149,   -5.0191,  5,  5,  2.4413,  1.8966,  7.4493, -1.1615,  1.4954,  1.9825,  0.00,   0.0
2051, 46105.000,  22.302655055, 114.188530798,  -15.6367,  5,  5,  2.4413,  1.8966,  7.4503, -1.1612,  1.4965,  1.9838,  0.00,   0.0
2051, 46106.000,  22.302730015, 114.188484688,  -13.1722,  5,  5,  2.4414,  1.8966,  7.4512, -1.1609,  1.4977,  1.9851,  0.00,   0.0
2051, 46107.000,  22.302754467, 114.188566846,    0.8317,  5,  7,  2.0529,  1.2958,  6.5260,  0.3783, -1.2356,  2.2526,  0.00,   0.0
2051, 46108.000,  22.302768151, 114.188539106,  -28.1660,  5,  7,  2.0530,  1.2957,  6.5265,  0.3785, -1.2348,  2.2531,  0.00,   0.0
2051, 46109.000,  22.302814769, 114.188535654,  -26.9837,  5,  7,  2.0530,  1.2956,  6.5271,  0.3787, -1.2339,  2.2537,  0.00,   0.0
2051, 46110.000,  22.302871895, 114.188508298,  -27.6404,  5,  7,  2.0531,  1.2955,  6.5276,  0.3789, -1.2330,  2.2542,  0.00,   0.0
2051, 46111.000,  22.302947867, 114.188388566,    5.9755,  5,  6,  2.0836,  2.0502, 10.5775, -0.6480, -3.8398,  2.8348,  0.00,   0.0
2051, 46112.000,  22.302969766, 114.188441598,  -39.0080,  5,  7,  2.0532,  1.2954,  6.5287,  0.3793, -1.2312,  2.2553,  0.00,   0.0
2051, 46113.000,  22.303083064, 114.188315744,    9.3107,  5,  7,  2.0533,  1.2953,  6.5292,  0.3796, -1.2303,  2.2558,  0.00,   0.0
2051, 46114.000,  22.303120316, 114.188225733,   14.1735,  5,  6,  2.6302,  1.3177,  6.9684,  0.7367, -0.9599,  3.0152,  0.00,   0.0
2051, 46115.000,  22.303193110, 114.188166169,   15.4672,  5,  6,  2.6303,  1.3176,  6.9692,  0.7371, -0.9584,  3.0158,  0.00,   0.0
2051, 46120.000,  22.303588167, 114.187948935,  -34.0562,  5,  5,  2.6386,  2.1982, 10.5661,  0.9500, -3.8566,  2.7398,  0.00,   0.0
2051, 46121.000,  22.303602799, 114.187831279,  -28.5073,  5,  5,  2.6388,  2.1976, 10.5643,  0.9508, -3.8547,  2.7397,  0.00,   0.0
2051, 46123.000,  22.303574351, 114.187563291,    0.5979,  5,  6,  2.0836,  2.0406, 10.5559, -0.6387, -3.8170,  2.8324,  0.00,   0.0
2051, 46124.000,  22.303681363, 114.187542077,   14.5086,  5,  5,  2.6393,  2.1956, 10.5589,  0.9533, -3.8490,  2.7391,  0.00,   0.0
2051, 46125.000,  22.303772155, 114.187505785,   26.4017,  5,  5,  2.6394,  2.1949, 10.5571,  0.9542, -3.8471,  2.7389,  0.00,   0.0
2051, 46126.000,  22.303964877, 114.187446009,  -46.8566,  5,  5,  2.6396,  2.1943, 10.5553,  0.9551, -3.8453,  2.7387,  0.00,   0.0
2051, 46131.000,  22.304110768, 114.186962764,   -9.9418,  5,  5,  2.6404,  2.1910, 10.5462,  0.9592, -3.8358,  2.7378,  0.00,   0.0
2051, 46132.000,  22.304149047, 114.186845920,    1.3762,  5,  5,  2.6405,  2.1904, 10.5444,  0.9601, -3.8339,  2.7376,  0.00,   0.0
2051, 46135.000,  22.304239608, 114.186591498,   -8.1863,  5,  5,  2.6410,  2.1885, 10.5390,  0.9626, -3.8282,  2.7371,  0.00,   0.0
2051, 46136.000,  22.304311680, 114.186542767,   -6.1082,  5,  5,  2.6411,  2.1878, 10.5372,  0.9634, -3.8264,  2.7368,  0.00,   0.0
2051, 46138.000,  22.304419349, 114.186428332,   -6.2825,  5,  5,  2.6414,  2.1865, 10.5336,  0.9651, -3.8226,  2.7365,  0.00,   0.0
2051, 46142.000,  22.304556892, 114.186178271,    9.8095,  5,  5,  2.6421,  2.1840, 10.5263,  0.9684, -3.8151,  2.7357,  0.00,   0.0
2051, 46143.000,  22.304608033, 114.186194980,   -4.9422,  5,  5,  2.6422,  2.1834, 10.5245,  0.9692, -3.8132,  2.7355,  0.00,   0.0
2051, 46144.000,  22.304640964, 114.186157756,   -2.0123,  5,  5,  2.6424,  2.1827, 10.5227,  0.9701, -3.8113,  2.7353,  0.00,   0.0
2051, 46146.000,  22.304626811, 114.186089051,   -0.4105,  5,  5,  2.6427,  2.1815, 10.5190,  0.9717, -3.8076,  2.7349,  0.00,   0.0
2051, 46148.000,  22.304680582, 114.186079529,    2.3855,  5,  4,  3.1774,  2.1744, 17.3680,  0.9769, -3.7609,  5.6605,  0.00,   0.0
2051, 46150.000,  22.304670785, 114.186056268,   11.1279,  5,  4,  3.1769,  2.1732, 17.3550,  0.9816, -3.7510,  5.6564,  0.00,   0.0
2051, 46151.000,  22.304679659, 114.186055180,   17.4797,  5,  5,  2.6375,  2.1725, 10.5055,  0.9612, -3.7919,  2.7437,  0.00,   0.0
2051, 46152.000,  22.304673812, 114.186054134,   14.8066,  5,  4,  3.1764,  2.1721, 17.3421,  0.9864, -3.7411,  5.6524,  0.00,   0.0
2051, 46153.000,  22.304676098, 114.186051119,   18.6226,  5,  5,  2.6379,  2.1713, 10.5019,  0.9630, -3.7882,  2.7433,  0.00,   0.0
2051, 46154.000,  22.304649730, 114.186050558,   -0.2445,  5,  5,  2.6380,  2.1707, 10.5001,  0.9639, -3.7863,  2.7431,  0.00,   0.0
2051, 46155.000,  22.304645847, 114.186045388,    2.5099,  5,  5,  2.6382,  2.1701, 10.4983,  0.9647, -3.7845,  2.7428,  0.00,   0.0
2051, 46157.000,  22.304649436, 114.186046270,    6.9455,  5,  5,  2.6386,  2.1689, 10.4947,  0.9665, -3.7808,  2.7424,  0.00,   0.0
2051, 46158.000,  22.304640932, 114.186043992,    4.5719,  5,  5,  2.6387,  2.1683, 10.4928,  0.9674, -3.7789,  2.7422,  0.00,   0.0
2051, 46159.000,  22.304636149, 114.186042105,    3.9349,  5,  5,  2.6389,  2.1677, 10.4910,  0.9682, -3.7771,  2.7419,  0.00,   0.0
2051, 46160.000,  22.304641278, 114.186040231,    7.6588,  5,  5,  2.6391,  2.1671, 10.4892,  0.9691, -3.7752,  2.7417,  0.00,   0.0
2051, 46161.000,  22.304644303, 114.186040741,    7.6737,  5,  5,  2.6393,  2.1665, 10.4874,  0.9700, -3.7734,  2.7415,  0.00,   0.0
2051, 46162.000,  22.304647455, 114.186041383,    7.6660,  5,  5,  2.6394,  2.1659, 10.4856,  0.9709, -3.7715,  2.7412,  0.00,   0.0
2051, 46163.000,  22.304650098, 114.186040842,    7.6776,  5,  5,  2.6396,  2.1653, 10.4838,  0.9717, -3.7697,  2.7410,  0.00,   0.0
2051, 46164.000,  22.304655326, 114.186042793,    7.2440,  5,  5,  2.6398,  2.1647, 10.4820,  0.9726, -3.7678,  2.7407,  0.00,   0.0
2051, 46185.000,  22.304680347, 114.186090115,   -0.6262,  5,  5,  2.6434,  2.1524, 10.4438,  0.9908, -3.7291,  2.7355,  0.00,   0.0
2051, 46186.000,  22.304683898, 114.186090283,    0.2695,  5,  5,  2.6435,  2.1518, 10.4419,  0.9917, -3.7272,  2.7352,  0.00,   0.0
2051, 46187.000,  22.304689083, 114.186086735,    2.7870,  5,  5,  2.6437,  2.1512, 10.4401,  0.9925, -3.7254,  2.7349,  0.00,   0.0
2051, 46188.000,  22.304691831, 114.186083341,    4.7954,  5,  5,  2.6439,  2.1506, 10.4383,  0.9934, -3.7235,  2.7347,  0.00,   0.0
2051, 46189.000,  22.304619855, 114.186043160,    5.9971,  5,  6,  2.0813,  1.9864, 10.4322, -0.5942, -3.6885,  2.8221,  0.00,   0.0
2051, 46196.000,  22.304627174, 114.186024957,   14.1210,  5,  6,  2.0813,  1.9813, 10.4194, -0.5880, -3.6755,  2.8201,  0.00,   0.0
2051, 46207.000,  22.304667539, 114.186061278,    7.2372,  5,  5,  2.6470,  2.1397, 10.4036,  1.0096, -3.6885,  2.7294,  0.00,   0.0
2051, 46210.000,  22.304665308, 114.186061212,    6.7197,  5,  5,  2.6475,  2.1380, 10.3981,  1.0121, -3.6830,  2.7286,  0.00,   0.0
2051, 46211.000,  22.304665232, 114.186056529,    8.1333,  5,  5,  2.6405,  2.1375, 10.3949,  1.0138, -3.6809,  2.7223,  0.00,   0.0
2051, 46235.000,  22.304880284, 114.185976735,   -1.8120,  5,  5,  2.1365,  1.9805, 15.1922, -0.6805, -4.0823,  3.6546,  0.00,   0.0
2051, 46236.000,  22.304878870, 114.186033670,  -51.1853,  5,  6,  2.0788,  1.9518, 10.3448, -0.5462, -3.6000,  2.8049,  0.00,   0.0
2051, 46238.000,  22.304613198, 114.186522381, -204.2339,  5,  4,  4.6374,  5.4748, 23.6141, -4.6337,-10.4371,  9.3696,  0.00,   0.0
2051, 46244.000,  22.305407515, 114.186092764,  229.1641,  5,  4,  2.5372,  2.1055, 16.0301, -1.2068, -4.5022,  4.5218,  0.00,   0.0
2051, 46245.000,  22.305468594, 114.186124239,  226.5827,  5,  4,  2.5371,  2.1044, 16.0244, -1.2055, -4.4982,  4.5201,  0.00,   0.0
2051, 46248.000,  22.305455487, 114.186284072,  107.8401,  5,  6,  2.0787,  1.9434, 10.3227, -0.5346, -3.5778,  2.8009,  0.00,   0.0
2051, 46249.000,  22.305404391, 114.186399446,   54.2756,  5,  6,  2.0787,  1.9427, 10.3209, -0.5336, -3.5760,  2.8006,  0.00,   0.0
2051, 46250.000,  22.305400563, 114.186417882,   37.3079,  5,  6,  2.0787,  1.9420, 10.3191, -0.5327, -3.5742,  2.8003,  0.00,   0.0
2051, 46251.000,  22.305372267, 114.186407482,   15.9441,  5,  6,  2.0787,  1.9413, 10.3173, -0.5317, -3.5723,  2.8000,  0.00,   0.0
2051, 46252.000,  22.305413662, 114.186392470,   -0.1107,  5,  6,  2.0787,  1.9406, 10.3155, -0.5307, -3.5705,  2.7997,  0.00,   0.0
2051, 46255.000,  22.305338078, 114.186355262, -131.9402,  5,  4,  3.1346,  2.1222, 16.6430,  1.1940, -3.2320,  5.4076,  0.00,   0.0
2051, 46256.000,  22.305298412, 114.186331103, -148.4907,  5,  4,  3.1344,  2.1218, 16.6366,  1.1958, -3.2271,  5.4055,  0.00,   0.0
2051, 46257.000,  22.305230012, 114.186270987, -226.7024,  5,  4,  3.1341,  2.1214, 16.6302,  1.1975, -3.2221,  5.4034,  0.00,   0.0
2051, 46269.000,  22.305014495, 114.185350491,   -4.4670,  5,  4,  2.9955,  3.3451, 12.4600,  1.9452, -5.6299, -1.3261,  0.00,   0.0
2051, 46279.000,  22.306119238, 114.185241649,   35.3846,  5,  4,  4.0344,  2.1017, 10.5705,  0.9738, -3.5787,  3.8599,  0.00,   0.0
2051, 46280.000,  22.306238388, 114.185273341,   22.0706,  5,  4,  4.0357,  2.1011, 10.5686,  0.9763, -3.5765,  3.8600,  0.00,   0.0
2051, 46281.000,  22.306271715, 114.185218963,   28.7396,  5,  4,  4.0371,  2.1006, 10.5667,  0.9789, -3.5743,  3.8601,  0.00,   0.0
2051, 46285.000,  22.304005353, 114.183440482,  306.9305,  5,  4,  7.9726,  7.1933, 17.0582,  7.2721,-10.3121, -9.7556,  0.00,   0.0
2051, 46286.000,  22.304436386, 114.183691972,  233.2341,  5,  4,  7.9660,  7.1878, 17.0513,  7.2660,-10.3053, -9.7481,  0.00,   0.0
2051, 46287.000,  22.304589275, 114.183677857,  228.8766,  5,  4,  7.9594,  7.1823, 17.0445,  7.2599,-10.2986, -9.7405,  0.00,   0.0
2051, 46290.000,  22.306472893, 114.184890680,  -50.7124,  5,  4,  2.5311,  2.0539, 15.7651, -1.1469, -4.3182,  4.4420,  0.00,   0.0
2051, 46291.000,  22.306488843, 114.184848686,   -5.3271,  5,  6,  2.0783,  1.9138, 10.2438, -0.4907, -3.4982,  2.7858,  0.00,   0.0
2051, 46294.000,  22.306534457, 114.184705630,  -63.0112,  5,  5,  2.1290,  1.9294, 14.9101, -0.5981, -3.8753,  3.5722,  0.00,   0.0
2051, 46295.000,  22.306558913, 114.184642205,  -22.1731,  5,  6,  2.0783,  1.9111, 10.2364, -0.4864, -3.4907,  2.7843,  0.00,   0.0
2051, 46297.000,  22.306390150, 114.184289414,   97.7542,  5,  4,  2.9790,  3.3105, 12.4201,  1.9227, -5.5804, -1.2807,  0.00,   0.0
2051, 46298.000,  22.306391039, 114.184341977,   45.5057,  5,  4,  2.9784,  3.3093, 12.4187,  1.9219, -5.5787, -1.2790,  0.00,   0.0
2051, 46306.000,  22.306648675, 114.184619387,  -78.6021,  5,  5,  2.1274,  1.9196, 14.8526, -0.5806, -3.8336,  3.5550,  0.00,   0.0
2051, 46309.000,  22.306647802, 114.184615106,  -40.3990,  5,  6,  2.0781,  1.9018, 10.2106, -0.4711, -3.4650,  2.7790,  0.00,   0.0
2051, 46340.000,  22.306526297, 114.184302323,   -6.5478,  5,  5,  2.8510,  1.7892,  6.7968,  1.2083, -1.4832,  2.5539,  0.00,   0.0
2051, 46346.000,  22.306942288, 114.184210639,   49.6595,  5,  6,  2.3774,  1.3608,  6.7843, -0.6058, -1.2854,  2.6957,  0.00,   0.0
2051, 46347.000,  22.306939192, 114.184252524,   48.8403,  5,  6,  2.3776,  1.3607,  6.7848, -0.6056, -1.2846,  2.6963,  0.00,   0.0
2051, 46348.000,  22.306961655, 114.184300820,   45.4383,  5,  5,  2.8465,  1.7872,  6.8019,  1.2029, -1.4825,  2.5555,  0.00,   0.0
2051, 46349.000,  22.307098373, 114.184361587,   45.3923,  5,  5,  2.8460,  1.7869,  6.8025,  1.2022, -1.4824,  2.5557,  0.00,   0.0
2051, 46351.000,  22.307093036, 114.184472445,   32.2585,  5,  6,  2.6797,  1.6726,  6.6377,  1.4288, -1.1223,  2.2597,  0.00,   0.0
2051, 46352.000,  22.307174365, 114.184440076,   37.3582,  5,  6,  2.6790,  1.6724,  6.6381,  1.4283, -1.1219,  2.2596,  0.00,   0.0
2051, 46355.000,  22.307281172, 114.184468919,   24.5295,  5,  5,  2.8426,  1.7854,  6.8064,  1.1982, -1.4819,  2.5568,  0.00,   0.0
2051, 46356.000,  22.307342772, 114.184484427,   39.3153,  5,  5,  2.8421,  1.7852,  6.8070,  1.1975, -1.4818,  2.5570,  0.00,   0.0
2051, 46357.000,  22.307473268, 114.184632691,   61.1813,  5,  5,  2.4494,  1.9074,  7.7032, -1.0688,  1.7993,  2.2767,  0.00,   0.0
2051, 46358.000,  22.307478772, 114.184574001,   49.3490,  5,  6,  2.0671,  1.5383,  7.6622,  0.5838,  1.5282,  2.4989,  0.00,   0.0
2051, 46359.000,  22.307461227, 114.184641820,   24.1894,  5,  6,  2.0672,  1.5385,  7.6632,  0.5844,  1.5299,  2.4997,  0.00,   0.0
2051, 46382.000,  22.307836809, 114.184505150,  150.9442,  5,  5,  2.4075,  1.9374, 10.2722, -0.9092, -3.4951,  3.1614,  0.00,   0.0
2051, 46383.000,  22.307820616, 114.184523171,  142.4891,  5,  5,  2.4076,  1.9367, 10.2702, -0.9084, -3.4932,  3.1609,  0.00,   0.0
2051, 46384.000,  22.307813467, 114.184564936,  119.0103,  5,  6,  2.3837,  1.3571,  6.8034, -0.5966, -1.2531,  2.7170,  0.00,   0.0
2051, 46387.000,  22.307888464, 114.184464252,  180.0155,  5,  5,  2.4079,  1.9338, 10.2624, -0.9051, -3.4855,  3.1590,  0.00,   0.0
2051, 46425.000,  22.307864641, 114.184875831,   78.8146,  5,  6,  2.0716,  1.5517,  7.7337,  0.6277,  1.6425,  2.5498,  0.00,   0.0
2051, 46433.000,  22.307931686, 114.184738066,   45.9177,  5,  6,  2.6212,  1.6552,  6.6682,  1.3866, -1.0928,  2.2458,  0.00,   0.0
2051, 46434.000,  22.308003714, 114.184722188,   31.6021,  5,  7,  2.0611,  1.2736,  6.6566,  0.4593, -0.8783,  2.3851,  0.00,   0.0
2051, 46439.000,  22.308168512, 114.184511057,   28.2000,  5,  6,  2.3922,  1.3518,  6.8288, -0.5819, -1.2033,  2.7456,  0.00,   0.0
2051, 46440.000,  22.308251971, 114.184448690,   35.1260,  5,  7,  2.0611,  1.2734,  6.6581,  0.4610, -0.8700,  2.3866,  0.00,   0.0
2051, 46444.000,  22.308338975, 114.184159803,    5.8500,  5,  6,  2.0727,  1.5558,  7.7539,  0.6400,  1.6747,  2.5636,  0.00,   0.0
2051, 46449.000,  22.308541057, 114.183906656,   -2.7287,  5,  6,  2.6100,  1.6520,  6.6738,  1.3786, -1.0866,  2.2425,  0.00,   0.0
2051, 46450.000,  22.308583208, 114.183846395,   -1.0426,  5,  6,  2.6093,  1.6517,  6.6741,  1.3781, -1.0862,  2.2423,  0.00,   0.0
2051, 46451.000,  22.308639384, 114.183840542,    0.8281,  5,  6,  2.6086,  1.6515,  6.6745,  1.3776, -1.0858,  2.2421,  0.00,   0.0
2051, 46452.000,  22.308649952, 114.183755512,   17.5534,  5,  6,  2.6079,  1.6513,  6.6748,  1.3771, -1.0854,  2.2419,  0.00,   0.0
2051, 46453.000,  22.308668475, 114.183651608,   29.8452,  5,  6,  2.6072,  1.6511,  6.6751,  1.3766, -1.0850,  2.2417,  0.00,   0.0
2051, 46454.000,  22.308627370, 114.183604461,   26.2539,  5,  6,  2.6065,  1.6509,  6.6755,  1.3761, -1.0846,  2.2415,  0.00,   0.0
2051, 46455.000,  22.308689479, 114.183559271,   30.9885,  5,  6,  2.6058,  1.6507,  6.6758,  1.3756, -1.0842,  2.2413,  0.00,   0.0
2051, 46456.000,  22.308674266, 114.183519936,   11.2051,  5,  7,  2.0611,  1.2727,  6.6620,  0.4655, -0.8473,  2.3906,  0.00,   0.0
2051, 46457.000,  22.308721573, 114.183497736,   22.9572,  5,  7,  2.0611,  1.2727,  6.6622,  0.4657, -0.8458,  2.3908,  0.00,   0.0
2051, 46458.000,  22.308697308, 114.183457483,   11.7046,  5,  7,  2.0611,  1.2726,  6.6625,  0.4660, -0.8444,  2.3911,  0.00,   0.0
2051, 46459.000,  22.308693019, 114.183419546,   12.5702,  5,  7,  2.0611,  1.2726,  6.6627,  0.4663, -0.8430,  2.3913,  0.00,   0.0
2051, 46460.000,  22.308695344, 114.183361099,   26.5232,  5,  7,  2.0611,  1.2726,  6.6629,  0.4666, -0.8415,  2.3916,  0.00,   0.0
2051, 46461.000,  22.308662050, 114.183267092,   22.2166,  5,  7,  2.0611,  1.2725,  6.6632,  0.4669, -0.8400,  2.3918,  0.00,   0.0
2051, 46462.000,  22.308647414, 114.183195057,   23.6511,  5,  7,  2.0611,  1.2725,  6.6634,  0.4671, -0.8386,  2.3920,  0.00,   0.0
2051, 46463.000,  22.308603208, 114.183121738,   20.1098,  5,  7,  2.0611,  1.2724,  6.6636,  0.4674, -0.8371,  2.3923,  0.00,   0.0
2051, 46464.000,  22.308534188, 114.183058784,    8.0342,  5,  7,  2.0611,  1.2724,  6.6638,  0.4677, -0.8357,  2.3925,  0.00,   0.0
2051, 46465.000,  22.308445515, 114.182970268,   -1.8831,  5,  7,  2.0611,  1.2724,  6.6641,  0.4680, -0.8342,  2.3928,  0.00,   0.0
2051, 46466.000,  22.308398177, 114.182857653,   -6.0105,  5,  7,  2.0611,  1.2723,  6.6643,  0.4683, -0.8327,  2.3930,  0.00,   0.0
2051, 46467.000,  22.308348147, 114.182798877,    5.6151,  5,  6,  2.0725,  1.8048,  9.9159, -0.2416, -3.1764,  2.7059,  0.00,   0.0
2051, 46468.000,  22.308315548, 114.182689436,   -1.4694,  5,  7,  2.0611,  1.2722,  6.6647,  0.4688, -0.8297,  2.3935,  0.00,   0.0
2051, 46469.000,  22.308316351, 114.182607120,   -0.2922,  5,  7,  2.0611,  1.2722,  6.6650,  0.4691, -0.8282,  2.3938,  0.00,   0.0
2051, 46471.000,  22.308181917, 114.182428338,    4.9668,  5,  7,  2.0611,  1.2721,  6.6654,  0.4697, -0.8253,  2.3942,  0.00,   0.0
2051, 46472.000,  22.308098328, 114.182341863,   -9.5233,  5,  7,  2.0611,  1.2721,  6.6656,  0.4700, -0.8238,  2.3945,  0.00,   0.0
2051, 46473.000,  22.308022021, 114.182260326,   -5.0687,  5,  7,  2.0611,  1.2721,  6.6658,  0.4702, -0.8223,  2.3947,  0.00,   0.0
2051, 46474.000,  22.307967659, 114.182176008,   -2.3131,  5,  7,  2.0611,  1.2720,  6.6660,  0.4705, -0.8208,  2.3950,  0.00,   0.0
2051, 46475.000,  22.307936560, 114.182108190,    0.0784,  5,  7,  2.0611,  1.2720,  6.6663,  0.4708, -0.8193,  2.3952,  0.00,   0.0
2051, 46476.000,  22.307891452, 114.182040721,    1.3094,  5,  7,  2.0611,  1.2719,  6.6665,  0.4711, -0.8178,  2.3954,  0.00,   0.0
2051, 46477.000,  22.307859819, 114.181967513,   13.5692,  5,  7,  2.0611,  1.2719,  6.6667,  0.4714, -0.8163,  2.3957,  0.00,   0.0
2051, 46478.000,  22.307785531, 114.181884813,    2.3448,  5,  7,  2.0611,  1.2719,  6.6669,  0.4717, -0.8147,  2.3959,  0.00,   0.0
2051, 46479.000,  22.307762480, 114.181836873,    6.1763,  5,  7,  2.0611,  1.2718,  6.6671,  0.4719, -0.8132,  2.3961,  0.00,   0.0
2051, 46480.000,  22.307702121, 114.181770235,   14.8492,  5,  7,  2.0611,  1.2718,  6.6673,  0.4722, -0.8117,  2.3964,  0.00,   0.0
2051, 46481.000,  22.307642515, 114.181701372,    5.0943,  5,  7,  2.0611,  1.2718,  6.6675,  0.4725, -0.8102,  2.3966,  0.00,   0.0
2051, 46482.000,  22.307609583, 114.181634722,   11.4698,  5,  7,  2.0611,  1.2717,  6.6677,  0.4728, -0.8087,  2.3968,  0.00,   0.0
2051, 46483.000,  22.307559858, 114.181554530,   11.9818,  5,  7,  2.0611,  1.2717,  6.6679,  0.4731, -0.8072,  2.3970,  0.00,   0.0
2051, 46484.000,  22.307497965, 114.181486502,    6.7591,  5,  7,  2.0611,  1.2716,  6.6681,  0.4733, -0.8056,  2.3973,  0.00,   0.0
2051, 46485.000,  22.307434769, 114.181404973,   11.2770,  5,  7,  2.0611,  1.2716,  6.6683,  0.4736, -0.8041,  2.3975,  0.00,   0.0
2051, 46486.000,  22.307367599, 114.181333507,   10.2930,  5,  7,  2.0610,  1.2716,  6.6686,  0.4739, -0.8026,  2.3977,  0.00,   0.0
2051, 46487.000,  22.307298964, 114.181261108,   10.2076,  5,  7,  2.0610,  1.2715,  6.6688,  0.4742, -0.8010,  2.3980,  0.00,   0.0
2051, 46488.000,  22.307228392, 114.181188440,    9.9590,  5,  7,  2.0610,  1.2715,  6.6690,  0.4745, -0.7995,  2.3982,  0.00,   0.0
2051, 46489.000,  22.307134220, 114.181120850,    1.5854,  5,  7,  2.0610,  1.2715,  6.6692,  0.4747, -0.7980,  2.3984,  0.00,   0.0
2051, 46490.000,  22.307064406, 114.181024611,    3.7396,  5,  7,  2.0610,  1.2714,  6.6694,  0.4750, -0.7964,  2.3986,  0.00,   0.0
2051, 46491.000,  22.306998908, 114.180973506,    5.2491,  5,  7,  2.0610,  1.2714,  6.6696,  0.4753, -0.7949,  2.3989,  0.00,   0.0
2051, 46492.000,  22.306912731, 114.180880154,    1.4135,  5,  6,  2.3994,  1.3469,  6.8504, -0.5658, -1.1508,  2.7705,  0.00,   0.0
2051, 46493.000,  22.306866841, 114.180798066,    7.9868,  5,  6,  2.3996,  1.3468,  6.8508, -0.5655, -1.1498,  2.7710,  0.00,   0.0
2051, 46494.000,  22.306751942, 114.180735028,   14.2172,  5,  6,  2.3997,  1.3467,  6.8512, -0.5652, -1.1488,  2.7714,  0.00,   0.0
2051, 46495.000,  22.306732375, 114.180645261,   38.6594,  5,  6,  2.3998,  1.3466,  6.8516, -0.5649, -1.1477,  2.7719,  0.00,   0.0
2051, 46496.000,  22.306624307, 114.180536488,   29.9659,  5,  6,  2.4000,  1.3465,  6.8519, -0.5646, -1.1467,  2.7723,  0.00,   0.0
2051, 46497.000,  22.306521180, 114.180486157,    8.4249,  5,  6,  2.4001,  1.3464,  6.8523, -0.5643, -1.1457,  2.7728,  0.00,   0.0
2051, 46498.000,  22.306455069, 114.180448319,   16.5864,  5,  6,  2.4002,  1.3464,  6.8527, -0.5639, -1.1446,  2.7732,  0.00,   0.0
2051, 46499.000,  22.306390503, 114.180344190,    6.3087,  5,  6,  2.0759,  1.5685,  7.8115,  0.6757,  1.7671,  2.6027,  0.00,   0.0
2051, 46507.000,  22.305977802, 114.179952064,   -2.0134,  5,  5,  2.4500,  1.9246,  7.8540, -0.9916,  1.9959,  2.4190,  0.00,   0.0
2051, 46508.000,  22.305955585, 114.179888234,    7.6594,  5,  6,  2.0764,  1.5707,  7.8209,  0.6815,  1.7820,  2.6089,  0.00,   0.0
2051, 46509.000,  22.305893017, 114.179877375,    5.9441,  5,  6,  2.0765,  1.5709,  7.8219,  0.6822,  1.7837,  2.6095,  0.00,   0.0
2051, 46510.000,  22.305842654, 114.179914199,   29.3382,  5,  6,  2.4017,  1.3453,  6.8571, -0.5601, -1.1323,  2.7785,  0.00,   0.0
2051, 46512.000,  22.305769153, 114.179585906,   39.7077,  5,  7,  2.0608,  1.2707,  6.6735,  0.4812, -0.7617,  2.4033,  0.00,   0.0
2051, 46514.000,  22.305780338, 114.179407898,   53.4785,  5,  6,  2.4022,  1.3449,  6.8585, -0.5587, -1.1280,  2.7801,  0.00,   0.0
2051, 46525.000,  22.305376298, 114.178678356,   11.1565,  5,  7,  2.0606,  1.2703,  6.6757,  0.4848, -0.7403,  2.4057,  0.00,   0.0
2051, 46526.000,  22.305300814, 114.178632292,    7.4199,  5,  7,  2.0606,  1.2702,  6.6758,  0.4851, -0.7386,  2.4059,  0.00,   0.0
2051, 46527.000,  22.305205737, 114.178581870,    8.4618,  5,  7,  2.0606,  1.2702,  6.6760,  0.4853, -0.7370,  2.4061,  0.00,   0.0
2051, 46528.000,  22.305119105, 114.178558851,    3.4671,  5,  7,  2.0606,  1.2702,  6.6761,  0.4856, -0.7353,  2.4063,  0.00,   0.0
2051, 46529.000,  22.305023120, 114.178542913,   -9.1059,  5,  7,  2.0606,  1.2701,  6.6763,  0.4859, -0.7337,  2.4065,  0.00,   0.0
2051, 46530.000,  22.304924872, 114.178528213,  -20.3747,  5,  7,  2.0606,  1.2701,  6.6765,  0.4862, -0.7320,  2.4067,  0.00,   0.0
2051, 46531.000,  22.304836969, 114.178463693,    4.4509,  5,  7,  2.0605,  1.2701,  6.6766,  0.4864, -0.7303,  2.4069,  0.00,   0.0
2051, 46532.000,  22.304734261, 114.178434485,    7.2531,  5,  7,  2.0605,  1.2700,  6.6768,  0.4867, -0.7287,  2.4071,  0.00,   0.0
2051, 46533.000,  22.304633228, 114.178400334,   11.5397,  5,  7,  2.0605,  1.2700,  6.6769,  0.4870, -0.7270,  2.4073,  0.00,   0.0
2051, 46534.000,  22.304552309, 114.178377279,   18.4241,  5,  7,  2.0605,  1.2700,  6.6771,  0.4873, -0.7253,  2.4074,  0.00,   0.0
2051, 46535.000,  22.304438325, 114.178360562,    0.3541,  5,  7,  2.0605,  1.2699,  6.6772,  0.4875, -0.7236,  2.4076,  0.00,   0.0
2051, 46536.000,  22.304350134, 114.178329442,    1.9297,  5,  7,  2.0605,  1.2699,  6.6774,  0.4878, -0.7219,  2.4078,  0.00,   0.0
2051, 46537.000,  22.304271558, 114.178313593,    2.2476,  5,  7,  2.0604,  1.2699,  6.6775,  0.4881, -0.7202,  2.4080,  0.00,   0.0
2051, 46538.000,  22.304186781, 114.178270251,   13.6080,  5,  7,  2.0604,  1.2699,  6.6777,  0.4884, -0.7185,  2.4082,  0.00,   0.0
2051, 46539.000,  22.304099259, 114.178251291,   12.4363,  5,  7,  2.0604,  1.2698,  6.6778,  0.4886, -0.7168,  2.4084,  0.00,   0.0
2051, 46540.000,  22.304008040, 114.178224178,    9.9379,  5,  7,  2.0604,  1.2698,  6.6779,  0.4889, -0.7151,  2.4085,  0.00,   0.0
2051, 46541.000,  22.303960314, 114.178182772,    8.9325,  5,  7,  2.0604,  1.2698,  6.6781,  0.4892, -0.7134,  2.4087,  0.00,   0.0
2051, 46542.000,  22.303844134, 114.178130082,   -6.9628,  5,  7,  2.0603,  1.2697,  6.6782,  0.4894, -0.7117,  2.4089,  0.00,   0.0
2051, 46543.000,  22.303794245, 114.178058455,    6.2322,  5,  7,  2.0603,  1.2697,  6.6784,  0.4897, -0.7100,  2.4091,  0.00,   0.0
2051, 46544.000,  22.303718001, 114.178009546,    2.1424,  5,  7,  2.0603,  1.2697,  6.6785,  0.4900, -0.7082,  2.4092,  0.00,   0.0
2051, 46545.000,  22.303672475, 114.177955120,    7.5492,  5,  7,  2.0603,  1.2697,  6.6787,  0.4903, -0.7065,  2.4094,  0.00,   0.0
2051, 46546.000,  22.303625882, 114.177882283,    1.1000,  5,  7,  2.0603,  1.2696,  6.6788,  0.4906, -0.7047,  2.4096,  0.00,   0.0
2051, 46547.000,  22.303541892, 114.177843443,    1.2171,  5,  7,  2.0602,  1.2696,  6.6789,  0.4908, -0.7030,  2.4097,  0.00,   0.0
2051, 46548.000,  22.303507368, 114.177771762,    8.7803,  5,  7,  2.0602,  1.2696,  6.6791,  0.4911, -0.7012,  2.4099,  0.00,   0.0
2051, 46549.000,  22.303439416, 114.177734244,   10.7350,  5,  7,  2.0602,  1.2695,  6.6792,  0.4914, -0.6995,  2.4101,  0.00,   0.0
2051, 46550.000,  22.303426267, 114.177682214,   16.4309,  5,  7,  2.0602,  1.2695,  6.6793,  0.4917, -0.6977,  2.4102,  0.00,   0.0
2051, 46551.000,  22.303361682, 114.177666383,    0.6023,  5,  7,  2.0601,  1.2695,  6.6795,  0.4919, -0.6960,  2.4104,  0.00,   0.0
2051, 46552.000,  22.303324249, 114.177606280,    2.0188,  5,  7,  2.0601,  1.2695,  6.6796,  0.4922, -0.6942,  2.4105,  0.00,   0.0
2051, 46553.000,  22.303288339, 114.177580689,    8.8567,  5,  7,  2.0601,  1.2694,  6.6797,  0.4925, -0.6924,  2.4107,  0.00,   0.0
2051, 46554.000,  22.303265729, 114.177520201,   25.1640,  5,  7,  2.0601,  1.2694,  6.6799,  0.4927, -0.6907,  2.4108,  0.00,   0.0
2051, 46555.000,  22.303190398, 114.177506997,    6.1674,  5,  7,  2.0600,  1.2694,  6.6800,  0.4930, -0.6889,  2.4110,  0.00,   0.0
2051, 46556.000,  22.303163756, 114.177479636,    9.7905,  5,  7,  2.0600,  1.2693,  6.6801,  0.4933, -0.6871,  2.4112,  0.00,   0.0
2051, 46557.000,  22.303126783, 114.177470501,    7.7105,  5,  7,  2.0600,  1.2693,  6.6803,  0.4936, -0.6854,  2.4113,  0.00,   0.0
2051, 46558.000,  22.303107370, 114.177484042,    4.5237,  5,  7,  2.0600,  1.2693,  6.6804,  0.4938, -0.6836,  2.4115,  0.00,   0.0
2051, 46559.000,  22.303066775, 114.177462874,   -0.2897,  5,  7,  2.0599,  1.2693,  6.6805,  0.4941, -0.6818,  2.4116,  0.00,   0.0
2051, 46560.000,  22.303095659, 114.177448311,   15.2935,  5,  7,  2.0599,  1.2692,  6.6806,  0.4944, -0.6800,  2.4118,  0.00,   0.0
2051, 46561.000,  22.303087712, 114.177489415,   11.7237,  5,  7,  2.0599,  1.2692,  6.6808,  0.4946, -0.6783,  2.4119,  0.00,   0.0
2051, 46562.000,  22.303057449, 114.177509519,   10.1852,  5,  7,  2.0598,  1.2692,  6.6809,  0.4949, -0.6765,  2.4120,  0.00,   0.0
2051, 46563.000,  22.303125211, 114.177532890,   23.3897,  5,  7,  2.0598,  1.2691,  6.6810,  0.4952, -0.6747,  2.4122,  0.00,   0.0
2051, 46564.000,  22.303130996, 114.177512138,   20.4648,  5,  7,  2.0598,  1.2691,  6.6811,  0.4954, -0.6729,  2.4123,  0.00,   0.0
2051, 46565.000,  22.303134865, 114.177510486,   18.8795,  5,  7,  2.0597,  1.2691,  6.6812,  0.4957, -0.6711,  2.4124,  0.00,   0.0
2051, 46566.000,  22.303105666, 114.177503119,   19.4899,  5,  7,  2.0597,  1.2691,  6.6813,  0.4960, -0.6693,  2.4126,  0.00,   0.0
2051, 46567.000,  22.303128078, 114.177504655,   23.9579,  5,  7,  2.0597,  1.2690,  6.6815,  0.4963, -0.6675,  2.4127,  0.00,   0.0
2051, 46568.000,  22.303133441, 114.177504437,   17.3453,  5,  7,  2.0597,  1.2690,  6.6816,  0.4965, -0.6656,  2.4128,  0.00,   0.0
2051, 46569.000,  22.303134374, 114.177501826,   12.2722,  5,  7,  2.0596,  1.2690,  6.6817,  0.4968, -0.6638,  2.4130,  0.00,   0.0
2051, 46570.000,  22.303123208, 114.177505119,   14.3396,  5,  7,  2.0596,  1.2690,  6.6818,  0.4971, -0.6620,  2.4131,  0.00,   0.0
2051, 46571.000,  22.303125137, 114.177506624,   18.7376,  5,  7,  2.0596,  1.2689,  6.6819,  0.4973, -0.6602,  2.4132,  0.00,   0.0
2051, 46572.000,  22.303145004, 114.177494737,   23.6154,  5,  7,  2.0595,  1.2689,  6.6820,  0.4976, -0.6583,  2.4134,  0.00,   0.0
2051, 46573.000,  22.303148389, 114.177481777,   22.2349,  5,  7,  2.0595,  1.2689,  6.6821,  0.4979, -0.6565,  2.4135,  0.00,   0.0
2051, 46574.000,  22.303122422, 114.177467005,   24.5594,  5,  7,  2.0595,  1.2689,  6.6822,  0.4981, -0.6546,  2.4136,  0.00,   0.0
2051, 46575.000,  22.303131050, 114.177485175,   22.0228,  5,  7,  2.0594,  1.2688,  6.6823,  0.4984, -0.6528,  2.4138,  0.00,   0.0
2051, 46576.000,  22.303147561, 114.177475237,   30.3859,  5,  7,  2.0594,  1.2688,  6.6824,  0.4987, -0.6509,  2.4139,  0.00,   0.0
2051, 46577.000,  22.303124655, 114.177485460,   28.6068,  5,  7,  2.0593,  1.2688,  6.6825,  0.4989, -0.6490,  2.4140,  0.00,   0.0
2051, 46578.000,  22.303127430, 114.177489911,   26.5404,  5,  7,  2.0593,  1.2688,  6.6827,  0.4992, -0.6472,  2.4141,  0.00,   0.0
2051, 46579.000,  22.303122732, 114.177495774,   20.1745,  5,  7,  2.0593,  1.2687,  6.6828,  0.4995, -0.6453,  2.4143,  0.00,   0.0
2051, 46580.000,  22.303117745, 114.177484996,   15.0849,  5,  7,  2.0592,  1.2687,  6.6829,  0.4997, -0.6434,  2.4144,  0.00,   0.0
2051, 46581.000,  22.303110959, 114.177482415,   17.0696,  5,  7,  2.0592,  1.2687,  6.6830,  0.5000, -0.6415,  2.4145,  0.00,   0.0
2051, 46582.000,  22.303148320, 114.177493266,   24.3264,  5,  7,  2.0592,  1.2687,  6.6831,  0.5003, -0.6396,  2.4146,  0.00,   0.0
2051, 46583.000,  22.303150976, 114.177481118,   24.0085,  5,  7,  2.0591,  1.2686,  6.6832,  0.5005, -0.6377,  2.4147,  0.00,   0.0
2051, 46584.000,  22.303155614, 114.177492045,   23.8016,  5,  7,  2.0591,  1.2686,  6.6833,  0.5008, -0.6358,  2.4149,  0.00,   0.0
2051, 46585.000,  22.303162137, 114.177497737,   27.6129,  5,  7,  2.0591,  1.2686,  6.6833,  0.5011, -0.6339,  2.4150,  0.00,   0.0
2051, 46586.000,  22.303128458, 114.177495262,   18.6910,  5,  7,  2.0590,  1.2686,  6.6834,  0.5013, -0.6320,  2.4151,  0.00,   0.0
2051, 46587.000,  22.303096317, 114.177491475,   15.8858,  5,  7,  2.0590,  1.2685,  6.6835,  0.5016, -0.6301,  2.4152,  0.00,   0.0
2051, 46588.000,  22.303089702, 114.177490235,   17.1281,  5,  7,  2.0589,  1.2685,  6.6836,  0.5019, -0.6282,  2.4153,  0.00,   0.0
2051, 46589.000,  22.303085305, 114.177483719,   11.2975,  5,  7,  2.0589,  1.2685,  6.6837,  0.5021, -0.6262,  2.4155,  0.00,   0.0
2051, 46590.000,  22.303083087, 114.177489233,    5.3597,  5,  7,  2.0589,  1.2685,  6.6838,  0.5024, -0.6243,  2.4156,  0.00,   0.0
2051, 46591.000,  22.303082188, 114.177514966,    1.6344,  5,  7,  2.0588,  1.2684,  6.6839,  0.5027, -0.6224,  2.4157,  0.00,   0.0
2051, 46592.000,  22.303071047, 114.177513551,    6.2471,  5,  7,  2.0588,  1.2684,  6.6840,  0.5029, -0.6204,  2.4158,  0.00,   0.0
2051, 46593.000,  22.303074485, 114.177518054,    7.1842,  5,  7,  2.0588,  1.2684,  6.6841,  0.5032, -0.6185,  2.4159,  0.00,   0.0
2051, 46594.000,  22.303094944, 114.177530891,   12.5211,  5,  7,  2.0587,  1.2684,  6.6842,  0.5035, -0.6165,  2.4160,  0.00,   0.0
2051, 46595.000,  22.303089294, 114.177517899,   21.3957,  5,  7,  2.0587,  1.2683,  6.6842,  0.5037, -0.6145,  2.4161,  0.00,   0.0
2051, 46596.000,  22.303103066, 114.177525259,   16.4099,  5,  7,  2.0586,  1.2683,  6.6843,  0.5040, -0.6125,  2.4162,  0.00,   0.0
2051, 46597.000,  22.303096357, 114.177510588,    5.6038,  5,  7,  2.0586,  1.2683,  6.6844,  0.5043, -0.6106,  2.4163,  0.00,   0.0
2051, 46598.000,  22.303078140, 114.177502893,    3.4631,  5,  7,  2.0585,  1.2683,  6.6845,  0.5045, -0.6086,  2.4164,  0.00,   0.0
2051, 46599.000,  22.303110264, 114.177483327,    3.7631,  5,  7,  2.0585,  1.2683,  6.6846,  0.5048, -0.6066,  2.4165,  0.00,   0.0
2051, 46600.000,  22.303067032, 114.177496523,  -13.0375,  5,  7,  2.0585,  1.2682,  6.6847,  0.5051, -0.6046,  2.4166,  0.00,   0.0
2051, 46601.000,  22.303099310, 114.177487396,   -9.1916,  5,  7,  2.0584,  1.2682,  6.6847,  0.5053, -0.6025,  2.4167,  0.00,   0.0
2051, 46602.000,  22.303088760, 114.177498611,  -12.6029,  5,  7,  2.0584,  1.2682,  6.6848,  0.5056, -0.6005,  2.4168,  0.00,   0.0
2051, 46603.000,  22.303094603, 114.177466388,  -13.0814,  5,  7,  2.0583,  1.2682,  6.6849,  0.5059, -0.5985,  2.4169,  0.00,   0.0
2051, 46604.000,  22.303132219, 114.177469781,   -4.2796,  5,  7,  2.0583,  1.2681,  6.6850,  0.5061, -0.5965,  2.4170,  0.00,   0.0
2051, 46605.000,  22.303142443, 114.177488257,   -0.4573,  5,  7,  2.0582,  1.2681,  6.6850,  0.5064, -0.5944,  2.4171,  0.00,   0.0
2051, 46606.000,  22.303111992, 114.177490554,   -2.9155,  5,  7,  2.0582,  1.2681,  6.6851,  0.5067, -0.5924,  2.4172,  0.00,   0.0
2051, 46607.000,  22.303107427, 114.177505879,   -2.8506,  5,  7,  2.0582,  1.2681,  6.6852,  0.5069, -0.5904,  2.4173,  0.00,   0.0
2051, 46608.000,  22.303108239, 114.177498805,    8.1703,  5,  7,  2.0581,  1.2681,  6.6853,  0.5072, -0.5883,  2.4174,  0.00,   0.0
2051, 46609.000,  22.303150093, 114.177519073,   13.8481,  5,  7,  2.0581,  1.2680,  6.6853,  0.5075, -0.5862,  2.4175,  0.00,   0.0
2051, 46610.000,  22.303127350, 114.177508067,    8.8653,  5,  7,  2.0580,  1.2680,  6.6854,  0.5077, -0.5842,  2.4176,  0.00,   0.0
2051, 46611.000,  22.303125965, 114.177494911,   18.1651,  5,  7,  2.0580,  1.2680,  6.6855,  0.5080, -0.5821,  2.4177,  0.00,   0.0
2051, 46612.000,  22.303145001, 114.177510311,   16.7746,  5,  7,  2.0579,  1.2680,  6.6855,  0.5082, -0.5800,  2.4178,  0.00,   0.0
2051, 46613.000,  22.303113200, 114.177506569,   21.8529,  5,  7,  2.0579,  1.2679,  6.6856,  0.5085, -0.5779,  2.4179,  0.00,   0.0
2051, 46614.000,  22.303132777, 114.177511964,   18.2622,  5,  7,  2.0578,  1.2679,  6.6857,  0.5088, -0.5758,  2.4180,  0.00,   0.0
2051, 46615.000,  22.303135010, 114.177502051,   22.9327,  5,  7,  2.0578,  1.2679,  6.6857,  0.5090, -0.5737,  2.4180,  0.00,   0.0
2051, 46616.000,  22.303113260, 114.177492133,   17.0385,  5,  7,  2.0578,  1.2679,  6.6858,  0.5093, -0.5716,  2.4181,  0.00,   0.0
2051, 46617.000,  22.303119219, 114.177462653,   10.2540,  5,  7,  2.0577,  1.2679,  6.6859,  0.5096, -0.5694,  2.4182,  0.00,   0.0
2051, 46618.000,  22.303094385, 114.177464748,   14.5099,  5,  7,  2.0577,  1.2678,  6.6859,  0.5098, -0.5673,  2.4183,  0.00,   0.0
2051, 46619.000,  22.303055575, 114.177458794,    4.7325,  5,  7,  2.0576,  1.2678,  6.6860,  0.5101, -0.5652,  2.4184,  0.00,   0.0
2051, 46620.000,  22.303025853, 114.177463116,    0.2043,  5,  7,  2.0576,  1.2678,  6.6860,  0.5104, -0.5630,  2.4185,  0.00,   0.0
2051, 46621.000,  22.303002622, 114.177479851,    9.8008,  5,  7,  2.0575,  1.2678,  6.6861,  0.5106, -0.5609,  2.4186,  0.00,   0.0
2051, 46622.000,  22.302903145, 114.177494968,   -3.4701,  5,  7,  2.0575,  1.2678,  6.6861,  0.5109, -0.5587,  2.4187,  0.00,   0.0
2051, 46623.000,  22.302892236, 114.177533081,   -4.0294,  5,  7,  2.0574,  1.2677,  6.6862,  0.5111, -0.5566,  2.4188,  0.00,   0.0
2051, 46624.000,  22.302877147, 114.177572511,    2.2804,  5,  7,  2.0574,  1.2677,  6.6862,  0.5114, -0.5544,  2.4188,  0.00,   0.0
2051, 46625.000,  22.302846372, 114.177630017,    8.8527,  5,  7,  2.0573,  1.2677,  6.6863,  0.5117, -0.5523,  2.4189,  0.00,   0.0
2051, 46626.000,  22.302860703, 114.177684440,   19.0788,  5,  7,  2.0573,  1.2677,  6.6863,  0.5119, -0.5501,  2.4190,  0.00,   0.0
2051, 46627.000,  22.302818226, 114.177717678,   13.8895,  5,  7,  2.0572,  1.2677,  6.6864,  0.5122, -0.5479,  2.4191,  0.00,   0.0
2051, 46628.000,  22.302756098, 114.177782743,   11.3278,  5,  7,  2.0572,  1.2676,  6.6864,  0.5124, -0.5457,  2.4192,  0.00,   0.0
2051, 46629.000,  22.302709892, 114.177878276,   24.4484,  5,  6,  2.0814,  1.6029,  7.9432,  0.7574,  1.9777,  2.6854,  0.00,   0.0
2051, 46631.000,  22.302674569, 114.178021156,   10.9322,  5,  6,  2.0815,  1.6035,  7.9452,  0.7587,  1.9808,  2.6866,  0.00,   0.0
2051, 46632.000,  22.302650201, 114.178072071,   -8.1831,  5,  7,  2.0570,  1.2676,  6.6866,  0.5135, -0.5370,  2.4195,  0.00,   0.0
2051, 46633.000,  22.302625153, 114.178146248,   37.0539,  5,  6,  2.0815,  1.6041,  7.9472,  0.7599,  1.9839,  2.6878,  0.00,   0.0
2051, 46634.000,  22.302566721, 114.178230505,   52.9199,  5,  6,  2.0816,  1.6043,  7.9481,  0.7605,  1.9855,  2.6883,  0.00,   0.0
2051, 46651.000,  22.302238893, 114.179573754,   -7.2089,  5,  6,  2.0599,  1.7107,  9.5692,  0.3495, -2.8476,  2.5946,  0.00,   0.0
2051, 46652.000,  22.302275211, 114.179581467,    5.8052,  5,  7,  2.0559,  1.2672,  6.6872,  0.5185, -0.4910,  2.4208,  0.00,   0.0
2051, 46653.000,  22.302224688, 114.179556799,   48.6110,  5,  5,  2.1010,  1.8065, 12.2797,  0.6046, -1.8968,  3.1485,  0.00,   0.0
2051, 46654.000,  22.302023430, 114.179574116,   22.1345,  5,  5,  2.1010,  1.8063, 12.2786,  0.6058, -1.8924,  3.1484,  0.00,   0.0
2051, 46656.000,  22.301992617, 114.179624935,   12.0660,  5,  7,  2.0557,  1.2671,  6.6873,  0.5195, -0.4811,  2.4210,  0.00,   0.0
2051, 46657.000,  22.301891552, 114.179566071,   20.2249,  5,  6,  2.0594,  1.7079,  9.5579,  0.3575, -2.8371,  2.5905,  0.00,   0.0
2051, 46658.000,  22.301936214, 114.179704718,   -3.6571,  5,  4,  3.3641,  3.9354, 12.3690,  3.0919, -2.9771,  2.4269,  0.00,   0.0
2051, 46659.000,  22.301854537, 114.179620241,    0.8222,  5,  6,  2.4703,  1.6124,  6.7326,  1.2794, -1.0003,  2.1898,  0.00,   0.0
2051, 46660.000,  22.301832807, 114.179602950,   11.9354,  5,  6,  2.4697,  1.6122,  6.7328,  1.2790, -0.9999,  2.1895,  0.00,   0.0
2051, 46661.000,  22.301852373, 114.179609136,   23.6516,  5,  6,  2.4690,  1.6120,  6.7330,  1.2785, -0.9994,  2.1891,  0.00,   0.0
2051, 46662.000,  22.301897114, 114.179644339,    9.8827,  5,  6,  2.4684,  1.6119,  6.7332,  1.2781, -0.9990,  2.1888,  0.00,   0.0
2051, 46663.000,  22.301914539, 114.179657370,   10.4043,  5,  6,  2.4678,  1.6117,  6.7334,  1.2776, -0.9986,  2.1885,  0.00,   0.0
2051, 46664.000,  22.301868552, 114.179617766,   13.8315,  5,  6,  2.4671,  1.6115,  6.7336,  1.2772, -0.9981,  2.1882,  0.00,   0.0
2051, 46665.000,  22.301859404, 114.179603167,   37.1199,  5,  6,  2.4665,  1.6113,  6.7338,  1.2767, -0.9977,  2.1879,  0.00,   0.0
2051, 46676.000,  22.301677078, 114.180041275,    1.3856,  5,  4,  3.3535,  3.9356, 12.3495,  3.0895, -2.9303,  2.4239,  0.00,   0.0
2051, 46808.000,  22.299148134, 114.179383172,  152.5035,  5,  4,  2.8727,  3.4873, 17.8498, -1.7452,  7.1333, -1.5301,  0.00,   0.0
