% program   : RTKLIB ver.2.4.3
% inp file  : /home/kcwian/Workspace/catkin_gnss/src/raw_gnss_rtklib/dataset/UrbanNav1/2020-03-14/COM55_200314_084357.obs
% inp file  : /home/kcwian/Workspace/catkin_gnss/src/raw_gnss_rtklib/dataset/UrbanNav1/2020-03-14/hksc0740.20o
% inp file  : /home/kcwian/Workspace/catkin_gnss/src/raw_gnss_rtklib/dataset/UrbanNav1/2020-03-14/hksc0740.20b
% inp file  : /home/kcwian/Workspace/catkin_gnss/src/raw_gnss_rtklib/dataset/UrbanNav1/2020-03-14/hksc0740.20n
% obs start : 2020/03/14 08:44:32.0 GPST (week2096 549872.0s)
% obs end   : 2020/03/14 09:28:39.0 GPST (week2096 552519.0s)
% pos mode  : Kinematic
% freqs     : L1+2
% solution  : Combined
% elev mask : 15.0 deg
% dynamics  : off
% tidecorr  : off
% ionos opt : Broadcast
% tropo opt : Saastamoinen
% ephemeris : Broadcast
% navi sys  : GPS GLONASS Galileo QZSS BDS NavIC SBAS
% amb res   : Fix and Hold
% amb glo   : ON
% val thres : 3.0
% antenna1  :                       ( 0.0000  0.0000  0.0000)
% antenna2  :                       ( 0.0000  0.0000  0.0000)
% ref pos   : 22.322172082, 114.141187963,   20.2386
%
% (lat/lon/height=WGS84/ellipsoidal,Q=1:fix,2:float,3:sbas,4:dgps,5:single,6:ppp,ns=# of satellites)
%  GPST        , latitude(deg),longitude(deg), height(m),  Q, ns,  sdn(m),  sde(m),  sdu(m), sdne(m), sdeu(m), sdun(m),age(s), ratio
2096,549872.000,  22.330500630, 114.179529602,   10.3231,  2,  5,  0.1620,  0.0926,  0.3595,  0.0164, -0.0337,  0.2143,  2.00,   1.1
2096,549873.000,  22.330500706, 114.179529628,   10.3746,  2,  5,  0.1595,  0.0915,  0.3545,  0.0168, -0.0328,  0.2109,  3.00,   1.1
2096,549874.000,  22.330500619, 114.179529610,   10.3920,  2,  5,  0.1571,  0.0905,  0.3499,  0.0172, -0.0320,  0.2078,  4.00,   1.1
2096,549875.000,  22.330500593, 114.179529621,   10.4130,  2,  5,  0.1549,  0.0895,  0.3454,  0.0176, -0.0312,  0.2048,  5.00,   1.1
2096,549876.000,  22.330500630, 114.179529647,   10.4266,  2,  5,  0.1527,  0.0886,  0.3413,  0.0179, -0.0304,  0.2020,  6.00,   1.6
2096,549877.000,  22.330500671, 114.179529599,   10.4380,  2,  5,  0.1507,  0.0877,  0.3373,  0.0182, -0.0297,  0.1994,  7.00,   1.2
2096,549878.000,  22.330500703, 114.179529562,   10.4514,  2,  5,  0.1488,  0.0869,  0.3336,  0.0184, -0.0290,  0.1969,  8.00,   1.2
2096,549879.000,  22.330500657, 114.179529588,   10.4295,  2,  5,  0.1470,  0.0861,  0.3302,  0.0187, -0.0283,  0.1945,  9.00,   1.1
2096,549880.000,  22.330500625, 114.179529494,   10.4140,  2,  5,  0.1453,  0.0854,  0.3269,  0.0189, -0.0277,  0.1923, 10.00,   1.1
2096,549881.000,  22.330500650, 114.179529479,   10.3913,  2,  5,  0.1438,  0.0847,  0.3239,  0.0191, -0.0271,  0.1903, 11.00,   1.4
2096,549882.000,  22.330500646, 114.179529414,   10.3772,  2,  5,  0.1423,  0.0841,  0.3211,  0.0193, -0.0265,  0.1884, 12.00,   1.1
2096,549883.000,  22.330500738, 114.179529410,   10.3539,  2,  5,  0.1410,  0.0835,  0.3185,  0.0195, -0.0259,  0.1867, 13.00,   1.1
2096,549884.000,  22.330500668, 114.179529410,   10.3005,  2,  5,  0.1397,  0.0830,  0.3162,  0.0196, -0.0254,  0.1850, 14.00,   1.0
2096,549885.000,  22.330500744, 114.179529399,   10.2721,  2,  5,  0.1386,  0.0825,  0.3140,  0.0198, -0.0249,  0.1836, 15.00,   1.3
2096,549886.000,  22.330500742, 114.179529400,   10.2282,  2,  5,  0.1376,  0.0820,  0.3121,  0.0199, -0.0244,  0.1823, 16.00,   2.3
2096,549887.000,  22.330500697, 114.179529428,   10.1814,  2,  5,  0.1367,  0.0816,  0.3103,  0.0200, -0.0240,  0.1811, 17.00,   2.0
2096,549888.000,  22.330500691, 114.179529530,   10.0977,  2,  5,  0.1359,  0.0813,  0.3088,  0.0201, -0.0236,  0.1800, 18.00,   1.4
2096,549889.000,  22.330500798, 114.179529884,    9.9847,  2,  5,  0.1352,  0.0809,  0.3075,  0.0202, -0.0232,  0.1792, 19.00,   1.3
2096,549890.000,  22.330500743, 114.179529811,    9.9745,  2,  5,  0.1346,  0.0806,  0.3064,  0.0203, -0.0228,  0.1784, 20.00,   1.5
2096,549891.000,  22.330500767, 114.179529851,    9.9717,  2,  5,  0.1341,  0.0804,  0.3055,  0.0204, -0.0225,  0.1778, 21.00,   1.1
2096,549892.000,  22.330500750, 114.179529774,    9.9943,  2,  5,  0.1338,  0.0802,  0.3048,  0.0205, -0.0222,  0.1774, 22.00,   1.5
2096,549893.000,  22.330500757, 114.179530125,    9.8906,  2,  5,  0.1335,  0.0800,  0.3043,  0.0205, -0.0220,  0.1771, 23.00,   2.2
2096,549894.000,  22.330500714, 114.179530030,    9.9497,  2,  5,  0.1334,  0.0799,  0.3041,  0.0205, -0.0217,  0.1770, 24.00,   1.1
2096,549895.000,  22.330500700, 114.179530047,    9.9611,  2,  5,  0.1334,  0.0798,  0.3041,  0.0206, -0.0215,  0.1770, 25.00,   2.0
2096,549896.000,  22.330500665, 114.179529864,   10.0282,  2,  5,  0.1335,  0.0798,  0.3044,  0.0206, -0.0213,  0.1773, 26.00,   1.9
2096,549897.000,  22.330500613, 114.179529848,   10.0475,  2,  5,  0.1338,  0.0797,  0.3049,  0.0206, -0.0212,  0.1777, 27.00,   1.1
2096,549898.000,  22.330500525, 114.179529841,   10.0467,  2,  5,  0.1343,  0.0798,  0.3058,  0.0206, -0.0211,  0.1784, 28.00,   1.2
2096,549899.000,  22.330500382, 114.179529860,   10.0403,  2,  5,  0.1350,  0.0798,  0.3071,  0.0206, -0.0211,  0.1795, 29.00,   1.2
2096,549900.000,  22.330500222, 114.179529914,    9.9910,  2,  5,  0.1336,  0.0791,  0.3044,  0.0204, -0.0210,  0.1778,  0.00,   1.7
2096,549901.000,  22.330500228, 114.179530383,    9.7611,  2,  5,  0.1534,  0.0869,  0.3418,  0.0165, -0.0288,  0.2039,  1.00,   2.8
2096,549902.000,  22.330500148, 114.179530432,    9.7643,  2,  5,  0.1517,  0.0862,  0.3385,  0.0168, -0.0281,  0.2016,  2.00,   1.9
2096,549903.000,  22.330500125, 114.179530467,    9.7933,  2,  5,  0.1502,  0.0856,  0.3355,  0.0171, -0.0275,  0.1996,  3.00,   1.5
2096,549904.000,  22.330500103, 114.179530541,    9.7956,  2,  5,  0.1488,  0.0850,  0.3328,  0.0173, -0.0270,  0.1977,  4.00,   1.2
2096,549905.000,  22.330500126, 114.179530606,    9.8207,  2,  5,  0.1475,  0.0845,  0.3303,  0.0175, -0.0264,  0.1960,  5.00,   1.1
2096,549906.000,  22.330499964, 114.179530684,    9.7971,  2,  5,  0.1463,  0.0840,  0.3281,  0.0177, -0.0259,  0.1944,  6.00,   1.0
2096,549907.000,  22.330499976, 114.179530709,    9.8335,  2,  5,  0.1452,  0.0835,  0.3260,  0.0179, -0.0255,  0.1930,  7.00,   1.1
2096,549908.000,  22.330499924, 114.179530668,    9.8429,  2,  5,  0.1442,  0.0831,  0.3241,  0.0180, -0.0250,  0.1917,  8.00,   1.2
2096,549909.000,  22.330499908, 114.179530658,    9.8733,  2,  5,  0.1433,  0.0827,  0.3224,  0.0182, -0.0246,  0.1906,  9.00,   1.3
2096,549910.000,  22.330499974, 114.179530653,    9.8937,  2,  5,  0.1425,  0.0824,  0.3208,  0.0183, -0.0242,  0.1895, 10.00,   1.4
2096,549911.000,  22.330499924, 114.179530585,    9.9114,  2,  5,  0.1418,  0.0820,  0.3194,  0.0184, -0.0238,  0.1886, 11.00,   1.5
2096,549912.000,  22.330499823, 114.179530528,    9.9135,  2,  5,  0.1412,  0.0818,  0.3182,  0.0185, -0.0235,  0.1877, 12.00,   1.3
2096,549913.000,  22.330499844, 114.179530426,    9.9531,  2,  5,  0.1406,  0.0815,  0.3172,  0.0186, -0.0231,  0.1870, 13.00,   1.2
2096,549914.000,  22.330499862, 114.179530180,   10.0355,  2,  5,  0.1401,  0.0813,  0.3163,  0.0187, -0.0228,  0.1864, 14.00,   1.1
2096,549915.000,  22.330499849, 114.179530105,   10.0384,  2,  5,  0.1397,  0.0811,  0.3156,  0.0188, -0.0225,  0.1859, 15.00,   1.4
2096,549916.000,  22.330499821, 114.179529972,   10.0514,  2,  5,  0.1394,  0.0809,  0.3150,  0.0189, -0.0223,  0.1855, 16.00,   1.5
2096,549917.000,  22.330499737, 114.179529994,   10.0212,  2,  5,  0.1392,  0.0808,  0.3146,  0.0190, -0.0220,  0.1852, 17.00,   1.3
2096,549918.000,  22.330499660, 114.179529774,   10.0543,  2,  5,  0.1391,  0.0807,  0.3143,  0.0190, -0.0218,  0.1850, 18.00,   1.1
2096,549919.000,  22.330499589, 114.179529633,   10.0544,  2,  5,  0.1390,  0.0807,  0.3143,  0.0191, -0.0216,  0.1850, 19.00,   1.2
2096,549920.000,  22.330499552, 114.179529558,   10.0500,  2,  5,  0.1390,  0.0807,  0.3143,  0.0191, -0.0214,  0.1850, 20.00,   1.3
2096,549921.000,  22.330499457, 114.179529355,   10.0836,  2,  5,  0.1391,  0.0807,  0.3146,  0.0191, -0.0212,  0.1852, 21.00,   2.3
2096,549922.000,  22.330499397, 114.179529437,   10.0029,  2,  5,  0.1393,  0.0807,  0.3150,  0.0192, -0.0211,  0.1854, 22.00,   2.3
2096,549923.000,  22.330499303, 114.179529375,    9.9817,  2,  5,  0.1395,  0.0808,  0.3155,  0.0192, -0.0210,  0.1858, 23.00,   1.6
2096,549924.000,  22.330499270, 114.179529282,    9.9872,  2,  5,  0.1399,  0.0809,  0.3162,  0.0192, -0.0209,  0.1862, 24.00,   1.0
2096,549925.000,  22.330499251, 114.179529151,   10.0228,  2,  5,  0.1403,  0.0810,  0.3171,  0.0192, -0.0208,  0.1868, 25.00,   1.1
2096,549926.000,  22.330499085, 114.179529077,   10.0006,  2,  5,  0.1408,  0.0812,  0.3181,  0.0192, -0.0208,  0.1875, 26.00,   1.3
2096,549927.000,  22.330499036, 114.179529028,    9.9940,  2,  5,  0.1414,  0.0814,  0.3193,  0.0192, -0.0208,  0.1883, 27.00,   1.6
2096,549928.000,  22.330498932, 114.179528955,    9.9926,  2,  5,  0.1421,  0.0816,  0.3207,  0.0191, -0.0208,  0.1893, 28.00,   1.6
2096,549929.000,  22.330498927, 114.179529015,   10.0053,  2,  5,  0.1429,  0.0819,  0.3223,  0.0191, -0.0210,  0.1903, 29.00,   1.1
2096,549930.000,  22.330499724, 114.179529705,    9.9655,  2,  5,  0.1342,  0.0788,  0.3054,  0.0189, -0.0200,  0.1788,  0.00,   1.4
2096,549931.000,  22.330500769, 114.179530041,    9.9912,  2,  5,  0.1420,  0.0823,  0.3195,  0.0170, -0.0238,  0.1887,  1.00,   1.7
2096,549932.000,  22.330500620, 114.179530034,    9.9497,  2,  5,  0.1406,  0.0820,  0.3169,  0.0173, -0.0231,  0.1867,  2.00,   1.8
2096,549933.000,  22.330500559, 114.179529968,    9.9485,  2,  5,  0.1394,  0.0817,  0.3148,  0.0176, -0.0225,  0.1850,  3.00,   1.7
2096,549934.000,  22.330500424, 114.179529941,    9.9477,  2,  5,  0.1385,  0.0815,  0.3130,  0.0178, -0.0220,  0.1837,  4.00,   1.4
2096,549935.000,  22.330500412, 114.179529901,    9.9543,  2,  5,  0.1378,  0.0813,  0.3116,  0.0180, -0.0215,  0.1827,  5.00,   1.3
2096,549936.000,  22.330500275, 114.179529830,    9.9585,  2,  5,  0.1372,  0.0811,  0.3106,  0.0181, -0.0211,  0.1819,  6.00,   1.2
2096,549937.000,  22.330500180, 114.179529900,    9.9709,  2,  5,  0.1367,  0.0809,  0.3097,  0.0182, -0.0208,  0.1813,  7.00,   1.1
2096,549938.000,  22.330500071, 114.179529872,    9.9838,  2,  5,  0.1364,  0.0808,  0.3091,  0.0183, -0.0205,  0.1808,  8.00,   1.1
2096,549939.000,  22.330493797, 114.179527089,   12.6758,  1,  5,  0.0790,  0.0373,  0.1625, -0.0104, -0.0174,  0.1043,-21.00,   3.2
2096,549940.000,  22.330499939, 114.179529882,    9.9944,  2,  5,  0.1360,  0.0807,  0.3085,  0.0185, -0.0200,  0.1804, 10.00,   1.1
2096,549941.000,  22.330499838, 114.179529894,   10.0051,  2,  5,  0.1360,  0.0806,  0.3086,  0.0185, -0.0198,  0.1804, 11.00,   1.2
2096,549942.000,  22.330499756, 114.179529906,   10.0086,  2,  5,  0.1361,  0.0806,  0.3087,  0.0185, -0.0197,  0.1805, 12.00,   1.2
2096,549943.000,  22.330499752, 114.179529906,   10.0524,  2,  5,  0.1363,  0.0807,  0.3091,  0.0185, -0.0195,  0.1807, 13.00,   1.1
2096,549944.000,  22.330499638, 114.179529846,   10.0615,  2,  5,  0.1365,  0.0807,  0.3097,  0.0186, -0.0194,  0.1811, 14.00,   1.0
2096,549945.000,  22.330499600, 114.179529895,   10.0559,  2,  5,  0.1369,  0.0808,  0.3104,  0.0186, -0.0193,  0.1816, 15.00,   1.1
2096,549946.000,  22.330499456, 114.179529965,   10.0667,  2,  5,  0.1373,  0.0810,  0.3113,  0.0186, -0.0193,  0.1822, 16.00,   1.0
2096,549947.000,  22.330499459, 114.179529958,   10.0983,  2,  5,  0.1378,  0.0812,  0.3123,  0.0186, -0.0192,  0.1829, 17.00,   1.1
2096,549948.000,  22.330499368, 114.179529974,   10.1039,  2,  5,  0.1384,  0.0814,  0.3135,  0.0185, -0.0192,  0.1837, 18.00,   1.3
2096,549949.000,  22.330499292, 114.179530014,   10.1021,  2,  5,  0.1391,  0.0816,  0.3149,  0.0185, -0.0193,  0.1846, 19.00,   1.4
2096,549950.000,  22.330499197, 114.179529990,   10.1113,  2,  5,  0.1399,  0.0819,  0.3165,  0.0185, -0.0193,  0.1856, 20.00,   1.3
2096,549951.000,  22.330498999, 114.179529988,   10.0976,  2,  5,  0.1407,  0.0822,  0.3182,  0.0185, -0.0195,  0.1868, 21.00,   1.2
2096,549952.000,  22.330499096, 114.179530059,   10.1053,  2,  5,  0.1417,  0.0825,  0.3201,  0.0184, -0.0196,  0.1881, 22.00,   1.1
2096,549953.000,  22.330500554, 114.179530128,   10.0810,  2,  5,  0.1427,  0.0829,  0.3222,  0.0184, -0.0200,  0.1894, 23.00,   1.0
2096,549954.000,  22.330504060, 114.179529400,   10.1399,  2,  5,  0.1438,  0.0834,  0.3245,  0.0183, -0.0209,  0.1909, 24.00,   1.0
2096,549955.000,  22.330513155, 114.179529380,    9.2957,  1,  4,  0.0942,  0.0732,  0.2536, -0.0134, -0.1001,  0.1245, 25.00,  40.2
2096,549956.000,  22.330507753, 114.179524865,   11.1296,  2,  5,  0.1463,  0.0911,  0.3476,  0.0139, -0.0653,  0.1953, 26.00,   1.8
2096,549957.000,  22.330507515, 114.179525782,   10.8675,  2,  5,  0.1477,  0.0887,  0.3436,  0.0138, -0.0522,  0.1972, 27.00,   2.7
2096,549958.000,  22.330515116, 114.179525298,   11.2641,  1,  5,  0.1053,  0.0608,  0.2384, -0.0146, -0.0646,  0.1390, 28.00,   3.6
2096,549959.000,  22.330500182, 114.179529359,    9.1417,  1,  5,  0.0161,  0.0124,  0.0463, -0.0008, -0.0164,  0.0217, -1.00,   6.5
2096,549960.000,  22.330509747, 114.179523797,    9.1668,  1,  4,  0.0157,  0.0121,  0.0452, -0.0007, -0.0159,  0.0212,  0.00,   4.1
2096,549961.000,  22.330528403, 114.179519262,    9.1815,  1,  4,  0.1091,  0.0844,  0.2938, -0.0167, -0.1159,  0.1445,-29.00,   4.4
2096,549962.000,  22.330565713, 114.179514083,   10.3792,  2,  5,  0.1337,  0.0813,  0.3105,  0.0118, -0.0375,  0.1788,  2.00,   1.2
2096,549963.000,  22.330584603, 114.179527785,    5.8300,  1,  5,  0.1018,  0.0549,  0.2230, -0.0141, -0.0517,  0.1345,-27.00,   4.3
2096,549964.000,  22.330635246, 114.179506799,   12.6863,  2,  5,  0.1337,  0.0802,  0.3070,  0.0125, -0.0265,  0.1789,  4.00,   1.2
2096,549965.000,  22.330677786, 114.179509914,   12.2407,  2,  5,  0.1339,  0.0803,  0.3073,  0.0127, -0.0247,  0.1791,  5.00,   1.3
2096,549966.000,  22.330710466, 114.179520068,   11.0690,  1,  5,  0.1018,  0.0832,  0.5331,  0.0478,  0.1398,  0.1911,-24.00,   7.5
2096,549967.000,  22.330752530, 114.179522934,   11.0264,  1,  4,  0.0989,  0.0807,  0.5406,  0.0476,  0.1407,  0.1904,-23.00,  19.9
2096,549968.000,  22.330791404, 114.179525412,   11.0517,  1,  5,  0.0925,  0.0488,  0.5133,  0.0262,  0.0921,  0.1765,-22.00,  46.6
2096,549969.000,  22.330829205, 114.179527061,   11.0450,  1,  5,  0.0897,  0.0485,  0.5217,  0.0271,  0.0934,  0.1761,-21.00, 470.1
2096,549970.000,  22.330866037, 114.179528442,   11.1742,  1,  5,  0.0870,  0.0490,  0.5315,  0.0280,  0.0941,  0.1762,-20.00,  20.6
2096,549971.000,  22.330901799, 114.179530332,   11.1914,  1,  5,  0.0844,  0.0509,  0.5433,  0.0289,  0.0928,  0.1766,-19.00,   4.1
2096,549972.000,  22.330954690, 114.179530064,   13.4911,  2,  5,  0.1376,  0.0817,  0.3153,  0.0121, -0.0242,  0.1842, 12.00,   2.6
2096,549973.000,  22.330999479, 114.179532309,   13.8481,  1,  5,  0.0525,  0.0395,  0.1276,  0.0175,  0.0462,  0.0734, 13.00,   4.5
2096,549974.000,  22.331036294, 114.179535682,   12.7753,  2,  5,  0.0415,  0.0247,  0.0915,  0.0075,  0.0218,  0.0560, 14.00,   6.8
2096,549975.000,  22.331076884, 114.179538070,   12.5528,  2,  5,  0.0417,  0.0243,  0.0913,  0.0070,  0.0206,  0.0562, 15.00,   9.3
2096,549976.000,  22.331115561, 114.179540425,   12.4437,  2,  5,  0.0415,  0.0244,  0.0911,  0.0072,  0.0211,  0.0560, 16.00,  12.7
2096,549977.000,  22.331164582, 114.179542401,   13.9617,  1,  5,  0.0661,  0.0357,  0.1411,  0.0067,  0.0243,  0.0884, 17.00,  20.7
2096,549978.000,  22.331207963, 114.179546832,   14.0425,  1,  5,  0.0697,  0.0366,  0.1476,  0.0048,  0.0220,  0.0930, 18.00,  26.3
2096,549979.000,  22.331253557, 114.179551066,   14.0482,  1,  5,  0.0732,  0.0338,  0.1496, -0.0097, -0.0149,  0.0965, 19.00,  31.3
2096,549980.000,  22.331301104, 114.179554033,   14.0860,  1,  5,  0.0769,  0.0355,  0.1571, -0.0102, -0.0157,  0.1014, 20.00,  44.2
2096,549981.000,  22.331349466, 114.179558315,   14.0714,  1,  5,  0.0806,  0.0372,  0.1646, -0.0107, -0.0164,  0.1063, 21.00,  70.2
2096,549982.000,  22.331399298, 114.179563320,   14.0871,  1,  5,  0.0843,  0.0388,  0.1722, -0.0113, -0.0171,  0.1112, 22.00,  78.4
2096,549983.000,  22.331450529, 114.179567990,   14.0539,  1,  5,  0.0880,  0.0405,  0.1797, -0.0118, -0.0178,  0.1161, 23.00, 999.9
2096,549984.000,  22.331503325, 114.179572402,   14.0237,  1,  5,  0.0918,  0.0422,  0.1873, -0.0123, -0.0185,  0.1210, 24.00, 999.9
2096,549985.000,  22.331556594, 114.179576144,   14.0272,  1,  5,  0.0955,  0.0438,  0.1948, -0.0128, -0.0192,  0.1260, 25.00, 999.9
2096,549986.000,  22.331594511, 114.179581882,   10.9591,  2,  5,  0.0214,  0.0152,  0.0569, -0.0031, -0.0196,  0.0288, 26.00, 999.9
2096,549987.000,  22.331662172, 114.179583491,   13.9087,  1,  4,  0.1031,  0.0784,  0.2783, -0.0197, -0.1089,  0.1379, 27.00, 999.9
2096,549988.000,  22.331713274, 114.179587120,   13.8297,  1,  5,  0.1068,  0.0808,  0.2875, -0.0205, -0.1121,  0.1430, 28.00, 999.9
2096,549989.000,  22.331762015, 114.179590235,   13.7533,  1,  5,  0.1106,  0.0685,  0.2627, -0.0183, -0.0821,  0.1469, 29.00, 999.9
2096,549990.000,  22.331800130, 114.179592111,   12.4523,  1,  5,  0.0114,  0.0085,  0.0386, -0.0004, -0.0102,  0.0166,  0.00, 999.9
2096,549991.000,  22.331853355, 114.179597079,   13.9282,  1,  4,  0.0178,  0.0146,  0.0769,  0.0082,  0.0226,  0.0306,  1.00, 999.9
2096,549992.000,  22.331890088, 114.179601624,   13.8350,  1,  4,  0.0191,  0.0157,  0.0788,  0.0087,  0.0238,  0.0321,  2.00, 999.9
2096,550000.000,  22.331950998, 114.179818623,   16.7303,  2,  4,  0.4775,  0.2446,  1.1139,  0.1592,  0.0574,  0.6803, 10.00,   0.0
2096,550001.000,  22.331950863, 114.179866823,   16.8652,  2,  4,  0.4766,  0.2433,  1.1112,  0.1585,  0.0493,  0.6789, 11.00,   0.0
2096,550002.000,  22.331950363, 114.179916104,   17.0669,  2,  5,  0.4731,  0.2393,  1.0974,  0.1514, -0.0667,  0.6716, 12.00,   0.0
2096,550003.000,  22.331948289, 114.179964763,   17.3412,  2,  4,  0.4757,  0.2407,  1.1068,  0.1567,  0.0084,  0.6770, 13.00,   0.0
2096,550004.000,  22.331947171, 114.180019053,   17.3261,  2,  5,  0.4728,  0.2341,  1.0919,  0.1498, -0.0964,  0.6706, 14.00,   0.0
2096,550005.000,  22.331941354, 114.180073567,   16.5812,  2,  5,  0.4731,  0.2339,  1.0923,  0.1499, -0.0966,  0.6710, 15.00,   0.0
2096,550006.000,  22.331941519, 114.180128653,   17.5731,  2,  5,  0.4736,  0.2339,  1.0934,  0.1501, -0.0968,  0.6718, 16.00,   0.0
2096,550007.000,  22.331938503, 114.180177888,   17.8218,  2,  5,  0.4744,  0.2339,  1.0950,  0.1504, -0.0968,  0.6730, 17.00,   0.0
2096,550008.000,  22.331936085, 114.180228524,   18.0741,  2,  5,  0.4756,  0.2341,  1.0972,  0.1508, -0.0969,  0.6746, 18.00,   0.0
2096,550009.000,  22.331916787, 114.180285198,   12.2537,  2,  5,  0.3382,  0.1834,  0.7826,  0.0649, -0.1027,  0.4647, 19.00,   2.4
2096,550010.000,  22.331914506, 114.180335207,   12.5411,  2,  5,  0.3379,  0.1832,  0.7820,  0.0646, -0.1025,  0.4643, 20.00,   1.0
2096,550011.000,  22.331912199, 114.180383555,   12.8173,  2,  5,  0.3378,  0.1832,  0.7817,  0.0643, -0.1024,  0.4641, 21.00,   1.4
2096,550012.000,  22.331909798, 114.180431536,   13.0161,  2,  5,  0.3378,  0.1831,  0.7817,  0.0641, -0.1023,  0.4641, 22.00,   1.0
2096,550013.000,  22.331906985, 114.180479371,   13.2399,  2,  5,  0.3380,  0.1832,  0.7820,  0.0638, -0.1022,  0.4643, 23.00,   1.1
2096,550014.000,  22.331904286, 114.180526771,   13.4429,  2,  5,  0.3383,  0.1833,  0.7826,  0.0635, -0.1023,  0.4647, 24.00,   1.4
2096,550015.000,  22.331901733, 114.180572899,   13.7078,  2,  5,  0.3388,  0.1834,  0.7835,  0.0633, -0.1024,  0.4653, 25.00,   1.2
2096,550016.000,  22.331899571, 114.180616636,   13.8750,  2,  5,  0.3394,  0.1837,  0.7847,  0.0630, -0.1027,  0.4661, 26.00,   1.9
2096,550017.000,  22.331898653, 114.180657958,   14.1775,  2,  4,  0.3402,  0.1876,  0.7973,  0.0606, -0.1240,  0.4681, 27.00,   1.9
2096,550018.000,  22.331897246, 114.180698643,   14.3364,  1,  4,  0.0748,  0.0377,  0.8092,  0.0505,  0.1679,  0.2434, -2.00,   4.3
2096,550019.000,  22.331896198, 114.180735236,   14.3640,  1,  5,  0.0773,  0.0382,  0.8389,  0.0527,  0.1752,  0.2525, -1.00,  10.3
2096,550020.000,  22.331896922, 114.180767611,   14.6690,  1,  5,  0.0473,  0.0238,  0.5095,  0.0320,  0.1060,  0.1536,  0.00,   5.0
2096,550021.000,  22.331895340, 114.180796136,   15.2602,  1,  5,  0.0489,  0.0247,  0.5109,  0.0321,  0.1062,  0.1548,  1.00,   4.5
2096,550022.000,  22.331887201, 114.180820716,   15.1399,  1,  5,  0.0494,  0.0247,  0.5108,  0.0321,  0.1063,  0.1551,  2.00,  36.5
2096,550023.000,  22.331874206, 114.180839820,   15.2315,  1,  5,  0.0501,  0.0250,  0.5109,  0.0321,  0.1064,  0.1555,  3.00,  48.2
2096,550024.000,  22.331858094, 114.180852481,   15.2179,  1,  5,  0.0512,  0.0254,  0.5112,  0.0321,  0.1064,  0.1562,  4.00,   6.5
2096,550025.000,  22.331840292, 114.180860318,   15.3836,  1,  5,  0.0524,  0.0259,  0.5117,  0.0321,  0.1065,  0.1570,  5.00,   4.7
2096,550026.000,  22.331820542, 114.180865349,   14.9954,  2,  5,  0.3399,  0.1832,  0.7895,  0.0607, -0.1082,  0.4686,  6.00,   1.3
2096,550027.000,  22.331806369, 114.180868459,   22.1132,  2,  4,  0.3828,  0.1981,  2.2194,  0.1266,  0.3670,  0.7646,  7.00,   1.0
2096,550028.000,  22.331778466, 114.180864858,   14.6168,  2,  4,  0.3662,  0.2156,  1.7438,  0.1425,  0.4172,  0.6554,  8.00,   1.1
2096,550029.000,  22.331753565, 114.180864218,   13.8610,  2,  4,  0.3667,  0.2161,  1.7428,  0.1425,  0.4173,  0.6558,  9.00,   1.2
2096,550036.000,  22.331474880, 114.180854115,   14.1315,  2,  4,  0.5949,  0.7650,  1.6696,  0.2114,  0.7486,  0.8252, 16.00,   0.0
2096,550037.000,  22.331431198, 114.180832018,   13.5198,  2,  4,  0.5945,  0.5847,  1.6538, -0.0562,  0.6671,  0.8085, 17.00,   0.0
2096,550038.000,  22.331405726, 114.180816167,   14.9061,  2,  4,  0.5954,  0.5847,  1.6542, -0.0588,  0.6668,  0.8094, 18.00,   0.0
2096,550039.000,  22.331374395, 114.180816207,   13.7981,  2,  4,  0.8312,  0.5801,  1.7623, -0.2507,  0.5941,  1.0135, 19.00,   0.0
2096,550040.000,  22.331341271, 114.180810442,   13.5586,  2,  4,  0.8322,  0.5808,  1.7642, -0.2511,  0.5948,  1.0148, 20.00,   0.0
2096,550041.000,  22.331292859, 114.180817880,   13.6094,  2,  4,  0.7121,  0.4340,  1.7649,  0.3709,  0.6787,  0.9827, 21.00,   0.0
2096,550044.000,  22.331175203, 114.180819569,   14.5737,  2,  5,  0.5162,  0.3611,  1.4988,  0.1398,  0.2649,  0.7462, 24.00,   0.0
2096,550045.000,  22.331133024, 114.180813649,   13.2989,  2,  5,  0.5172,  0.3623,  1.5012,  0.1387,  0.2635,  0.7478, 25.00,   0.0
2096,550046.000,  22.331093922, 114.180812317,   14.7010,  2,  4,  0.5229,  0.3931,  1.5989,  0.1706,  0.3863,  0.7739, 26.00,   0.0
2096,550051.000,  22.330851983, 114.180811362,   14.7608,  2,  4,  0.4344,  0.7788,  1.9350,  0.2296,  0.8745,  0.7515,  1.00,  10.9
2096,550052.000,  22.330803753, 114.180803682,   16.0888,  2,  4,  0.4323,  0.7770,  1.9303,  0.2289,  0.8722,  0.7489,  2.00,  20.2
2096,550053.000,  22.330751239, 114.180795116,   14.0633,  2,  4,  0.4304,  0.4336,  1.8140,  0.1575,  0.5425,  0.7350,  3.00,   5.6
2096,550055.000,  22.330647390, 114.180790375,   18.7889,  2,  5,  0.4031,  0.3810,  1.1067, -0.0369,  0.1775,  0.5755,  5.00,  43.7
2096,550056.000,  22.330588880, 114.180788994,   18.4729,  2,  5,  0.4021,  0.3805,  1.1044, -0.0368,  0.1775,  0.5743,  6.00,  12.9
2096,550057.000,  22.330528911, 114.180784452,   18.2654,  2,  5,  0.4013,  0.3803,  1.1032, -0.0369,  0.1776,  0.5735,  7.00,   9.6
2096,550060.000,  22.330365211, 114.180762889,   18.3657,  2,  4,  0.4010,  0.3758,  1.1810,  0.1531,  0.3890,  0.5895, 10.00,   3.2
2096,550061.000,  22.330334997, 114.180767549,   20.7653,  2,  5,  0.3985,  0.3499,  1.1306,  0.1320,  0.3240,  0.5764, 11.00, 999.9
2096,550062.000,  22.330306655, 114.180741462,   15.8824,  1,  4,  0.0744,  0.4605,  0.3148, -0.0335,  0.3491,  0.0998,-18.00,   4.1
2096,550063.000,  22.330295408, 114.180745528,   15.2120,  2,  4,  0.4223,  0.3731,  1.7774,  0.1687,  0.4498,  0.7223, 13.00,   1.1
2096,550064.000,  22.330284052, 114.180724921,   12.9301,  2,  5,  0.4147,  0.3473,  1.6179,  0.1312,  0.3195,  0.6794, 14.00,   1.6
2096,550065.000,  22.330287530, 114.180702694,   19.7535,  2,  4,  0.4200,  0.3337,  1.8149, -0.0650, -0.3547,  0.7171, 15.00,   2.5
2096,550066.000,  22.330285556, 114.180667511,   16.1991,  2,  4,  0.4211,  0.3341,  1.8163, -0.0651, -0.3554,  0.7184, 16.00,   5.1
2096,550067.000,  22.330308520, 114.180637111,   18.2159,  2,  4,  0.5773,  0.4327,  1.8249,  0.3256, -0.2464,  0.7747, 17.00,   0.0
2096,550075.000,  22.330276475, 114.180025877,   -1.0956,  2,  4,  0.9426,  0.5941,  2.2114,  0.5727,  0.1129,  1.0749, 25.00,   4.1
2096,550079.000,  22.330346334, 114.179714719,   15.7209,  2,  4,  0.5859,  0.3449,  1.6789,  0.4140,  0.4256,  0.7122, 29.00,   0.0
2096,550082.000,  22.330358758, 114.179549544,   14.9761,  2,  4,  0.5841,  0.3490,  0.8626,  0.4073,  0.3667,  0.6277,  2.00,   0.0
2096,550084.000,  22.330387432, 114.179498375,   13.1131,  2,  5,  0.2583,  0.1776,  0.6607,  0.1040, -0.1204,  0.3433,  4.00,   0.0
2096,550085.000,  22.330414375, 114.179495437,   13.2752,  2,  5,  0.2661,  0.1606,  0.6460,  0.1117,  0.0781,  0.3585,  5.00,   0.0
2096,550086.000,  22.330438730, 114.179502625,   13.7154,  2,  5,  0.2649,  0.1606,  0.6454,  0.1108,  0.0737,  0.3575,  6.00,   0.0
2096,550087.000,  22.330466167, 114.179510322,   13.4794,  2,  5,  0.2621,  0.1521,  0.6205,  0.1173,  0.1178,  0.3488,  7.00, 196.1
2096,550088.000,  22.330500019, 114.179513919,   13.1003,  2,  4,  0.2610,  0.1519,  0.6204,  0.1176,  0.1158,  0.3471,  8.00,   1.5
2096,550089.000,  22.330540792, 114.179511775,   13.3973,  2,  4,  0.2599,  0.1509,  0.6178,  0.1176,  0.1181,  0.3459,  9.00,   3.5
2096,550090.000,  22.330587068, 114.179508346,   13.6694,  2,  4,  0.2591,  0.1500,  0.6155,  0.1176,  0.1202,  0.3449, 10.00,  16.1
2096,550091.000,  22.330633252, 114.179506477,   13.3643,  2,  5,  0.2591,  0.1410,  0.6097,  0.1133,  0.1390,  0.3494, 11.00,   1.5
2096,550092.000,  22.330681380, 114.179510071,   12.7991,  1,  5,  0.0928,  0.0577,  0.5800,  0.0361,  0.1086,  0.2029,-18.00,  26.9
2096,550093.000,  22.330729535, 114.179514104,   12.6917,  1,  5,  0.0905,  0.0630,  0.5743,  0.0451,  0.1355,  0.2014,-17.00,   3.7
2096,550094.000,  22.330780383, 114.179518420,   12.4346,  1,  5,  0.0870,  0.0409,  0.5738,  0.0363,  0.1152,  0.1983,-16.00, 383.0
2096,550095.000,  22.330832834, 114.179522374,   12.3215,  1,  5,  0.0853,  0.0406,  0.5876,  0.0374,  0.1181,  0.2009,-15.00,  39.3
2096,550096.000,  22.330889738, 114.179524873,   13.5331,  1,  5,  0.0630,  0.0313,  0.4528,  0.0298,  0.0933,  0.1534, 16.00,   4.1
2096,550097.000,  22.330943921, 114.179526866,   13.5542,  1,  5,  0.0626,  0.0314,  0.4529,  0.0297,  0.0927,  0.1532, 17.00,   5.3
2096,550098.000,  22.330998447, 114.179527719,   14.5684,  1,  5,  0.0979,  0.0472,  0.6443,  0.0427,  0.1348,  0.2234, 18.00,   6.3
2096,550099.000,  22.331042907, 114.179529800,   12.2638,  1,  5,  0.0469,  0.0217,  0.0957, -0.0050,  0.0056,  0.0620,-11.00,   4.1
2096,550100.000,  22.331090180, 114.179530796,   12.7074,  2,  5,  0.0382,  0.0187,  0.0790, -0.0021,  0.0103,  0.0507, 20.00,   3.4
2096,550101.000,  22.331133810, 114.179535033,   12.6425,  2,  5,  0.0360,  0.0176,  0.0744, -0.0022,  0.0091,  0.0477, 21.00,   3.8
2096,550102.000,  22.331179339, 114.179540845,   13.3415,  2,  5,  0.2438,  0.1350,  0.5788,  0.1024,  0.1162,  0.3247, 22.00,   2.6
2096,550103.000,  22.331226125, 114.179546817,   13.2892,  2,  5,  0.2443,  0.1352,  0.5800,  0.1028,  0.1171,  0.3255, 23.00,   1.9
2096,550104.000,  22.331275693, 114.179552696,   13.3016,  2,  5,  0.2450,  0.1354,  0.5815,  0.1032,  0.1180,  0.3265, 24.00,   1.7
2096,550105.000,  22.331327296, 114.179557349,   13.2800,  2,  5,  0.2458,  0.1356,  0.5833,  0.1037,  0.1189,  0.3276, 25.00,   1.6
2096,550106.000,  22.331381116, 114.179560705,   13.2269,  2,  5,  0.2468,  0.1359,  0.5853,  0.1042,  0.1199,  0.3289, 26.00,   1.2
2096,550107.000,  22.331437623, 114.179563513,   13.1225,  2,  5,  0.2478,  0.1363,  0.5877,  0.1048,  0.1209,  0.3303, 27.00,   1.4
2096,550108.000,  22.331496368, 114.179565968,   13.0770,  2,  5,  0.2490,  0.1367,  0.5903,  0.1054,  0.1220,  0.3320, 28.00,   1.5
2096,550109.000,  22.331557137, 114.179569410,   12.9537,  2,  4,  0.2505,  0.1426,  0.6117,  0.1076,  0.0969,  0.3320, 29.00,   2.9
2096,550110.000,  22.331621903, 114.179571861,   13.7088,  1,  4,  0.0532,  0.0247,  0.4831,  0.0328,  0.1008,  0.1576,  0.00,   3.0
2096,550111.000,  22.331682977, 114.179575436,   13.7077,  1,  4,  0.0529,  0.0247,  0.4780,  0.0324,  0.0996,  0.1561,  1.00,   3.6
2096,550112.000,  22.331739645, 114.179579286,   13.0147,  2,  5,  0.2455,  0.1357,  0.5814,  0.0959,  0.1060,  0.3283,  2.00,   2.1
2096,550113.000,  22.331796647, 114.179583095,   12.7501,  2,  4,  0.2458,  0.1365,  0.5883,  0.0978,  0.1144,  0.3301,  3.00,   3.0
2096,550114.000,  22.331848628, 114.179587593,   12.7846,  2,  4,  0.2456,  0.1364,  0.5883,  0.0983,  0.1156,  0.3299,  4.00,   2.0
2096,550117.000,  22.331943263, 114.179650596,   12.7391,  2,  4,  0.3261,  0.1723,  1.9604,  0.1807,  0.4620,  0.7148,  7.00,   1.6
2096,550118.000,  22.331934797, 114.179677866,   12.0502,  2,  4,  1.1812,  0.6200,  2.4606,  0.8419,  1.1474,  1.6211,  8.00,   2.3
2096,550120.000,  22.331961314, 114.179772461,   14.2125,  2,  4,  0.6528,  0.3653,  1.6985,  0.4625,  0.4784,  0.7667, 10.00,   1.0
2096,550122.000,  22.331945374, 114.179855993,   15.4010,  2,  4,  0.6477,  0.3658,  0.8600,  0.4618,  0.4570,  0.6780, 12.00,   2.0
2096,550123.000,  22.331932204, 114.179896617,   14.7821,  2,  4,  0.3491,  0.1881,  0.6930,  0.2048,  0.2204,  0.4266, 13.00,   2.4
2096,550124.000,  22.331929580, 114.179942026,   15.1203,  2,  5,  0.3473,  0.1845,  0.6847,  0.2014,  0.2266,  0.4290, 14.00, 108.8
2096,550125.000,  22.331926198, 114.179984268,   15.2359,  2,  5,  0.3469,  0.1842,  0.6837,  0.2013,  0.2265,  0.4284, 15.00,   8.9
2096,550126.000,  22.331920120, 114.180023248,   15.4535,  2,  5,  0.3469,  0.1841,  0.6834,  0.2010,  0.2263,  0.4284, 16.00,  59.2
2096,550127.000,  22.331919440, 114.180067790,   15.3914,  2,  5,  0.3471,  0.1841,  0.6838,  0.2009,  0.2264,  0.4287, 17.00,  37.7
2096,550128.000,  22.331919839, 114.180115285,   15.5843,  2,  5,  0.3476,  0.1844,  0.6856,  0.2010,  0.2272,  0.4296, 18.00,  52.5
2096,550129.000,  22.331919544, 114.180167204,   15.6723,  2,  5,  0.3477,  0.1856,  0.6809,  0.1995,  0.2240,  0.4284, 19.00,   1.4
2096,550130.000,  22.331915282, 114.180221982,   14.1758,  1,  5,  0.3897,  0.2121,  0.4439,  0.2800,  0.2811,  0.4054, 20.00,  14.1
2096,550131.000,  22.331914285, 114.180280886,   14.4059,  1,  5,  0.3687,  0.1998,  0.4220,  0.2635,  0.2655,  0.3845, 21.00,  18.0
2096,550132.000,  22.331913609, 114.180340062,   14.7205,  1,  5,  0.3514,  0.1897,  0.4059,  0.2496,  0.2519,  0.3676, 22.00,   6.8
2096,550133.000,  22.331912115, 114.180396672,   14.8774,  1,  5,  0.3370,  0.1813,  0.3937,  0.2376,  0.2401,  0.3538, 23.00,   7.5
2096,550134.000,  22.331909514, 114.180455651,   15.0536,  1,  5,  0.3247,  0.1740,  0.3843,  0.2272,  0.2297,  0.3424, 24.00,   6.2
2096,550135.000,  22.331910703, 114.180516436,   16.8496,  2,  5,  0.3462,  0.1817,  0.7002,  0.1881,  0.2064,  0.4348, 25.00,   1.0
2096,550136.000,  22.331906615, 114.180571177,   17.0650,  2,  5,  0.3449,  0.1815,  0.6940,  0.1889,  0.2090,  0.4313, 26.00,   1.0
2096,550137.000,  22.331902416, 114.180621047,   17.1276,  2,  5,  0.3451,  0.1816,  0.6935,  0.1890,  0.2096,  0.4312, 27.00,   1.1
2096,550138.000,  22.331898307, 114.180668569,   17.2214,  2,  4,  0.3494,  0.1856,  0.7153,  0.1872,  0.1959,  0.4392, 28.00,   1.4
2096,550139.000,  22.331894439, 114.180712134,   17.2279,  2,  5,  0.3501,  0.1843,  0.7185,  0.1849,  0.1975,  0.4431, 29.00,   1.3
2096,550140.000,  22.331892526, 114.180749938,   17.5008,  2,  5,  0.3384,  0.1786,  0.6762,  0.1940,  0.2179,  0.4200,  0.00,   1.1
2096,550141.000,  22.331890993, 114.180783848,   17.6962,  2,  5,  0.3400,  0.1791,  0.6781,  0.1951,  0.2193,  0.4217,  1.00,   1.4
2096,550142.000,  22.331890027, 114.180810327,   19.0797,  1,  5,  0.1149,  0.0549,  0.2453, -0.0215, -0.0512,  0.1530,-28.00,   3.3
2096,550143.000,  22.331881869, 114.180827967,   19.8200,  1,  5,  0.1111,  0.0547,  0.2417, -0.0221, -0.0557,  0.1484,-27.00,  19.5
2096,550144.000,  22.331865860, 114.180838400,   17.6725,  2,  5,  0.3392,  0.1785,  0.6776,  0.1939,  0.2182,  0.4212,  4.00,   1.4
2096,550145.000,  22.331849374, 114.180849159,   17.7586,  2,  5,  0.3393,  0.1784,  0.6779,  0.1937,  0.2179,  0.4214,  5.00,   1.6
2096,550146.000,  22.331822267, 114.180855181,   17.7535,  2,  5,  0.3395,  0.1784,  0.6784,  0.1936,  0.2178,  0.4217,  6.00,   1.1
2096,550147.000,  22.331785932, 114.180853862,   12.9973,  2,  4,  0.4014,  0.2086,  1.8402,  0.2455,  0.4802,  0.7365,  7.00,   1.1
2096,550155.000,  22.331516667, 114.180844409,   31.9155,  2,  4,  0.6614,  0.9253,  1.8080,  0.2308,  0.8785,  0.9432, 15.00,   0.0
2096,550156.000,  22.331465418, 114.180882177,   33.4708,  2,  4,  0.6616,  0.5366,  1.7182,  0.1845,  0.5840,  0.9369, 16.00,   0.0
2096,550157.000,  22.331422509, 114.180893064,   38.3165,  2,  5,  0.6584,  0.4688,  1.6071,  0.1230,  0.4264,  0.9139, 17.00,   0.0
2096,550158.000,  22.331373205, 114.180868285,   33.2399,  2,  4,  0.6637,  0.5363,  1.7224,  0.1851,  0.5848,  0.9400, 18.00,   0.0
2096,550159.000,  22.331313254, 114.180831171,   23.3422,  2,  4,  0.4693,  0.4379,  1.8383,  0.1881,  0.6664,  0.7751, 19.00,   0.0
2096,550162.000,  22.331191131, 114.180824039,   20.6297,  2,  6,  0.4053,  0.3673,  1.0805, -0.1623, -0.2194,  0.5183, 22.00,   0.0
2096,550163.000,  22.331151294, 114.180819640,   21.6322,  2,  4,  0.4354,  0.3958,  1.2511, -0.1206,  0.1642,  0.6003, 23.00,   0.0
2096,550164.000,  22.331115515, 114.180816783,   22.8485,  2,  5,  0.4362,  0.3765,  1.2215, -0.1247, -0.0886,  0.5999, 24.00,   0.0
2096,550165.000,  22.331076344, 114.180810901,   21.4926,  2,  4,  0.4383,  0.6418,  1.3900,  0.1158,  0.6065,  0.6215, 25.00,   1.9
2096,550166.000,  22.331042125, 114.180814478,   26.1416,  2,  5,  0.4861,  0.5371,  1.8963, -0.1533, -0.2003,  0.8190, 26.00,   5.6
2096,550170.000,  22.330890008, 114.180826714,   26.4963,  2,  4,  0.3995,  0.4875,  0.6949, -0.1867,  0.3428,  0.3968,  0.00,   0.0
2096,550171.000,  22.330866302, 114.180813857,   27.4266,  2,  4,  0.2434,  0.4854,  0.6956, -0.0819,  0.3813,  0.3077,  1.00,   2.7
2096,550172.000,  22.330827267, 114.180821432,   27.9062,  2,  5,  0.2407,  0.4372,  0.6609, -0.0797,  0.3201,  0.3046,  2.00,   6.2
2096,550174.000,  22.330741308, 114.180793588,   26.3900,  2,  4,  0.2359,  0.3751,  0.6544,  0.0555,  0.2936,  0.3068,  4.00, 999.9
2096,550175.000,  22.330699098, 114.180789423,   26.4742,  2,  4,  0.2338,  0.3734,  0.6500,  0.0544,  0.2914,  0.3038,  5.00,  18.5
2096,550176.000,  22.330659650, 114.180784569,   26.8005,  1,  5,  0.1016,  0.4202,  0.3244, -0.0276,  0.3178,  0.1357,-24.00,  10.5
2096,550177.000,  22.330600143, 114.180777472,   22.7043,  2,  5,  0.0325,  0.3446,  0.2112, -0.0217,  0.2614,  0.0413,  7.00,  17.4
2096,550178.000,  22.330556953, 114.180767350,   22.0024,  1,  5,  0.0377,  0.4188,  0.2541, -0.0264,  0.3177,  0.0466,  8.00, 152.3
2096,550179.000,  22.330520263, 114.180765640,   22.2814,  1,  4,  0.0419,  0.3807,  0.2367, -0.0263,  0.2876,  0.0539,  9.00,   8.3
2096,550184.000,  22.330412765, 114.180781085,   23.1187,  1,  4,  0.0617,  1.2799,  0.7514, -0.0756,  0.9726,  0.0614, 14.00,  16.0
2096,550185.000,  22.330430958, 114.180836005,   31.8201,  1,  6,  0.0504,  0.4289,  0.2651, -0.0383,  0.3222,  0.0577,-15.00,   3.6
2096,550186.000,  22.330406068, 114.180830732,   26.4575,  1,  6,  0.0535,  0.4557,  0.2819, -0.0410,  0.3425,  0.0611, 16.00,  20.8
2096,550187.000,  22.330411450, 114.180839352,   30.5625,  2,  4,  0.0454,  0.3713,  0.2346, -0.0250,  0.2806,  0.0590, 17.00,  71.1
2096,550188.000,  22.330379630, 114.180795444,   25.4131,  1,  5,  0.0780,  0.8556,  0.5137, -0.0778,  0.6439,  0.0881, 18.00,   5.2
2096,550189.000,  22.330379381, 114.180746908,   26.0806,  2,  5,  0.0425,  0.0461,  0.1034,  0.0136,  0.0471,  0.0590, 19.00,   4.8
2096,550190.000,  22.330352831, 114.180777923,   25.0714,  1,  4,  0.0862,  0.5408,  0.3710, -0.0150,  0.4156,  0.1168, 20.00,  21.2
2096,550191.000,  22.330356705, 114.180742350,   26.0078,  2,  6,  0.2048,  0.1076,  0.4996,  0.1417,  0.1706,  0.2552, 21.00,   1.1
2096,550192.000,  22.330325530, 114.180775631,   24.1257,  1,  5,  0.0797,  0.3841,  0.2654, -0.0526,  0.2858,  0.0909, 22.00,  45.9
2096,550193.000,  22.330331092, 114.180735705,   25.2021,  2,  6,  0.2040,  0.1042,  0.4968,  0.1426,  0.1692,  0.2529, 23.00,   1.4
2096,550194.000,  22.330321755, 114.180728081,   26.0265,  2,  5,  0.2158,  0.1095,  0.5282,  0.1508,  0.1862,  0.2765, 24.00,   2.2
2096,550195.000,  22.330312162, 114.180712125,   26.0041,  2,  5,  0.2165,  0.1091,  0.5308,  0.1521,  0.1874,  0.2770, 25.00,   1.5
2096,550196.000,  22.330309325, 114.180694095,   26.4118,  2,  5,  0.2178,  0.1097,  0.5320,  0.1529,  0.1885,  0.2786, 26.00,   1.2
2096,550197.000,  22.330308005, 114.180673570,   26.9296,  2,  4,  0.2202,  0.1111,  0.5728,  0.1550,  0.1824,  0.2737, 27.00,   1.4
2096,550198.000,  22.330309054, 114.180653770,   26.7354,  2,  4,  0.2218,  0.1116,  0.5770,  0.1562,  0.1835,  0.2753, 28.00,   2.3
2096,550199.000,  22.330290919, 114.180658174,   22.9561,  1,  4,  0.1393,  0.0851,  0.6208, -0.0247, -0.0623,  0.2535, 29.00,  69.7
2096,550200.000,  22.330312202, 114.180610302,   26.1081,  2,  5,  0.2033,  0.1022,  0.5169,  0.1431,  0.1672,  0.2503,  0.00,   1.2
2096,550202.000,  22.330319841, 114.180555958,   25.9108,  2,  4,  0.6805,  0.3428,  1.9706,  0.4711,  0.5354,  0.8526,  2.00,   1.0
2096,550203.000,  22.330314998, 114.180516911,   21.0295,  2,  4,  0.6627,  0.3354,  1.9225,  0.4600,  0.4848,  0.7874,  3.00,   1.5
2096,550204.000,  22.330331654, 114.180485313,   23.3600,  2,  4,  0.6618,  0.3344,  1.9198,  0.4597,  0.4854,  0.7865,  4.00,   1.6
2096,550212.000,  22.330332551, 114.180056974,   17.4476,  2,  4,  0.6650,  0.3319,  1.7126,  0.4640,  0.4923,  0.7691, 12.00, 999.9
2096,550213.000,  22.330352190, 114.180020119,   22.2233,  2,  4,  0.6646,  0.3312,  1.7126,  0.4638,  0.4929,  0.7690, 13.00, 809.0
2096,550218.000,  22.330343532, 114.179761391,   18.1927,  2,  4,  0.5533,  0.2718,  1.5501,  0.3840,  0.4424,  0.6898, 18.00,   3.4
2096,550219.000,  22.330333029, 114.179693149,   15.1975,  2,  4,  0.5533,  0.2713,  1.5516,  0.3841,  0.4432,  0.6903, 19.00,   3.7
2096,550222.000,  22.330351521, 114.179548739,   16.1005,  2,  4,  0.5544,  0.2725,  1.0362,  0.3869,  0.4268,  0.6315, 22.00,  32.0
2096,550224.000,  22.330396243, 114.179498420,   18.0842,  2,  5,  0.1402,  0.0688,  0.8097,  0.0931,  0.1686,  0.2855, 24.00,  13.3
2096,550225.000,  22.330421012, 114.179487235,   17.4500,  2,  5,  0.1360,  0.0609,  0.8103,  0.0867,  0.1702,  0.2872, 25.00,  44.9
2096,550226.000,  22.330454146, 114.179489571,   18.6313,  2,  5,  0.1427,  0.0626,  0.8571,  0.0912,  0.1849,  0.3086, 26.00,  69.5
2096,550227.000,  22.330489313, 114.179494639,   18.1911,  2,  4,  0.1440,  0.0625,  0.8831,  0.0920,  0.1888,  0.3157, 27.00,  11.6
2096,550228.000,  22.330526473, 114.179502728,   18.7002,  2,  4,  0.1442,  0.0622,  0.8862,  0.0923,  0.1897,  0.3169, 28.00,   5.2
2096,550229.000,  22.330551290, 114.179510733,   18.9408,  2,  4,  0.1445,  0.0621,  0.8900,  0.0926,  0.1907,  0.3183, 29.00,   2.8
2096,550230.000,  22.330566041, 114.179514937,   18.4036,  2,  4,  0.1430,  0.0615,  0.8748,  0.0917,  0.1875,  0.3131,  0.00,   1.1
2096,550231.000,  22.330591501, 114.179523922,   30.1495,  1,  4,  0.1649,  0.0963,  0.3690,  0.0548, -0.1026,  0.2154,-29.00, 999.9
2096,550232.000,  22.330602766, 114.179525489,   30.2228,  1,  4,  0.1620,  0.0940,  0.3583,  0.0564, -0.0970,  0.2105,-28.00, 999.9
2096,550233.000,  22.330611687, 114.179525202,   30.2436,  1,  4,  0.1591,  0.0918,  0.3477,  0.0580, -0.0912,  0.2057,-27.00, 999.9
2096,550234.000,  22.330615020, 114.179524547,   30.3034,  1,  5,  0.1647,  0.0496,  0.3263,  0.0468,  0.0678,  0.2250,-26.00, 999.9
2096,550235.000,  22.330614969, 114.179524520,   30.3003,  1,  5,  0.1807,  0.0497,  0.3597,  0.0566,  0.0814,  0.2493,-25.00, 999.9
2096,550236.000,  22.330606861, 114.179524465,   28.5461,  2,  5,  0.1927,  0.0506,  0.3908,  0.0701,  0.1007,  0.2696,  6.00,   1.0
2096,550237.000,  22.330617148, 114.179524899,   30.7743,  1,  5,  0.0989,  0.0404,  0.1953, -0.0149, -0.0167,  0.1298,-23.00, 999.9
2096,550238.000,  22.330617118, 114.179524857,   30.8008,  1,  5,  0.0948,  0.0388,  0.1874, -0.0143, -0.0166,  0.1245,-22.00, 999.9
2096,550239.000,  22.330593259, 114.179525888,   27.2904,  2,  5,  0.0385,  0.0179,  0.0830, -0.0081, -0.0176,  0.0517,  9.00,   3.8
2096,550240.000,  22.330617206, 114.179524898,   30.8040,  1,  5,  0.0866,  0.0356,  0.1717, -0.0133, -0.0163,  0.1138,-20.00, 999.9
2096,550241.000,  22.330617224, 114.179524986,   30.7897,  1,  5,  0.0825,  0.0340,  0.1639, -0.0128, -0.0163,  0.1085,-19.00, 999.9
2096,550242.000,  22.330617337, 114.179525043,   30.7919,  1,  5,  0.0785,  0.0324,  0.1561, -0.0123, -0.0162,  0.1032,-18.00, 999.9
2096,550243.000,  22.330595485, 114.179523748,   26.2222,  2,  5,  0.0458,  0.0195,  0.0929, -0.0078, -0.0128,  0.0606, 13.00,   5.2
2096,550244.000,  22.330597180, 114.179523609,   26.2806,  2,  5,  0.0466,  0.0197,  0.0941, -0.0078, -0.0123,  0.0615, 14.00,  21.3
2096,550245.000,  22.330617583, 114.179524921,   30.8791,  1,  5,  0.0663,  0.0278,  0.1332, -0.0108, -0.0163,  0.0874,-15.00, 999.9
2096,550246.000,  22.330617569, 114.179525048,   30.8575,  1,  5,  0.0623,  0.0263,  0.1257, -0.0104, -0.0165,  0.0822,-14.00, 999.9
2096,550247.000,  22.330602098, 114.179523343,   27.0420,  2,  5,  0.0459,  0.0194,  0.0927, -0.0077, -0.0122,  0.0606, 17.00,   3.4
2096,550248.000,  22.330617669, 114.179525003,   30.9019,  1,  5,  0.0543,  0.0235,  0.1112, -0.0096, -0.0171,  0.0720,-12.00, 999.9
2096,550249.000,  22.330617762, 114.179525045,   30.9109,  1,  5,  0.0503,  0.0221,  0.1044, -0.0093, -0.0176,  0.0669,-11.00, 999.9
2096,550250.000,  22.330617770, 114.179525045,   30.9117,  1,  5,  0.0465,  0.0209,  0.0979, -0.0091, -0.0183,  0.0621,-10.00, 999.9
2096,550251.000,  22.330617810, 114.179525073,   30.9112,  1,  5,  0.0427,  0.0198,  0.0920, -0.0091, -0.0194,  0.0574, -9.00, 999.9
2096,550252.000,  22.330617891, 114.179525046,   30.9447,  1,  5,  0.0390,  0.0190,  0.0873, -0.0093, -0.0211,  0.0530, -8.00, 999.9
2096,550253.000,  22.330612510, 114.179523963,   29.6023,  2,  5,  0.0333,  0.0167,  0.0764, -0.0084, -0.0197,  0.0456, 23.00,   5.6
2096,550254.000,  22.330617517, 114.179524975,   30.8933,  2,  5,  0.0322,  0.0201,  0.0895, -0.0119, -0.0313,  0.0471, 24.00,   1.4
2096,550255.000,  22.330618686, 114.179523839,   31.5269,  1,  5,  0.0280,  0.0121,  0.0566, -0.0039, -0.0043,  0.0370, -5.00, 883.0
2096,550256.000,  22.330618807, 114.179523866,   31.5471,  1,  5,  0.0249,  0.0109,  0.0508, -0.0034, -0.0040,  0.0330, -4.00, 934.2
2096,550257.000,  22.330618847, 114.179523878,   31.5662,  1,  5,  0.0222,  0.0099,  0.0459, -0.0030, -0.0038,  0.0296, -3.00, 999.9
2096,550258.000,  22.330618844, 114.179523968,   31.5467,  1,  5,  0.0201,  0.0091,  0.0419, -0.0026, -0.0036,  0.0268, -2.00, 999.9
2096,550259.000,  22.330618851, 114.179524001,   31.5581,  1,  5,  0.0186,  0.0087,  0.0394, -0.0024, -0.0034,  0.0250, -1.00, 999.9
2096,550260.000,  22.330593067, 114.179514920,   27.5424,  2,  5,  0.0129,  0.0060,  0.0272, -0.0017, -0.0024,  0.0172,  0.00,   3.6
2096,550261.000,  22.330618359, 114.179523684,   31.4925,  1,  5,  0.1251,  0.0498,  0.2436, -0.0179, -0.0112,  0.1636,-29.00, 999.9
2096,550262.000,  22.330570980, 114.179504253,   25.4658,  2,  5,  0.0198,  0.0090,  0.0413, -0.0026, -0.0035,  0.0265,  2.00,   6.7
2096,550263.000,  22.330618487, 114.179523776,   31.4990,  1,  5,  0.1168,  0.0464,  0.2274, -0.0168, -0.0105,  0.1528,-27.00, 999.9
2096,550264.000,  22.330618499, 114.179523851,   31.4721,  1,  5,  0.1126,  0.0448,  0.2193, -0.0162, -0.0101,  0.1473,-26.00, 999.9
2096,550265.000,  22.330618599, 114.179523909,   31.4790,  1,  5,  0.1085,  0.0431,  0.2112, -0.0156, -0.0098,  0.1419,-25.00, 999.9
2096,550266.000,  22.330618698, 114.179523934,   31.4922,  1,  5,  0.1043,  0.0415,  0.2031, -0.0150, -0.0094,  0.1365,-24.00, 999.9
2096,550267.000,  22.330618765, 114.179523959,   31.5042,  1,  5,  0.1002,  0.0398,  0.1951, -0.0144, -0.0091,  0.1310,-23.00, 999.9
2096,550268.000,  22.330618903, 114.179524023,   31.5082,  1,  5,  0.0960,  0.0382,  0.1870, -0.0138, -0.0087,  0.1256,-22.00, 999.9
2096,550269.000,  22.330618946, 114.179524076,   31.5006,  1,  5,  0.0918,  0.0365,  0.1789, -0.0132, -0.0084,  0.1202,-21.00, 999.9
2096,550270.000,  22.330618959, 114.179524139,   31.4924,  1,  5,  0.0877,  0.0349,  0.1709, -0.0126, -0.0081,  0.1148,-20.00, 999.9
2096,550271.000,  22.330619005, 114.179524184,   31.4932,  1,  5,  0.0835,  0.0333,  0.1629, -0.0120, -0.0078,  0.1094,-19.00, 999.9
2096,550272.000,  22.330619060, 114.179524189,   31.4920,  1,  5,  0.0794,  0.0316,  0.1548, -0.0114, -0.0075,  0.1039,-18.00, 999.9
2096,550273.000,  22.330619147, 114.179524150,   31.5123,  1,  5,  0.0753,  0.0300,  0.1468, -0.0109, -0.0072,  0.0985,-17.00, 999.9
2096,550274.000,  22.330591749, 114.179512704,   28.1216,  2,  5,  0.0471,  0.0189,  0.0921, -0.0068, -0.0047,  0.0617, 14.00,   3.9
2096,550275.000,  22.330619229, 114.179524167,   31.5328,  1,  5,  0.0670,  0.0268,  0.1309, -0.0097, -0.0066,  0.0878,-15.00, 999.9
2096,550276.000,  22.330619296, 114.179524139,   31.5643,  1,  5,  0.0630,  0.0252,  0.1230, -0.0091, -0.0063,  0.0825,-14.00, 999.9
2096,550277.000,  22.330619432, 114.179524135,   31.5932,  1,  5,  0.0589,  0.0236,  0.1152, -0.0085, -0.0061,  0.0772,-13.00, 999.9
2096,550278.000,  22.330619387, 114.179524209,   31.5823,  1,  5,  0.0548,  0.0221,  0.1074, -0.0079, -0.0058,  0.0719,-12.00, 999.9
2096,550279.000,  22.330619571, 114.179524117,   31.6359,  1,  5,  0.0508,  0.0205,  0.0997, -0.0074, -0.0056,  0.0666,-11.00, 999.9
2096,550280.000,  22.330619514, 114.179524184,   31.6273,  1,  5,  0.0468,  0.0190,  0.0921, -0.0068, -0.0054,  0.0615,-10.00, 999.9
2096,550281.000,  22.330619648, 114.179524164,   31.6623,  1,  5,  0.0429,  0.0175,  0.0846, -0.0062, -0.0051,  0.0564, -9.00, 999.9
2096,550282.000,  22.330619613, 114.179524244,   31.6466,  1,  5,  0.0391,  0.0160,  0.0773, -0.0057, -0.0049,  0.0514, -8.00, 999.9
2096,550283.000,  22.330619685, 114.179524220,   31.6824,  1,  5,  0.0354,  0.0146,  0.0703, -0.0052, -0.0047,  0.0466, -7.00, 999.9
2096,550284.000,  22.330619694, 114.179524269,   31.6717,  1,  5,  0.0318,  0.0133,  0.0635, -0.0046, -0.0045,  0.0419, -6.00, 999.9
2096,550285.000,  22.330619853, 114.179524220,   31.7177,  1,  5,  0.0284,  0.0120,  0.0571, -0.0041, -0.0043,  0.0375, -5.00, 999.9
2096,550286.000,  22.330619858, 114.179524299,   31.7041,  1,  5,  0.0252,  0.0109,  0.0513, -0.0036, -0.0041,  0.0335, -4.00, 999.9
2096,550287.000,  22.330619896, 114.179524305,   31.7223,  1,  5,  0.0225,  0.0099,  0.0463, -0.0032, -0.0039,  0.0300, -3.00, 999.9
2096,550288.000,  22.330619911, 114.179524349,   31.7199,  1,  5,  0.0204,  0.0091,  0.0424, -0.0028, -0.0037,  0.0272, -2.00, 999.9
2096,550289.000,  22.330619952, 114.179524298,   31.7349,  1,  5,  0.0189,  0.0086,  0.0398, -0.0026, -0.0035,  0.0254, -1.00, 999.9
2096,550290.000,  22.330619975, 114.179524307,   31.7346,  1,  5,  0.0184,  0.0084,  0.0389, -0.0025, -0.0035,  0.0248,  0.00, 999.9
2096,550291.000,  22.330619504, 114.179524027,   31.6652,  1,  5,  0.1267,  0.0497,  0.2455, -0.0183, -0.0097,  0.1656,-29.00, 999.9
2096,550292.000,  22.330619571, 114.179524018,   31.6680,  1,  5,  0.1225,  0.0480,  0.2374, -0.0177, -0.0094,  0.1601,-28.00, 999.9
2096,550293.000,  22.330619644, 114.179523997,   31.6940,  1,  5,  0.1183,  0.0464,  0.2292, -0.0171, -0.0091,  0.1546,-27.00, 999.9
2096,550294.000,  22.330619763, 114.179523990,   31.7492,  1,  5,  0.1141,  0.0447,  0.2211, -0.0165, -0.0088,  0.1491,-26.00, 999.9
2096,550295.000,  22.330619692, 114.179524046,   31.7113,  1,  5,  0.1099,  0.0431,  0.2129, -0.0159, -0.0085,  0.1436,-25.00, 999.9
2096,550296.000,  22.330619811, 114.179524039,   31.7397,  1,  5,  0.1057,  0.0414,  0.2048, -0.0153, -0.0082,  0.1381,-24.00, 999.9
2096,550297.000,  22.330619887, 114.179524095,   31.7504,  1,  5,  0.1014,  0.0398,  0.1966, -0.0147, -0.0079,  0.1326,-23.00, 999.9
2096,550298.000,  22.330619894, 114.179524147,   31.7373,  1,  5,  0.0972,  0.0381,  0.1885, -0.0141, -0.0077,  0.1271,-22.00, 999.9
2096,550299.000,  22.330619850, 114.179524170,   31.7108,  1,  5,  0.0930,  0.0365,  0.1804, -0.0135, -0.0074,  0.1216,-21.00, 999.9
2096,550300.000,  22.330619908, 114.179524204,   31.7253,  1,  5,  0.0888,  0.0349,  0.1722, -0.0129, -0.0071,  0.1161,-20.00, 999.9
2096,550301.000,  22.330619885, 114.179524258,   31.7042,  1,  5,  0.0846,  0.0332,  0.1641, -0.0123, -0.0069,  0.1106,-19.00, 999.9
2096,550302.000,  22.330619986, 114.179524198,   31.7326,  1,  5,  0.0804,  0.0316,  0.1561, -0.0117, -0.0067,  0.1052,-18.00, 999.9
2096,550303.000,  22.330620090, 114.179524205,   31.7602,  1,  5,  0.0763,  0.0300,  0.1480, -0.0111, -0.0064,  0.0997,-17.00, 999.9
2096,550304.000,  22.330620028, 114.179524240,   31.7418,  1,  5,  0.0721,  0.0284,  0.1400, -0.0105, -0.0062,  0.0943,-16.00, 999.9
2096,550305.000,  22.330620118, 114.179524251,   31.7523,  1,  5,  0.0679,  0.0268,  0.1320, -0.0099, -0.0060,  0.0888,-15.00, 999.9
2096,550306.000,  22.330620227, 114.179524210,   31.7922,  1,  5,  0.0638,  0.0252,  0.1240, -0.0093, -0.0058,  0.0834,-14.00, 999.9
2096,550307.000,  22.330620257, 114.179524244,   31.7912,  1,  5,  0.0596,  0.0236,  0.1161, -0.0087, -0.0056,  0.0781,-13.00, 999.9
2096,550308.000,  22.330620312, 114.179524225,   31.8039,  1,  5,  0.0555,  0.0220,  0.1083, -0.0082, -0.0054,  0.0727,-12.00, 999.9
2096,550309.000,  22.330620370, 114.179524288,   31.8125,  1,  5,  0.0515,  0.0205,  0.1005, -0.0076, -0.0053,  0.0674,-11.00, 999.9
2096,550310.000,  22.330620438, 114.179524305,   31.8299,  1,  5,  0.0475,  0.0190,  0.0929, -0.0070, -0.0051,  0.0622,-10.00, 999.9
2096,550311.000,  22.330620514, 114.179524305,   31.8477,  1,  5,  0.0435,  0.0175,  0.0853, -0.0065, -0.0049,  0.0571, -9.00, 999.9
2096,550312.000,  22.330620592, 114.179524285,   31.8691,  1,  5,  0.0396,  0.0160,  0.0780, -0.0059, -0.0048,  0.0520, -8.00, 999.9
2096,550313.000,  22.330620669, 114.179524331,   31.8849,  1,  5,  0.0358,  0.0146,  0.0709, -0.0054, -0.0046,  0.0471, -7.00, 999.9
2096,550314.000,  22.330620760, 114.179524342,   31.8997,  1,  5,  0.0322,  0.0133,  0.0640, -0.0048, -0.0045,  0.0424, -6.00, 999.9
2096,550315.000,  22.330620828, 114.179524379,   31.9096,  1,  5,  0.0288,  0.0120,  0.0576, -0.0043, -0.0043,  0.0380, -5.00, 999.9
2096,550316.000,  22.330620933, 114.179524425,   31.9186,  1,  5,  0.0256,  0.0109,  0.0518, -0.0039, -0.0041,  0.0339, -4.00, 999.9
2096,550317.000,  22.330620982, 114.179524433,   31.9231,  1,  5,  0.0228,  0.0099,  0.0468, -0.0034, -0.0040,  0.0304, -3.00, 999.9
2096,550318.000,  22.330621092, 114.179524494,   31.9385,  1,  5,  0.0207,  0.0091,  0.0428, -0.0030, -0.0038,  0.0276, -2.00, 998.1
2096,550319.000,  22.330621132, 114.179524524,   31.9376,  1,  5,  0.0192,  0.0086,  0.0402, -0.0028, -0.0036,  0.0257, -1.00, 963.4
2096,550320.000,  22.330621219, 114.179524544,   31.9632,  1,  5,  0.0187,  0.0084,  0.0393, -0.0027, -0.0035,  0.0251,  0.00, 920.6
2096,550321.000,  22.330621151, 114.179524254,   31.9682,  1,  5,  0.1283,  0.0496,  0.2474, -0.0187, -0.0080,  0.1675,-29.00, 873.9
2096,550322.000,  22.330621205, 114.179524269,   31.9891,  1,  5,  0.1240,  0.0480,  0.2392, -0.0181, -0.0078,  0.1619,-28.00, 814.2
2096,550323.000,  22.330621327, 114.179524270,   32.0225,  1,  5,  0.1198,  0.0463,  0.2310, -0.0175, -0.0075,  0.1563,-27.00, 755.5
2096,550324.000,  22.330621419, 114.179524272,   32.0484,  1,  5,  0.1155,  0.0447,  0.2228, -0.0169, -0.0073,  0.1508,-26.00, 697.6
2096,550325.000,  22.330621450, 114.179524358,   32.0399,  1,  5,  0.1113,  0.0430,  0.2145, -0.0163, -0.0071,  0.1452,-25.00, 640.6
2096,550326.000,  22.330621542, 114.179524352,   32.0435,  1,  5,  0.1070,  0.0414,  0.2063, -0.0157, -0.0069,  0.1397,-24.00, 584.4
2096,550327.000,  22.330621680, 114.179524389,   32.0615,  1,  5,  0.1027,  0.0397,  0.1981, -0.0151, -0.0067,  0.1341,-23.00, 528.2
2096,550328.000,  22.330621702, 114.179524413,   32.0606,  1,  5,  0.0985,  0.0381,  0.1899, -0.0145, -0.0065,  0.1285,-22.00, 472.2
2096,550329.000,  22.330621670, 114.179524436,   32.0580,  1,  5,  0.0942,  0.0365,  0.1818, -0.0138, -0.0063,  0.1230,-21.00, 417.4
2096,550330.000,  22.330621742, 114.179524453,   32.0823,  1,  5,  0.0900,  0.0348,  0.1736, -0.0132, -0.0061,  0.1174,-20.00, 363.9
2096,550331.000,  22.330588186, 114.179504776,   26.5376,  2,  5,  0.0445,  0.0174,  0.0863, -0.0066, -0.0040,  0.0581, 11.00,   4.7
2096,550332.000,  22.330590728, 114.179506188,   26.9621,  2,  5,  0.0462,  0.0181,  0.0896, -0.0068, -0.0039,  0.0604, 12.00,  14.1
2096,550333.000,  22.330593391, 114.179507720,   27.3977,  2,  5,  0.0475,  0.0185,  0.0920, -0.0070, -0.0039,  0.0621, 13.00,   9.8
2096,550334.000,  22.330596191, 114.179509283,   27.8718,  2,  5,  0.0484,  0.0188,  0.0935, -0.0072, -0.0038,  0.0632, 14.00,   4.7
2096,550335.000,  22.330622077, 114.179524499,   32.1548,  1,  5,  0.0688,  0.0267,  0.1330, -0.0102, -0.0054,  0.0899,-15.00, 118.8
2096,550336.000,  22.330622100, 114.179524521,   32.1490,  1,  5,  0.0646,  0.0252,  0.1250, -0.0096, -0.0053,  0.0844,-14.00,  75.5
2096,550337.000,  22.330622200, 114.179524583,   32.1687,  1,  5,  0.0604,  0.0236,  0.1170, -0.0090, -0.0052,  0.0790,-13.00,  36.8
2096,550338.000,  22.330622163, 114.179524611,   32.1496,  1,  5,  0.0563,  0.0220,  0.1091, -0.0084, -0.0050,  0.0736,-12.00,   6.8
2096,550339.000,  22.330622286, 114.179524634,   32.1756,  1,  5,  0.0521,  0.0205,  0.1013, -0.0078, -0.0049,  0.0682,-11.00,   6.5
2096,550340.000,  22.330622257, 114.179524693,   32.1612,  1,  5,  0.0481,  0.0190,  0.0936, -0.0072, -0.0048,  0.0630,-10.00,   6.3
2096,550341.000,  22.330622279, 114.179524664,   32.1647,  1,  5,  0.0441,  0.0175,  0.0860, -0.0066, -0.0048,  0.0578, -9.00,   6.1
2096,550342.000,  22.330622317, 114.179524690,   32.1751,  1,  5,  0.0401,  0.0160,  0.0786, -0.0061, -0.0047,  0.0527, -8.00,   5.8
2096,550343.000,  22.330622292, 114.179524650,   32.1861,  1,  5,  0.0363,  0.0146,  0.0715, -0.0055, -0.0046,  0.0477, -7.00,   5.6
2096,550344.000,  22.330622406, 114.179524644,   32.2069,  1,  5,  0.0326,  0.0133,  0.0646, -0.0050, -0.0045,  0.0430, -6.00,   5.1
2096,550345.000,  22.330622345, 114.179524674,   32.1939,  1,  5,  0.0292,  0.0120,  0.0582, -0.0045, -0.0043,  0.0385, -5.00,   4.7
2096,550346.000,  22.330622422, 114.179524655,   32.2123,  1,  5,  0.0259,  0.0109,  0.0523, -0.0040, -0.0042,  0.0344, -4.00,   4.2
2096,550347.000,  22.330622434, 114.179524654,   32.2096,  1,  5,  0.0232,  0.0099,  0.0472, -0.0036, -0.0040,  0.0308, -3.00,   3.5
2096,550348.000,  22.330622245, 114.179524039,   32.2873,  2,  5,  0.0211,  0.0099,  0.0478, -0.0048, -0.0100,  0.0290, 28.00,   1.2
2096,550349.000,  22.330622304, 114.179524053,   32.3174,  2,  5,  0.0198,  0.0096,  0.0465, -0.0050, -0.0107,  0.0276, 29.00,   1.3
2096,550350.000,  22.330622086, 114.179523912,   32.2919,  2,  5,  0.0193,  0.0098,  0.0477, -0.0054, -0.0122,  0.0274,  0.00,   1.3
2096,550351.000,  22.330602688, 114.179515216,   28.5327,  2,  5,  0.0927,  0.0411,  0.1880, -0.0078,  0.0086,  0.1214,  1.00,   1.3
2096,550352.000,  22.330603015, 114.179515558,   28.5715,  2,  5,  0.0903,  0.0402,  0.1831, -0.0080,  0.0072,  0.1183,  2.00,   1.4
2096,550353.000,  22.330603534, 114.179515907,   28.6740,  2,  5,  0.0882,  0.0393,  0.1786, -0.0083,  0.0054,  0.1154,  3.00,   1.4
2096,550354.000,  22.330604073, 114.179516280,   28.7755,  2,  5,  0.0862,  0.0383,  0.1744, -0.0086,  0.0020,  0.1127,  4.00,   1.4
2096,550355.000,  22.330604796, 114.179516623,   28.9280,  2,  5,  0.0842,  0.0373,  0.1703, -0.0089, -0.0048,  0.1102,  5.00,   1.3
2096,550356.000,  22.330605607, 114.179516949,   29.0843,  2,  5,  0.0824,  0.0363,  0.1664, -0.0093, -0.0073,  0.1078,  6.00,   1.3
2096,550357.000,  22.330606529, 114.179517346,   29.2734,  2,  5,  0.0805,  0.0353,  0.1624, -0.0096, -0.0091,  0.1053,  7.00,   1.2
2096,550358.000,  22.330607517, 114.179517702,   29.4882,  2,  5,  0.0786,  0.0343,  0.1585, -0.0099, -0.0108,  0.1029,  8.00,   1.1
2096,550359.000,  22.330608599, 114.179517998,   29.7369,  2,  5,  0.0766,  0.0333,  0.1544, -0.0102, -0.0122,  0.1003,  9.00,   1.1
2096,550360.000,  22.330609722, 114.179518324,   29.9993,  2,  5,  0.0745,  0.0322,  0.1503, -0.0104, -0.0136,  0.0977, 10.00,   1.1
2096,550361.000,  22.330610874, 114.179518619,   30.2634,  2,  5,  0.0723,  0.0311,  0.1461, -0.0107, -0.0149,  0.0950, 11.00,   1.0
2096,550362.000,  22.330612020, 114.179518977,   30.5122,  2,  5,  0.0700,  0.0301,  0.1418, -0.0109, -0.0162,  0.0921, 12.00,   1.0
2096,550363.000,  22.330613349, 114.179519191,   30.8544,  2,  5,  0.0676,  0.0290,  0.1375, -0.0111, -0.0175,  0.0891, 13.00,   1.1
2096,550364.000,  22.330614515, 114.179519446,   31.1548,  2,  5,  0.0650,  0.0279,  0.1330, -0.0113, -0.0189,  0.0859, 14.00,   1.0
2096,550369.000,  22.330619509, 114.179521254,   32.1559,  2,  5,  0.0503,  0.0222,  0.1075, -0.0114, -0.0220,  0.0676, 19.00,   1.1
2096,550370.000,  22.330620448, 114.179521357,   32.4160,  2,  5,  0.0471,  0.0216,  0.1043, -0.0120, -0.0246,  0.0642, 20.00,   1.0
2096,550371.000,  22.330621429, 114.179521327,   32.6883,  2,  5,  0.0440,  0.0215,  0.1037, -0.0133, -0.0286,  0.0615, 21.00,   1.2
2096,550372.000,  22.330623801, 114.179524145,   32.7070,  1,  5,  0.0438,  0.0252,  0.1220, -0.0189, -0.0427,  0.0660, -8.00, 999.9
2096,550373.000,  22.330623672, 114.179524427,   32.5897,  1,  4,  0.0396,  0.0227,  0.1106, -0.0171, -0.0385,  0.0598, -7.00, 999.9
2096,550374.000,  22.330623694, 114.179524367,   32.6052,  1,  4,  0.0356,  0.0204,  0.0997, -0.0153, -0.0345,  0.0538, -6.00, 999.9
2096,550375.000,  22.330620530, 114.179521971,   32.1476,  2,  4,  0.0308,  0.0176,  0.0863, -0.0131, -0.0297,  0.0465, 25.00,   3.6
2096,550376.000,  22.330623649, 114.179524304,   32.7221,  1,  5,  0.0266,  0.0117,  0.0572, -0.0059, -0.0107,  0.0360, -4.00, 999.9
2096,550377.000,  22.330622007, 114.179522987,   32.4139,  2,  5,  0.0234,  0.0107,  0.0523, -0.0057, -0.0112,  0.0322, 27.00,   8.5
2096,550378.000,  22.330622502, 114.179523126,   32.5752,  2,  5,  0.0214,  0.0102,  0.0499, -0.0057, -0.0118,  0.0299, 28.00,   3.1
2096,550379.000,  22.330623744, 114.179524305,   32.7405,  1,  5,  0.0204,  0.0103,  0.0510, -0.0063, -0.0136,  0.0293, -1.00, 999.9
2096,550380.000,  22.330623840, 114.179524316,   32.7743,  1,  5,  0.0205,  0.0113,  0.0572, -0.0079, -0.0180,  0.0309,  0.00, 999.9
2096,550381.000,  22.330624575, 114.179523204,   33.2323,  1,  5,  0.1334,  0.0563,  0.2807, -0.0316, -0.0580,  0.1793,-29.00, 999.9
2096,550382.000,  22.330624352, 114.179523459,   33.0916,  1,  5,  0.1296,  0.0562,  0.2793, -0.0332, -0.0638,  0.1757,-28.00, 999.9
2096,550383.000,  22.330624217, 114.179523582,   33.0251,  1,  5,  0.1260,  0.0570,  0.2821, -0.0360, -0.0725,  0.1733,-27.00, 999.9
