$GLGSV,2,2,07,79,12,115,,84,39,203,,71,02,267,,1*47,1621218984703
$GAGSV,2,1,07,01,40,334,,13,35,046,,19,18,216,,21,49,050,,7*7F,1621218984707
$GAGSV,2,2,07,26,68,137,,27,13,097,,33,28,195,,7*45,1621218984707
$PQGSV,1,1,03,195,64,063,15,193,10,156,,194,62,067,,0*7F,1621218984707
$GBGSV,4,1,16,07,56,009,25,08,35,157,21,27,71,025,29,30,49,227,18,0*7E,1621218984708
$GBGSV,4,2,16,01,47,122,,02,45,233,,03,61,188,,04,33,109,,0*7D,1621218984708
$GBGSV,4,3,16,05,22,253,,06,34,188,,09,49,219,,10,49,324,,0*71,1621218984708
$GBGSV,4,4,16,13,21,178,,16,36,194,,20,00,000,,23,03,126,,0*74,1621218984708
$GNGSA,A,3,04,08,09,16,21,27,,,,,,,1.4,1.1,0.9,1*39,1621218984710
$GNGSA,A,2,73,82,,,,,,,,,,,1.4,1.1,0.9,2*31,1621218984710
$GNGSA,A,2,27,30,,,,,,,,,,,1.4,1.1,0.9,5*3E,1621218984710
$GNVTG,,T,,M,0.0,N,0.0,K,A*3D,1621218984710
$GNGGA,023255.00,2218.070654,N,11410.741055,E,1,10,1.1,9.6,M,-1.3,M,,*6E,1621218984710
$GNRMC,023255.00,A,2218.070654,N,11410.741055,E,0.0,,170521,2.2,W,A,V*60,1621218984711
$GPGSV,4,1,13,01,40,168,15,04,21,195,12,08,54,009,26,09,28,233,31,1*63,1621218985703
$GPGSV,4,2,13,16,16,075,21,21,59,133,25,27,24,035,24,07,54,320,,1*6C,1621218985704
$GPGSV,4,3,13,14,02,291,,17,04,233,,22,07,150,,26,01,095,,1*66,1621218985705
$GPGSV,4,4,13,30,16,319,,1*59,1621218985705
$GLGSV,2,1,07,82,25,025,17,73,37,347,22,83,74,029,15,80,52,064,,1*7A,1621218985706
$GLGSV,2,2,07,79,12,115,,84,39,203,,71,02,267,,1*47,1621218985706
$GAGSV,2,1,07,01,40,334,,13,35,046,,19,18,216,,21,49,050,,7*7F,1621218985707
$GAGSV,2,2,07,26,68,137,,27,13,097,,33,28,195,,7*45,1621218985714
$PQGSV,1,1,03,195,64,063,15,193,10,156,,194,62,067,,0*7F,1621218985717
$GBGSV,4,1,16,07,56,009,25,08,35,157,21,27,71,025,28,30,49,227,18,0*7F,1621218985727
$GBGSV,4,2,16,01,47,122,,02,45,233,,03,61,188,,04,33,109,,0*7D,1621218985729
$GBGSV,4,3,16,05,22,253,,06,34,188,,09,49,219,,10,49,324,,0*71,1621218985731
$GBGSV,4,4,16,13,21,178,,16,36,194,,20,00,000,,23,03,126,,0*74,1621218985731
$GNGSA,A,3,04,08,09,16,21,27,,,,,,,1.4,1.1,0.9,1*39,1621218985735
$GNGSA,A,2,73,,,,,,,,,,,,1.4,1.1,0.9,2*3B,1621218985736
$GNGSA,A,2,27,30,,,,,,,,,,,1.4,1.1,0.9,5*3E,1621218985736
$GNVTG,,T,,M,0.0,N,0.0,K,A*3D,1621218985736
$GNGGA,023256.00,2218.070652,N,11410.741052,E,1,09,1.1,9.6,M,-1.3,M,,*64,1621218985736
$GNRMC,023256.00,A,2218.070652,N,11410.741052,E,0.0,,170521,2.2,W,A,V*62,1621218985736
$GPGSV,4,1,13,01,40,168,14,04,21,195,12,08,54,009,26,09,28,233,30,1*63,1621218986696
$GPGSV,4,2,13,16,16,075,21,21,59,133,25,27,24,035,24,07,54,320,,1*6C,1621218986697
$GPGSV,4,3,13,14,02,291,,17,04,233,,22,07,150,,26,01,095,,1*66,1621218986697
$GPGSV,4,4,13,30,16,319,,1*59,1621218986697
$GLGSV,2,1,07,82,25,025,17,73,37,347,22,83,74,029,15,80,52,064,,1*7A,1621218986697
$GLGSV,2,2,07,79,12,115,,84,39,203,,71,02,267,,1*47,1621218986698
$GAGSV,2,1,07,01,40,334,,13,35,046,,19,18,216,,21,49,050,,7*7F,1621218986699
$GAGSV,2,2,07,26,68,137,,27,13,097,,33,28,195,,7*45,1621218986699
$PQGSV,1,1,03,195,64,063,15,193,10,156,,194,62,067,,0*7F,1621218986699
$GBGSV,4,1,16,07,56,009,23,08,35,157,19,27,71,025,29,30,49,227,18,0*73,1621218986699
$GBGSV,4,2,16,01,47,122,,02,45,233,,03,61,188,,04,33,109,,0*7D,1621218986699
$GBGSV,4,3,16,05,22,253,,06,34,188,,09,49,219,,10,49,324,,0*71,1621218986700
$GBGSV,4,4,16,13,21,178,,16,36,194,,20,00,000,,23,03,126,,0*74,1621218986701
$GNGSA,A,3,01,04,08,09,16,21,27,,,,,,1.4,1.1,0.9,1*38,1621218986704
$GNGSA,A,2,73,,,,,,,,,,,,1.4,1.1,0.9,2*3B,1621218986705
$GNGSA,A,2,27,30,,,,,,,,,,,1.4,1.1,0.9,5*3E,1621218986705
$GNVTG,,T,,M,0.0,N,0.0,K,A*3D,1621218986705
$GNGGA,023257.00,2218.070649,N,11410.741043,E,1,10,1.1,9.6,M,-1.3,M,,*67,1621218986705
$GNRMC,023257.00,A,2218.070649,N,11410.741043,E,0.0,,170521,2.2,W,A,V*69,1621218986706
$GPGSV,4,1,13,01,40,168,14,04,21,195,12,08,54,009,27,09,28,233,30,1*62,1621218987701
$GPGSV,4,2,13,16,16,075,21,21,59,133,26,27,24,035,24,07,54,320,,1*6F,1621218987702
$GPGSV,4,3,13,14,02,291,,17,04,233,,22,07,150,,26,01,095,,1*66,1621218987702
$GPGSV,4,4,13,30,16,319,,1*59,1621218987707
$GLGSV,2,1,07,82,25,025,17,73,37,347,21,83,74,029,15,80,52,064,,1*79,1621218987708
$GLGSV,2,2,07,79,12,115,,84,39,203,,71,02,267,,1*47,1621218987708
$GAGSV,2,1,07,01,40,334,,13,35,046,,19,18,216,,21,49,050,,7*7F,1621218987708
$GAGSV,2,2,07,26,68,137,,27,13,097,,33,28,195,,7*45,1621218987708
$PQGSV,1,1,03,195,64,063,15,193,10,156,,194,62,067,,0*7F,1621218987709
$GBGSV,4,1,16,07,56,009,23,08,35,157,19,13,21,178,17,27,71,025,29,0*7A,1621218987709
$GBGSV,4,2,16,30,49,227,18,01,47,122,,02,45,233,,03,61,188,,0*71,1621218987709
$GBGSV,4,3,16,04,33,109,,05,22,253,,06,34,188,,09,49,219,,0*74,1621218987709
$GBGSV,4,4,16,10,49,324,,16,36,194,,20,00,000,,23,03,126,,0*72,1621218987710
$GNGSA,A,3,01,04,08,09,16,21,27,,,,,,1.4,1.1,0.9,1*38,1621218987719
$GNGSA,A,2,73,,,,,,,,,,,,1.4,1.1,0.9,2*3B,1621218987719
$GNGSA,A,2,27,30,,,,,,,,,,,1.4,1.1,0.9,5*3E,1621218987719
$GNVTG,,T,,M,0.0,N,0.0,K,A*3D,1621218987720
$GNGGA,023258.00,2218.070648,N,11410.741038,E,1,10,1.1,9.7,M,-1.3,M,,*64,1621218987720
$GNRMC,023258.00,A,2218.070648,N,11410.741038,E,0.0,,170521,2.2,W,A,V*6B,1621218987720
$GPGSV,4,1,13,01,40,168,14,04,21,195,12,08,54,009,26,09,28,233,31,1*62,1621218988688
$GPGSV,4,2,13,16,16,075,21,21,59,133,26,27,24,035,24,07,54,320,,1*6F,1621218988688
$GPGSV,4,3,13,14,02,291,,17,04,233,,22,07,150,,26,01,095,,1*66,1621218988688
$GPGSV,4,4,13,30,16,319,,1*59,1621218988689
$GLGSV,2,1,07,82,25,025,17,73,37,347,21,83,74,029,15,80,52,064,,1*79,1621218988689
$GLGSV,2,2,07,79,12,115,,84,39,203,,71,02,267,,1*47,1621218988689
$GAGSV,2,1,07,01,40,334,,13,35,046,,19,18,216,,21,49,050,,7*7F,1621218988689
$GAGSV,2,2,07,26,68,137,,27,13,097,,33,28,195,,7*45,1621218988689
$PQGSV,1,1,03,195,64,063,15,193,10,156,,194,62,067,,0*7F,1621218988689
$GBGSV,4,1,16,07,56,009,23,08,35,157,19,13,21,178,17,27,71,025,29,0*7A,1621218988689
$GBGSV,4,2,16,30,49,227,18,01,47,122,,02,45,233,,03,61,188,,0*71,1621218988690
$GBGSV,4,3,16,04,33,109,,05,22,253,,06,34,188,,09,49,219,,0*74,1621218988691
$GBGSV,4,4,16,10,49,324,,16,36,194,,20,00,000,,23,03,126,,0*72,1621218988693
$GNGSA,A,3,01,04,08,09,16,21,27,,,,,,1.4,1.1,0.9,1*38,1621218988696
$GNGSA,A,2,73,,,,,,,,,,,,1.4,1.1,0.9,2*3B,1621218988696
$GNGSA,A,2,27,30,,,,,,,,,,,1.4,1.1,0.9,5*3E,1621218988697
$GNVTG,,T,,M,0.0,N,0.0,K,A*3D,1621218988697
$GNGGA,023259.00,2218.070646,N,11410.741033,E,1,10,1.1,9.7,M,-1.3,M,,*60,1621218988697
$GNRMC,023259.00,A,2218.070646,N,11410.741033,E,0.0,,170521,2.2,W,A,V*6F,1621218988698
$GPGSV,4,1,13,01,40,168,14,04,21,195,12,08,54,009,27,09,28,233,31,1*63,1621218989691
$GPGSV,4,2,13,16,16,075,21,21,59,133,27,27,24,035,25,07,54,320,,1*6F,1621218989704
$GPGSV,4,3,13,14,02,291,,17,04,233,,22,07,150,,26,01,095,,1*66,1621218989705
$GPGSV,4,4,13,30,16,319,,1*59,1621218989706
$GLGSV,2,1,07,82,25,025,17,73,37,347,22,83,74,029,15,80,52,064,,1*7A,1621218989706
$GLGSV,2,2,07,79,12,115,,84,39,203,,71,02,267,,1*47,1621218989706
$GAGSV,2,1,07,01,40,334,,13,35,046,,19,18,216,,21,49,050,,7*7F,1621218989706
$GAGSV,2,2,07,26,68,137,,27,13,097,,33,28,195,,7*45,1621218989707
$PQGSV,1,1,03,195,64,063,15,193,10,156,,194,62,067,,0*7F,1621218989708
$GBGSV,4,1,16,07,56,009,25,08,35,157,19,13,21,178,17,27,71,025,29,0*7C,1621218989708
$GBGSV,4,2,16,30,49,227,18,01,47,122,,02,45,233,,03,61,188,,0*71,1621218989709
$GBGSV,4,3,16,04,33,109,,05,22,253,,06,34,188,,09,49,219,,0*74,1621218989709
$GBGSV,4,4,16,10,49,324,,16,36,194,,20,00,000,,23,03,126,,0*72,1621218989709
$GNGSA,A,3,01,04,08,09,16,21,27,,,,,,1.4,1.1,0.9,1*38,1621218989712
$GNGSA,A,2,73,,,,,,,,,,,,1.4,1.1,0.9,2*3B,1621218989713
$GNGSA,A,2,27,30,,,,,,,,,,,1.4,1.1,0.9,5*3E,1621218989714
$GNVTG,,T,,M,0.0,N,0.0,K,A*3D,1621218989715
$GNGGA,023300.00,2218.070642,N,11410.741033,E,1,10,1.1,9.7,M,-1.3,M,,*69,1621218989717
$GNRMC,023300.00,A,2218.070642,N,11410.741033,E,0.0,,170521,2.2,W,A,V*66,1621218989718
$GPGSV,4,1,13,01,40,168,14,04,21,195,12,08,54,009,26,09,28,233,32,1*61,1621218990700
$GPGSV,4,2,13,16,16,075,21,21,59,133,26,27,24,035,24,07,54,320,,1*6F,1621218990706
$GPGSV,4,3,13,14,02,291,,17,04,233,,22,07,150,,26,01,095,,1*66,1621218990706
$GPGSV,4,4,13,30,16,319,,1*59,1621218990706
$GLGSV,2,1,07,82,25,025,17,73,37,347,24,83,74,029,15,80,52,064,,1*7C,1621218990707
$GLGSV,2,2,07,79,12,115,,84,39,203,,71,02,267,,1*47,1621218990707
$GAGSV,2,1,07,01,40,334,,13,35,046,,19,18,216,,21,49,050,,7*7F,1621218990707
$GAGSV,2,2,07,26,68,137,,27,13,097,,33,28,195,,7*45,1621218990707
$PQGSV,1,1,03,195,64,063,15,193,10,156,,194,62,067,,0*7F,1621218990708
$GBGSV,4,1,16,07,56,009,24,08,35,157,19,13,21,178,17,27,71,025,30,0*75,1621218990708
$GBGSV,4,2,16,30,49,227,21,01,47,122,,02,45,233,,03,61,188,,0*7B,1621218990708
$GBGSV,4,3,16,04,33,109,,05,22,253,,06,34,188,,09,49,219,,0*74,1621218990708
$GBGSV,4,4,16,10,49,324,,16,36,194,,20,00,000,,23,03,126,,0*72,1621218990708
$GNGSA,A,3,01,08,09,16,21,27,,,,,,,1.4,1.1,0.9,1*3C,1621218990712
$GNGSA,A,2,73,,,,,,,,,,,,1.4,1.1,0.9,2*3B,1621218990714
$GNGSA,A,2,27,30,,,,,,,,,,,1.4,1.1,0.9,5*3E,1621218990715
$GNVTG,,T,,M,0.0,N,0.0,K,A*3D,1621218990715
$GNGGA,023301.00,2218.070643,N,11410.741048,E,1,09,1.1,9.6,M,-1.3,M,,*6C,1621218990715
$GNRMC,023301.00,A,2218.070643,N,11410.741048,E,0.0,,170521,2.2,W,A,V*6A,1621218990715
$GPGSV,4,1,13,01,40,168,14,04,21,195,12,08,54,009,27,09,28,233,34,1*66,1621218991702
$GPGSV,4,2,13,16,16,075,21,21,59,133,27,27,24,035,24,07,54,320,,1*6E,1621218991704
$GPGSV,4,3,13,14,02,291,,17,04,233,,22,07,150,,26,01,095,,1*66,1621218991718
$GPGSV,4,4,13,30,16,319,,1*59,1621218991719
$GLGSV,2,1,07,82,25,025,17,73,37,347,24,83,74,029,15,80,52,064,,1*7C,1621218991719
$GLGSV,2,2,07,79,12,115,,84,39,203,,71,02,267,,1*47,1621218991719
$GAGSV,2,1,07,01,40,334,,13,35,046,,19,18,216,,21,49,050,,7*7F,1621218991719
$GAGSV,2,2,07,26,68,137,,27,13,097,,33,28,195,,7*45,1621218991719
$PQGSV,1,1,03,195,64,063,21,193,10,156,,194,62,067,,0*78,1621218991720
$GBGSV,4,1,16,07,56,009,23,08,35,157,19,13,21,178,17,27,71,025,30,0*72,1621218991720
$GBGSV,4,2,16,30,49,227,21,01,47,122,,02,45,233,,03,61,188,,0*7B,1621218991720
$GBGSV,4,3,16,04,33,109,,05,22,253,,06,34,188,,09,49,219,,0*74,1621218991720
$GBGSV,4,4,16,10,49,324,,16,36,194,,20,00,000,,23,03,126,,0*72,1621218991720
$GNGSA,A,3,01,08,09,16,21,27,,,,,,,1.4,1.1,0.9,1*3C,1621218991725
$GNGSA,A,2,73,,,,,,,,,,,,1.4,1.1,0.9,2*3B,1621218991725
$GNGSA,A,2,27,30,,,,,,,,,,,1.4,1.1,0.9,5*3E,1621218991726
$GNVTG,,T,,M,0.0,N,0.0,K,A*3D,1621218991726
$GNGGA,023302.00,2218.070639,N,11410.741050,E,1,09,1.1,9.6,M,-1.3,M,,*6B,1621218991726
$GNRMC,023302.00,A,2218.070639,N,11410.741050,E,0.0,,170521,2.2,W,A,V*6D,1621218991726
$GPGSV,4,1,13,01,40,168,14,04,21,195,12,08,54,009,28,09,28,233,34,1*69,1621218992749
$GPGSV,4,2,13,16,16,075,20,21,59,133,28,27,24,035,24,07,54,320,,1*60,1621218992750
$GPGSV,4,3,13,14,02,291,,17,04,233,,22,07,150,,26,01,095,,1*66,1621218992750
$GPGSV,4,4,13,30,16,319,,1*59,1621218992751
$GLGSV,2,1,07,82,25,025,17,73,37,347,27,83,74,029,15,80,52,064,,1*7F,1621218992751
$GLGSV,2,2,07,79,12,115,,84,39,203,,71,02,267,,1*47,1621218992751
$GAGSV,2,1,07,01,40,334,,13,35,046,,19,18,216,,21,49,050,,7*7F,1621218992752
$GAGSV,2,2,07,26,68,137,,27,13,097,,33,28,195,,7*45,1621218992752
$PQGSV,1,1,03,195,64,063,20,193,10,156,,194,62,067,,0*79,1621218992752
$GBGSV,4,1,16,07,56,009,24,08,35,157,19,13,21,178,17,27,71,025,29,0*7D,1621218992752
$GBGSV,4,2,16,30,49,227,21,01,47,122,,02,45,233,,03,61,188,,0*7B,1621218992753
$GBGSV,4,3,16,04,33,109,,05,22,253,,06,34,188,,09,49,219,,0*74,1621218992754
$GBGSV,4,4,16,10,49,324,,16,36,194,,20,00,000,,23,03,126,,0*72,1621218992754
$GNGSA,A,3,08,09,16,21,27,,,,,,,,1.5,1.2,0.9,1*3F,1621218992756
$GNGSA,A,2,73,,,,,,,,,,,,1.5,1.2,0.9,2*39,1621218992756
$GNGSA,A,2,27,30,,,,,,,,,,,1.5,1.2,0.9,5*3C,1621218992756
$GNVTG,,T,,M,0.0,N,0.0,K,A*3D,1621218992757
$GNGGA,023303.00,2218.070633,N,11410.741056,E,1,08,1.2,9.6,M,-1.3,M,,*64,1621218992757
$GNRMC,023303.00,A,2218.070633,N,11410.741056,E,0.0,,170521,2.2,W,A,V*60,1621218992758
$GPGSV,4,1,13,01,40,168,16,04,21,195,12,08,54,009,26,09,28,233,33,1*62,1621218993691
$GPGSV,4,2,13,16,16,075,20,21,59,133,29,27,24,035,24,07,54,320,,1*61,1621218993692
$GPGSV,4,3,13,14,02,291,,17,04,233,,22,07,150,,26,01,095,,1*66,1621218993692
$GPGSV,4,4,13,30,16,319,,1*59,1621218993693
$GLGSV,2,1,07,82,25,025,17,73,37,347,26,83,74,029,15,80,52,064,,1*7E,1621218993693
$GLGSV,2,2,07,79,12,115,,84,39,203,,71,02,267,,1*47,1621218993693
$GAGSV,2,1,07,01,40,334,,13,35,046,,19,18,216,,21,49,050,,7*7F,1621218993694
$GAGSV,2,2,07,26,68,137,,27,13,097,,33,28,195,,7*45,1621218993694
$PQGSV,1,1,03,195,64,063,20,193,10,156,,194,62,067,,0*79,1621218993694
$GBGSV,4,1,16,07,56,009,24,08,35,157,22,13,21,178,17,27,71,025,31,0*7C,1621218993694
$GBGSV,4,2,16,30,49,227,21,01,47,122,,02,45,233,,03,61,188,,0*7B,1621218993694
$GBGSV,4,3,16,04,33,109,,05,22,253,,06,34,188,,09,49,219,,0*74,1621218993695
$GBGSV,4,4,16,10,49,324,,16,36,194,,20,00,000,,23,03,126,,0*72,1621218993695
$GNGSA,A,3,01,08,09,16,21,27,,,,,,,1.4,1.1,0.9,1*3C,1621218993697
$GNGSA,A,2,73,,,,,,,,,,,,1.4,1.1,0.9,2*3B,1621218993698
$GNGSA,A,2,27,30,,,,,,,,,,,1.4,1.1,0.9,5*3E,1621218993699
$GNVTG,,T,,M,0.0,N,0.0,K,A*3D,1621218993699
$GNGGA,023304.00,2218.070633,N,11410.741057,E,1,09,1.1,9.6,M,-1.3,M,,*60,1621218993699
$GNRMC,023304.00,A,2218.070633,N,11410.741057,E,0.0,,170521,2.2,W,A,V*66,1621218993700
$GPGSV,4,1,13,01,40,168,28,04,21,195,12,08,54,009,25,09,28,233,33,1*6C,1621218994691
$GPGSV,4,2,13,16,16,075,24,21,59,133,29,27,24,035,21,07,54,320,,1*60,1621218994692
$GPGSV,4,3,13,14,02,291,,17,04,233,,22,07,150,,26,01,095,,1*66,1621218994694
$GPGSV,4,4,13,30,16,319,,1*59,1621218994699
$GLGSV,2,1,07,82,25,025,17,73,37,347,25,83,74,029,15,80,52,064,,1*7D,1621218994702
$GLGSV,2,2,07,79,12,115,,84,39,203,,71,02,267,,1*47,1621218994702
$GAGSV,2,1,07,01,40,334,,13,35,046,,19,18,216,,21,49,050,,7*7F,1621218994702
$GAGSV,2,2,07,26,68,137,,27,13,097,,33,28,195,,7*45,1621218994703
$PQGSV,1,1,03,195,64,063,20,193,10,156,,194,62,067,,0*79,1621218994703
$GBGSV,4,1,16,07,56,009,21,08,35,157,27,13,21,178,17,27,71,025,30,0*7D,1621218994707
$GBGSV,4,2,16,30,49,227,21,01,47,122,,02,45,233,,03,61,188,,0*7B,1621218994708
$GBGSV,4,3,16,04,33,109,,05,22,253,,06,34,188,,09,49,219,,0*74,1621218994708
$GBGSV,4,4,16,10,49,324,,16,36,194,,20,00,000,,23,03,126,,0*72,1621218994713
$GNGSA,A,3,01,08,09,16,21,27,,,,,,,1.4,1.1,0.9,1*3C,1621218994715
$GNGSA,A,2,73,,,,,,,,,,,,1.4,1.1,0.9,2*3B,1621218994715
$GNGSA,A,2,27,30,,,,,,,,,,,1.4,1.1,0.9,5*3E,1621218994716
$GNVTG,,T,,M,0.0,N,0.0,K,A*3D,1621218994716
$GNGGA,023305.00,2218.070588,N,11410.741082,E,1,09,1.1,9.7,M,-1.3,M,,*6B,1621218994717
$GNRMC,023305.00,A,2218.070588,N,11410.741082,E,0.0,,170521,2.2,W,A,V*6C,1621218994717
$GPGSV,4,1,13,01,40,168,29,04,21,195,12,08,54,009,25,09,28,233,33,1*6D,1621218995711
$GPGSV,4,2,13,16,16,075,27,21,59,133,28,27,24,035,21,07,54,320,,1*62,1621218995743
$GPGSV,4,3,13,14,02,291,,17,04,233,,22,07,150,,26,01,095,,1*66,1621218995743
$GPGSV,4,4,13,30,16,319,,1*59,1621218995744
$GLGSV,2,1,07,82,25,025,17,73,37,347,24,83,74,029,15,80,52,064,,1*7C,1621218995744
$GLGSV,2,2,07,79,12,115,,84,39,203,,71,02,267,,1*47,1621218995744
$GAGSV,2,1,07,01,40,334,,13,35,046,,19,18,216,,21,49,050,,7*7F,1621218995744
$GAGSV,2,2,07,26,68,137,,27,13,097,,33,28,195,,7*45,1621218995744
$PQGSV,1,1,03,195,64,063,19,193,10,156,,194,62,067,,0*73,1621218995745
$GBGSV,4,1,16,07,56,009,21,08,35,157,29,13,21,178,17,27,71,025,31,0*72,1621218995745
$GBGSV,4,2,16,30,49,227,21,01,47,122,,02,45,233,,03,61,188,,0*7B,1621218995745
$GBGSV,4,3,16,04,33,109,,05,22,253,,06,34,188,,09,49,219,,0*74,1621218995745
$GBGSV,4,4,16,10,49,324,,16,36,194,,20,00,000,,23,03,126,,0*72,1621218995745
$GNGSA,A,3,01,08,09,16,21,27,,,,,,,1.4,1.1,0.9,1*3C,1621218995748
$GNGSA,A,2,73,,,,,,,,,,,,1.4,1.1,0.9,2*3B,1621218995749
$GNGSA,A,2,27,30,,,,,,,,,,,1.4,1.1,0.9,5*3E,1621218995750
$GNVTG,,T,,M,0.0,N,0.0,K,A*3D,1621218995750
$GNGGA,023306.00,2218.070546,N,11410.741106,E,1,09,1.1,9.7,M,-1.3,M,,*67,1621218995751
$GNRMC,023306.00,A,2218.070546,N,11410.741106,E,0.0,,170521,2.2,W,A,V*60,1621218995751
$GPGSV,4,1,13,01,40,168,26,04,21,195,11,08,54,009,22,09,28,233,34,1*61,1621218996694
$GPGSV,4,2,13,16,16,075,30,21,59,133,28,27,24,035,21,07,54,320,,1*64,1621218996696
$GPGSV,4,3,13,14,02,291,,17,04,233,,22,07,150,,26,01,095,,1*66,1621218996705
$GPGSV,4,4,13,30,16,319,,1*59,1621218996706
$GLGSV,2,1,07,82,25,025,17,73,37,347,24,83,74,029,15,80,52,064,,1*7C,1621218996723
$GLGSV,2,2,07,79,12,115,,84,39,203,,71,02,267,,1*47,1621218996724
$GAGSV,2,1,07,01,40,334,,13,35,046,,19,18,216,,21,49,050,,7*7F,1621218996724
$GAGSV,2,2,07,26,68,137,,27,13,097,,33,28,195,,7*45,1621218996724
$PQGSV,1,1,03,195,64,063,20,193,10,156,,194,62,067,,0*79,1621218996725
$GBGSV,4,1,16,07,56,009,21,08,35,157,24,13,21,178,17,27,71,025,33,0*7D,1621218996725
$GBGSV,4,2,16,30,49,227,18,01,47,122,,02,45,233,,03,61,188,,0*71,1621218996725
$GBGSV,4,3,16,04,33,109,,05,22,253,,06,34,188,,09,49,219,,0*74,1621218996725
$GBGSV,4,4,16,10,49,324,,16,36,194,,20,00,000,,23,03,126,,0*72,1621218996725
$GNGSA,A,3,01,04,08,09,16,21,27,,,,,,1.4,1.1,0.9,1*38,1621218996728
$GNGSA,A,2,73,,,,,,,,,,,,1.4,1.1,0.9,2*3B,1621218996728
$GNGSA,A,2,27,30,,,,,,,,,,,1.4,1.1,0.9,5*3E,1621218996728
$GNVTG,,T,,M,0.0,N,0.0,K,A*3D,1621218996728
$GNGGA,023307.00,2218.070552,N,11410.741091,E,1,10,1.1,9.7,M,-1.3,M,,*64,1621218996729
$GNRMC,023307.00,A,2218.070552,N,11410.741091,E,0.0,,170521,2.2,W,A,V*6B,1621218996729
$GPGSV,4,1,13,01,40,168,23,04,21,195,11,08,54,009,22,09,28,233,33,1*63,1621218997698
$GPGSV,4,2,13,16,16,075,30,21,59,133,23,27,24,035,21,07,54,320,,1*6F,1621218997698
$GPGSV,4,3,13,14,02,291,,17,04,233,,22,07,150,,26,01,095,,1*66,1621218997699
$GPGSV,4,4,13,30,16,319,,1*59,1621218997699
$GLGSV,2,1,07,82,25,025,17,73,37,347,21,83,74,029,15,80,52,064,,1*79,1621218997699
$GLGSV,2,2,07,79,12,115,,84,39,203,,71,02,267,,1*47,1621218997699
$GAGSV,2,1,07,01,40,334,,13,35,046,,19,18,216,,21,49,050,,7*7F,1621218997700
$GAGSV,2,2,07,26,68,137,,27,13,097,,33,28,195,,7*45,1621218997700
$PQGSV,1,1,03,195,64,063,21,193,10,156,,194,62,067,,0*78,1621218997702
$GBGSV,4,1,16,07,56,009,21,08,35,157,23,13,21,178,17,27,71,025,35,0*7C,1621218997702
$GBGSV,4,2,16,30,49,227,24,01,47,122,,02,45,233,,03,61,188,,0*7E,1621218997702
$GBGSV,4,3,16,04,33,109,,05,22,253,,06,34,188,,09,49,219,,0*74,1621218997703
$GBGSV,4,4,16,10,49,324,,16,36,194,,20,00,000,,23,03,126,,0*72,1621218997703
$GNGSA,A,3,01,04,08,09,16,21,27,,,,,,1.4,1.1,0.9,1*38,1621218997705
$GNGSA,A,2,73,,,,,,,,,,,,1.4,1.1,0.9,2*3B,1621218997705
$GNGSA,A,2,27,30,,,,,,,,,,,1.4,1.1,0.9,5*3E,1621218997706
$GNVTG,,T,,M,0.0,N,0.0,K,A*3D,1621218997706
$GNGGA,023308.00,2218.070546,N,11410.741086,E,1,10,1.1,9.7,M,-1.3,M,,*68,1621218997706
$GNRMC,023308.00,A,2218.070546,N,11410.741086,E,0.0,,170521,2.2,W,A,V*67,1621218997706
$GPGSV,4,1,13,01,40,168,23,04,21,195,11,08,54,009,24,09,28,233,28,1*6F,1621218998704
$GPGSV,4,2,13,16,16,075,24,21,59,133,27,27,24,035,21,07,54,320,,1*6E,1621218998705
$GPGSV,4,3,13,14,02,291,,17,04,233,,22,07,150,,26,01,095,,1*66,1621218998705
$GPGSV,4,4,13,30,16,319,,1*59,1621218998705
$GLGSV,2,1,06,73,37,347,21,83,74,029,15,80,52,064,,79,12,115,,1*7C,1621218998706
$GLGSV,2,2,06,84,39,203,,71,02,267,,1*7E,1621218998706
$GAGSV,2,1,07,01,40,334,,13,35,046,,19,18,216,,21,49,050,,7*7F,1621218998706
$GAGSV,2,2,07,26,68,137,,27,13,097,,33,28,195,,7*45,1621218998707
$PQGSV,1,1,03,195,64,063,21,193,10,156,,194,62,067,,0*78,1621218998707
$GBGSV,4,1,16,07,56,009,21,08,35,157,23,13,21,178,17,27,71,025,34,0*7D,1621218998707
$GBGSV,4,2,16,30,49,227,24,01,47,122,,02,45,233,,03,61,188,,0*7E,1621218998707
$GBGSV,4,3,16,04,33,109,,05,22,253,,06,34,188,,09,49,219,,0*74,1621218998707
$GBGSV,4,4,16,10,49,324,,16,36,194,,20,00,000,,23,03,126,,0*72,1621218998708
$GNGSA,A,3,01,04,08,09,16,21,27,,,,,,1.4,1.1,0.9,1*38,1621218998715
$GNGSA,A,2,73,,,,,,,,,,,,1.4,1.1,0.9,2*3B,1621218998715
$GNGSA,A,2,27,30,,,,,,,,,,,1.4,1.1,0.9,5*3E,1621218998716
$GNVTG,,T,,M,0.0,N,0.0,K,A*3D,1621218998717
$GNGGA,023309.00,2218.070546,N,11410.741083,E,1,10,1.1,9.7,M,-1.3,M,,*6C,1621218998718
$GNRMC,023309.00,A,2218.070546,N,11410.741083,E,0.0,,170521,2.2,W,A,V*63,1621218998718
$GPGSV,4,1,13,01,40,168,24,04,21,195,11,07,54,320,29,08,54,009,24,1*6F,1621218999874
$GPGSV,4,2,13,09,28,233,22,16,16,075,24,21,59,133,27,27,24,035,18,1*62,1621218999875
$GPGSV,4,3,13,30,16,319,20,14,02,291,,17,04,233,,22,07,150,,1*62,1621218999875
$GPGSV,4,4,13,26,01,095,,1*5F,1621218999875
$GLGSV,2,1,07,73,37,347,28,83,74,029,15,82,25,025,,80,52,064,,1*76,1621218999875
$GLGSV,2,2,07,79,12,115,,84,39,203,,71,02,267,,1*47,1621218999875
$GAGSV,2,1,07,01,40,334,,13,35,046,,19,18,216,,21,49,050,,7*7F,1621218999875
$GAGSV,2,2,07,26,68,137,,27,13,097,,33,28,195,,7*45,1621218999876
$PQGSV,1,1,03,195,64,063,21,193,10,156,,194,62,067,,0*78,1621218999876
$GBGSV,4,1,16,07,56,009,21,08,35,157,26,13,21,178,17,27,71,025,26,0*7B,1621218999877
$GBGSV,4,2,16,30,49,227,22,01,47,122,,02,45,233,,03,61,188,,0*78,1621218999878
$GBGSV,4,3,16,04,33,109,,05,22,253,,06,34,188,,09,49,219,,0*74,1621218999878
$GBGSV,4,4,16,10,49,324,,16,36,194,,20,00,000,,23,03,126,,0*72,1621218999878
$GNGSA,A,3,01,04,07,08,09,16,21,27,,,,,1.3,1.0,0.8,1*38,1621218999880
$GNGSA,A,2,73,,,,,,,,,,,,1.3,1.0,0.8,2*3C,1621218999881
$GNGSA,A,2,27,30,,,,,,,,,,,1.3,1.0,0.8,5*39,1621218999881
$GNVTG,,T,,M,0.0,N,0.0,K,A*3D,1621218999882
$GNGGA,023310.00,2218.070531,N,11410.741078,E,1,11,1.0,9.8,M,-1.3,M,,*6F,1621218999882
$GNRMC,023310.00,A,2218.070531,N,11410.741078,E,0.0,,170521,2.2,W,A,V*6F,1621218999884
$GPGSV,4,1,13,01,40,168,25,04,21,195,11,07,54,320,26,08,54,009,24,1*61,1621219000695
$GPGSV,4,2,13,09,28,233,22,16,16,075,22,21,59,133,25,27,24,035,18,1*66,1621219000697
$GPGSV,4,3,13,30,16,319,20,14,02,291,,17,04,233,,22,07,150,,1*62,1621219000735
$GPGSV,4,4,13,26,01,095,,1*5F,1621219000736
$GLGSV,2,1,07,73,37,347,27,83,74,029,15,82,25,025,,80,52,064,,1*79,1621219000737
$GLGSV,2,2,07,79,12,115,,84,39,203,,71,02,267,,1*47,1621219000738
$GAGSV,2,1,07,01,40,334,,13,35,046,,19,18,216,,21,49,050,,7*7F,1621219000738
$GAGSV,2,2,07,26,68,137,,27,13,097,,33,28,195,,7*45,1621219000740
$PQGSV,1,1,03,195,64,063,20,193,10,156,,194,62,067,,0*79,1621219000740
$GBGSV,4,1,16,07,56,009,21,08,35,157,26,13,21,178,17,27,71,025,26,0*7B,1621219000741
$GBGSV,4,2,16,30,49,227,22,01,47,122,,02,45,233,,03,61,188,,0*78,1621219000742
$GBGSV,4,3,16,04,33,109,,05,22,253,,06,34,188,,09,49,219,,0*74,1621219000742
$GBGSV,4,4,16,10,49,324,,16,36,194,,20,00,000,,23,03,126,,0*72,1621219000742
$GNGSA,A,3,01,04,07,08,09,16,21,27,,,,,1.3,1.0,0.8,1*38,1621219000745
$GNGSA,A,2,73,,,,,,,,,,,,1.3,1.0,0.8,2*3C,1621219000746
$GNGSA,A,2,27,30,,,,,,,,,,,1.3,1.0,0.8,5*39,1621219000746
$GNVTG,,T,,M,0.0,N,0.0,K,A*3D,1621219000746
$GNGGA,023311.00,2218.070561,N,11410.741040,E,1,11,1.0,9.8,M,-1.3,M,,*60,1621219000746
$GNRMC,023311.00,A,2218.070561,N,11410.741040,E,0.0,,170521,2.2,W,A,V*60,1621219000746
$GPGSV,4,1,13,01,40,168,28,04,21,195,11,07,54,320,30,08,54,009,19,1*65,1621219001695
$GPGSV,4,2,13,09,28,233,25,16,16,075,22,21,59,133,35,27,24,035,18,1*60,1621219001698
$GPGSV,4,3,13,30,16,319,20,14,02,291,,17,04,233,,22,07,150,,1*62,1621219001698
$GPGSV,4,4,13,26,01,095,,1*5F,1621219001698
$GLGSV,2,1,07,73,37,347,27,80,52,064,21,83,74,029,15,82,25,025,,1*7A,1621219001699
$GLGSV,2,2,07,79,12,115,,84,39,203,,71,02,267,,1*47,1621219001699
$GAGSV,2,1,07,01,40,334,,13,35,046,,19,18,216,,21,49,050,,7*7F,1621219001700
$GAGSV,2,2,07,26,68,137,,27,13,097,,33,28,195,,7*45,1621219001700
$PQGSV,1,1,03,195,64,063,25,193,10,156,,194,62,067,,0*7C,1621219001700
$GBGSV,4,1,16,07,56,009,21,08,35,157,24,13,21,178,17,27,71,025,23,0*7C,1621219001701
$GBGSV,4,2,16,30,49,227,22,01,47,122,,02,45,233,,03,61,188,,0*78,1621219001702
$GBGSV,4,3,16,04,33,109,,05,22,253,,06,34,188,,09,49,219,,0*74,1621219001702
$GBGSV,4,4,16,10,49,324,,16,36,194,,20,00,000,,23,03,126,,0*72,1621219001704
$GNGSA,A,3,01,04,07,08,09,16,21,27,,,,,1.2,0.9,0.8,1*31,1621219001710
$GNGSA,A,2,73,80,,,,,,,,,,,1.2,0.9,0.8,2*3D,1621219001712
$GNGSA,A,2,27,30,,,,,,,,,,,1.2,0.9,0.8,5*30,1621219001714
$GNVTG,,T,,M,0.0,N,0.0,K,A*3D,1621219001717
$GNGGA,023312.00,2218.070394,N,11410.741200,E,1,12,0.9,9.7,M,-1.3,M,,*6D,1621219001717
$GNRMC,023312.00,A,2218.070394,N,11410.741200,E,0.0,,170521,2.2,W,A,V*69,1621219001718
$GPGSV,4,1,13,01,40,168,32,07,54,320,30,08,54,009,29,09,28,233,25,1*61,1621219002697
$GPGSV,4,2,13,16,16,075,22,21,59,133,34,27,24,035,27,30,16,319,21,1*67,1621219002702
$GPGSV,4,3,13,04,21,195,,14,02,291,,17,04,233,,22,07,150,,1*65,1621219002754
$GPGSV,4,4,13,26,01,095,,1*5F,1621219002755
$GLGSV,2,1,06,73,37,347,27,80,52,064,25,82,25,025,,79,12,115,,1*70,1621219002756
$GLGSV,2,2,06,84,39,203,,71,02,267,,1*7E,1621219002756
$GAGSV,2,1,07,01,40,334,,13,35,046,,19,18,216,,21,49,050,,7*7F,1621219002757
$GAGSV,2,2,07,26,68,137,,27,13,097,,33,28,195,,7*45,1621219002757
$PQGSV,1,1,03,195,64,063,29,193,10,156,,194,62,067,,0*70,1621219002757
$GBGSV,4,1,16,07,56,009,21,08,35,157,24,13,21,178,17,27,71,025,29,0*76,1621219002757
$GBGSV,4,2,16,30,49,227,22,01,47,122,,02,45,233,,03,61,188,,0*78,1621219002757
$GBGSV,4,3,16,04,33,109,,05,22,253,,06,34,188,,09,49,219,,0*74,1621219002757
$GBGSV,4,4,16,10,49,324,,16,36,194,,20,00,000,,23,03,126,,0*72,1621219002758
$GNGSA,A,3,01,07,08,09,16,21,27,,,,,,1.3,1.0,0.9,1*3D,1621219002759
$GNGSA,A,2,73,80,,,,,,,,,,,1.3,1.0,0.9,2*35,1621219002762
$GNGSA,A,2,27,30,,,,,,,,,,,1.3,1.0,0.9,5*38,1621219002762
$GNVTG,,T,,M,0.0,N,0.0,K,A*3D,1621219002762
$GNGGA,023313.00,2218.070266,N,11410.741316,E,1,11,1.0,9.6,M,-1.3,M,,*6C,1621219002763
$GNRMC,023313.00,A,2218.070266,N,11410.741316,E,0.0,,170521,2.2,W,A,V*62,1621219002763
$GPGSV,4,1,13,01,40,168,33,07,54,320,30,08,54,009,32,09,28,233,25,1*6A,1621219003699
$GPGSV,4,2,13,16,16,075,22,21,59,133,34,27,24,035,33,30,16,319,23,1*60,1621219003706
$GPGSV,4,3,13,04,21,195,,14,02,291,,17,04,233,,22,07,150,,1*65,1621219003706
$GPGSV,4,4,13,26,01,095,,1*5F,1621219003707
$GLGSV,2,1,07,82,25,025,20,73,37,347,19,80,52,064,23,79,12,115,,1*78,1621219003707
$GLGSV,2,2,07,84,39,203,,83,74,029,,71,02,267,,1*4C,1621219003707
$GAGSV,2,1,07,01,40,334,,13,35,046,,19,18,216,,21,49,050,,7*7F,1621219003707
$GAGSV,2,2,07,26,68,137,,27,13,097,,33,28,195,,7*45,1621219003707
$PQGSV,1,1,03,195,64,063,26,193,10,156,,194,62,067,,0*7F,1621219003707
$GBGSV,4,1,16,07,56,009,18,08,35,157,24,13,21,178,17,27,71,025,29,0*7C,1621219003708
$GBGSV,4,2,16,30,49,227,22,01,47,122,,02,45,233,,03,61,188,,0*78,1621219003709
$GBGSV,4,3,16,04,33,109,,05,22,253,,06,34,188,,09,49,219,,0*74,1621219003709
$GBGSV,4,4,16,10,49,324,,16,36,194,,20,00,000,,23,03,126,,0*72,1621219003709
$GNGSA,A,3,01,07,08,09,16,21,27,,,,,,1.3,0.9,0.8,1*34,1621219003714
$GNGSA,A,2,73,80,82,,,,,,,,,,1.3,0.9,0.8,2*36,1621219003733
$GNGSA,A,2,27,30,,,,,,,,,,,1.3,0.9,0.8,5*31,1621219003734
$GNVTG,150.0,T,150.0,M,8.0,N,14.8,K,A*08,1621219003734
$GNGGA,023314.00,2218.064198,N,11410.744663,E,1,12,0.9,12.7,M,-1.3,M,,*5E,1621219003735
$GNRMC,023314.00,A,2218.064198,N,11410.744663,E,8.0,150.0,170521,2.2,W,A,V*42,1621219003735
$GPGSV,4,1,13,01,40,168,34,07,54,320,31,08,54,009,32,09,28,233,20,1*69,1621219004694
$GPGSV,4,2,13,16,16,075,22,21,59,133,34,27,24,035,30,30,16,319,24,1*64,1621219004695
$GPGSV,4,3,13,04,21,195,,14,02,291,,17,04,233,,22,07,150,,1*65,1621219004695
$GPGSV,4,4,13,26,01,095,,1*5F,1621219004695
$GLGSV,2,1,07,82,25,025,24,73,37,347,19,80,52,064,26,83,74,029,23,1*73,1621219004695
$GLGSV,2,2,07,79,12,115,,84,39,203,,71,02,267,,1*47,1621219004703
$GAGSV,2,1,07,33,28,195,25,01,40,334,,13,35,046,,19,18,216,,7*74,1621219004704
$GAGSV,2,2,07,21,49,050,,26,68,137,,27,13,097,,7*49,1621219004706
$PQGSV,1,1,03,195,64,063,28,193,10,156,,194,62,067,,0*71,1621219004708
$GBGSV,4,1,16,07,56,009,26,08,35,157,24,13,21,178,17,27,71,025,30,0*79,1621219004708
$GBGSV,4,2,16,30,49,227,22,01,47,122,,02,45,233,,03,61,188,,0*78,1621219004710
$GBGSV,4,3,16,04,33,109,,05,22,253,,06,34,188,,09,49,219,,0*74,1621219004711
$GBGSV,4,4,16,10,49,324,,16,36,194,,20,00,000,,23,03,126,,0*72,1621219004711
$GNGSA,A,3,01,07,08,09,16,21,27,,,,,,1.3,0.9,0.8,1*34,1621219004713
$GNGSA,A,2,73,80,82,,,,,,,,,,1.3,0.9,0.8,2*36,1621219004715
$GNGSA,A,2,27,30,,,,,,,,,,,1.3,0.9,0.8,5*31,1621219004715
$GNVTG,146.2,T,146.2,M,11.4,N,21.1,K,A*3B,1621219004717
$GNGGA,023315.00,2218.058074,N,11410.749716,E,1,12,0.9,14.2,M,-1.2,M,,*5F,1621219004717
$GNRMC,023315.00,A,2218.058074,N,11410.749716,E,11.4,146.2,170521,2.2,W,A,V*78,1621219004717
$GPGSV,4,1,13,01,40,168,28,07,54,320,30,08,54,009,34,09,28,233,20,1*63,1621219005705
$GPGSV,4,2,13,16,16,075,22,21,59,133,37,27,24,035,33,30,16,319,24,1*64,1621219005709
$GPGSV,4,3,13,04,21,195,,14,02,291,,17,04,233,,22,07,150,,1*65,1621219005710
$GPGSV,4,4,13,26,01,095,,1*5F,1621219005711
$GLGSV,2,1,07,82,25,025,31,73,37,347,19,80,52,064,25,83,74,029,22,1*75,1621219005712
$GLGSV,2,2,07,79,12,115,,84,39,203,,71,02,267,,1*47,1621219005712
$GAGSV,2,1,07,33,28,195,25,01,40,334,,13,35,046,,19,18,216,,7*74,1621219005714
$GAGSV,2,2,07,21,49,050,,26,68,137,,27,13,097,,7*49,1621219005715
$PQGSV,1,1,03,195,64,063,28,193,10,156,,194,62,067,,0*71,1621219005715
$GBGSV,4,1,16,07,56,009,26,08,35,157,24,27,71,025,29,30,49,227,22,0*71,1621219005716
$GBGSV,4,2,16,01,47,122,,02,45,233,,03,61,188,,04,33,109,,0*7D,1621219005716
$GBGSV,4,3,16,05,22,253,,06,34,188,,09,49,219,,10,49,324,,0*71,1621219005716
$GBGSV,4,4,16,13,21,178,,16,36,194,,20,00,000,,23,03,126,,0*74,1621219005717
$GNGSA,A,3,01,07,08,09,16,21,27,,,,,,1.3,1.0,0.8,1*3C,1621219005719
$GNGSA,A,2,73,80,82,,,,,,,,,,1.3,1.0,0.8,2*3E,1621219005720
$GNGSA,A,2,27,,,,,,,,,,,,1.3,1.0,0.8,5*3A,1621219005720
$GNVTG,147.0,T,147.0,M,12.0,N,22.1,K,A*3F,1621219005721
$GNGGA,023316.00,2218.054509,N,11410.751482,E,1,11,1.0,14.7,M,-1.2,M,,*56,1621219005722
$GNRMC,023316.00,A,2218.054509,N,11410.751482,E,12.0,147.0,170521,2.2,W,A,V*7B,1621219005723
$GPGSV,4,1,13,01,40,168,27,07,54,320,28,08,54,009,30,09,28,233,22,1*63,1621219006703
$GPGSV,4,2,13,16,16,075,22,21,59,133,38,27,24,035,36,30,16,319,24,1*6E,1621219006704
$GPGSV,4,3,13,04,21,195,,14,02,291,,17,04,233,,22,07,150,,1*65,1621219006704
$GPGSV,4,4,13,26,01,095,,1*5F,1621219006705
$GLGSV,2,1,07,82,25,025,33,73,37,347,20,80,52,064,25,83,74,029,21,1*7E,1621219006705
$GLGSV,2,2,07,79,12,115,,84,39,203,,71,02,267,,1*47,1621219006705
$GAGSV,2,1,07,33,28,195,25,01,40,334,,13,35,046,,19,18,216,,7*74,1621219006706
$GAGSV,2,2,07,21,49,050,,26,68,137,,27,13,097,,7*49,1621219006708
$PQGSV,1,1,03,195,64,063,24,193,10,156,,194,62,067,,0*7D,1621219006708
$GBGSV,4,1,16,07,56,009,24,08,35,157,24,27,71,025,31,30,49,227,18,0*73,1621219006709
$GBGSV,4,2,16,01,47,122,,02,45,233,,03,61,188,,04,33,109,,0*7D,1621219006709
$GBGSV,4,3,16,05,22,253,,06,34,188,,09,49,219,,10,49,324,,0*71,1621219006709
$GBGSV,4,4,16,13,21,178,,16,36,194,,20,00,000,,23,03,126,,0*74,1621219006710
$GNGSA,A,3,01,07,08,09,21,27,,,,,,,1.4,1.1,0.9,1*3C,1621219006715
$GNGSA,A,2,73,80,82,,,,,,,,,,1.4,1.1,0.9,2*39,1621219006718
$GNGSA,A,2,27,30,,,,,,,,,,,1.4,1.1,0.9,5*3E,1621219006719
$GNVTG,149.8,T,149.8,M,13.1,N,24.3,K,A*3B,1621219006722
$GNGGA,023317.00,2218.050492,N,11410.754246,E,1,11,1.1,17.8,M,-1.2,M,,*56,1621219006723
$GNRMC,023317.00,A,2218.050492,N,11410.754246,E,13.1,149.8,170521,2.2,W,A,V*70,1621219006724
$GPGSV,4,1,13,01,40,168,27,07,54,320,30,08,54,009,31,09,28,233,28,1*61,1621219007707
$GPGSV,4,2,13,16,16,075,22,21,59,133,36,27,24,035,30,30,16,319,24,1*66,1621219007709
$GPGSV,4,3,13,04,21,195,,14,02,291,,17,04,233,,22,07,150,,1*65,1621219007710
$GPGSV,4,4,13,26,01,095,,1*5F,1621219007711
$GLGSV,2,1,07,82,25,025,28,73,37,347,25,80,52,064,25,83,74,029,20,1*70,1621219007713
$GLGSV,2,2,07,79,12,115,,84,39,203,,71,02,267,,1*47,1621219007715
$GAGSV,2,1,07,33,28,195,25,01,40,334,,13,35,046,,19,18,216,,7*74,1621219007715
$GAGSV,2,2,07,21,49,050,,26,68,137,,27,13,097,,7*49,1621219007720
$PQGSV,1,1,03,195,64,063,24,193,10,156,,194,62,067,,0*7D,1621219007721
$GBGSV,4,1,16,07,56,009,25,08,35,157,24,27,71,025,30,30,49,227,26,0*7E,1621219007721
$GBGSV,4,2,16,01,47,122,,02,45,233,,03,61,188,,04,33,109,,0*7D,1621219007722
$GBGSV,4,3,16,05,22,253,,06,34,188,,09,49,219,,10,49,324,,0*71,1621219007722
$GBGSV,4,4,16,13,21,178,,16,36,194,,20,00,000,,23,03,126,,0*74,1621219007724
$GNGSA,A,3,01,07,08,09,21,27,,,,,,,1.4,1.1,0.9,1*3C,1621219007726
$GNGSA,A,2,73,80,82,,,,,,,,,,1.4,1.1,0.9,2*39,1621219007726
$GNGSA,A,2,27,30,,,,,,,,,,,1.4,1.1,0.9,5*3E,1621219007726
$GNVTG,150.2,T,150.2,M,14.4,N,26.6,K,A*3E,1621219007727
$GNGGA,023318.00,2218.047312,N,11410.755997,E,1,11,1.1,17.5,M,-1.2,M,,*5B,1621219007727
$GNRMC,023318.00,A,2218.047312,N,11410.755997,E,14.4,150.2,170521,2.2,W,A,V*70,1621219007727
$GPGSV,4,1,13,01,40,168,21,07,54,320,32,08,54,009,38,09,28,233,30,1*65,1621219008692
$GPGSV,4,2,13,16,16,075,22,21,59,133,36,27,24,035,31,30,16,319,24,1*67,1621219008693
$GPGSV,4,3,13,04,21,195,,14,02,291,,17,04,233,,22,07,150,,1*65,1621219008693
$GPGSV,4,4,13,26,01,095,,1*5F,1621219008693
$GLGSV,2,1,07,82,25,025,33,73,37,347,29,80,52,064,25,83,74,029,20,1*76,1621219008693
$GLGSV,2,2,07,79,12,115,,84,39,203,,71,02,267,,1*47,1621219008694
$GAGSV,2,1,07,33,28,195,25,01,40,334,,13,35,046,,19,18,216,,7*74,1621219008694
$GAGSV,2,2,07,21,49,050,,26,68,137,,27,13,097,,7*49,1621219008694
$PQGSV,1,1,03,195,64,063,24,193,10,156,,194,62,067,,0*7D,1621219008694
$GBGSV,4,1,16,07,56,009,30,08,35,157,24,27,71,025,29,30,49,227,26,0*72,1621219008694
$GBGSV,4,2,16,01,47,122,,02,45,233,,03,61,188,,04,33,109,,0*7D,1621219008695
$GBGSV,4,3,16,05,22,253,,06,34,188,,09,49,219,,10,49,324,,0*71,1621219008697
$GBGSV,4,4,16,13,21,178,,16,36,194,,20,00,000,,23,03,126,,0*74,1621219008698
$GNGSA,A,3,01,07,08,09,21,27,,,,,,,1.4,1.1,0.9,1*3C,1621219008703
$GNGSA,A,2,73,80,82,,,,,,,,,,1.4,1.1,0.9,2*39,1621219008704
$GNGSA,A,2,27,30,,,,,,,,,,,1.4,1.1,0.9,5*3E,1621219008712
$GNVTG,143.7,T,143.7,M,16.3,N,30.3,K,A*39,1621219008713
$GNGGA,023319.00,2218.042837,N,11410.758820,E,1,11,1.1,17.9,M,-1.2,M,,*5F,1621219008716
$GNRMC,023319.00,A,2218.042837,N,11410.758820,E,16.3,143.7,170521,2.2,W,A,V*7A,1621219008717
$GPGSV,4,1,13,01,40,168,28,07,54,320,32,08,54,009,31,09,28,233,32,1*67,1621219009699
$GPGSV,4,2,13,16,16,075,22,21,59,133,37,27,24,035,27,30,16,319,24,1*61,1621219009700
$GPGSV,4,3,13,04,21,195,,14,02,291,,17,04,233,,22,07,150,,1*65,1621219009701
$GPGSV,4,4,13,26,01,095,,1*5F,1621219009701
$GLGSV,2,1,07,82,25,025,33,73,37,347,36,80,52,064,25,83,74,029,20,1*78,1621219009702
$GLGSV,2,2,07,79,12,115,,84,39,203,,71,02,267,,1*47,1621219009702
$GAGSV,2,1,07,33,28,195,25,01,40,334,,13,35,046,,19,18,216,,7*74,1621219009702
$GAGSV,2,2,07,21,49,050,,26,68,137,,27,13,097,,7*49,1621219009704
$PQGSV,1,1,03,195,64,063,24,193,10,156,,194,62,067,,0*7D,1621219009705
$GBGSV,4,1,16,07,56,009,25,08,35,157,24,27,71,025,29,30,49,227,30,0*71,1621219009707
$GBGSV,4,2,16,01,47,122,,02,45,233,,03,61,188,,04,33,109,,0*7D,1621219009707
$GBGSV,4,3,16,05,22,253,,06,34,188,,09,49,219,,10,49,324,,0*71,1621219009708
$GBGSV,4,4,16,13,21,178,,16,36,194,,20,00,000,,23,03,126,,0*74,1621219009716
$GNGSA,A,3,01,07,08,09,21,27,,,,,,,1.4,1.1,0.9,1*3C,1621219009718
$GNGSA,A,2,73,80,82,,,,,,,,,,1.4,1.1,0.9,2*39,1621219009718
$GNGSA,A,2,27,30,,,,,,,,,,,1.4,1.1,0.9,5*3E,1621219009719
$GNVTG,139.8,T,139.8,M,17.6,N,32.5,K,A*39,1621219009719
$GNGGA,023320.00,2218.039265,N,11410.763739,E,1,11,1.1,19.0,M,-1.2,M,,*5C,1621219009719
$GNRMC,023320.00,A,2218.039265,N,11410.763739,E,17.6,139.8,170521,2.2,W,A,V*78,1621219009719
$GPGSV,4,1,13,01,40,168,30,07,54,320,34,08,54,009,25,09,28,233,31,1*6E,1621219010700
$GPGSV,4,2,13,16,16,075,22,21,59,133,36,27,24,035,24,30,16,319,24,1*63,1621219010706
$GPGSV,4,3,13,04,21,195,,14,02,291,,17,04,233,,22,07,150,,1*65,1621219010709
$GPGSV,4,4,13,26,01,095,,1*5F,1621219010710
$GLGSV,2,1,07,82,25,025,33,73,37,347,27,80,52,064,19,79,12,115,21,1*7D,1621219010710
$GLGSV,2,2,07,83,74,029,20,84,39,203,,71,02,267,,1*4E,1621219010712
$GAGSV,2,1,07,33,28,195,25,01,40,334,,13,35,046,,19,18,216,,7*74,1621219010712
$GAGSV,2,2,07,21,49,050,,26,68,137,,27,13,097,,7*49,1621219010713
$PQGSV,1,1,03,195,64,063,20,193,10,156,,194,62,067,,0*79,1621219010713
$GBGSV,4,1,16,07,56,009,23,08,35,157,24,27,71,025,29,30,49,227,26,0*70,1621219010713
$GBGSV,4,2,16,01,47,122,,02,45,233,,03,61,188,,04,33,109,,0*7D,1621219010714
$GBGSV,4,3,16,05,22,253,,06,34,188,,09,49,219,,10,49,324,,0*71,1621219010714
$GBGSV,4,4,16,13,21,178,,16,36,194,,20,00,000,,23,03,126,,0*74,1621219010714
$GNGSA,A,3,01,07,08,09,21,27,,,,,,,1.2,0.9,0.8,1*32,1621219010717
$GNGSA,A,3,73,79,80,82,,,,,,,,,1.2,0.9,0.8,2*38,1621219010717
$GNGSA,A,2,27,30,,,,,,,,,,,1.2,0.9,0.8,5*30,1621219010724
$GNVTG,139.4,T,139.4,M,18.0,N,33.3,K,A*37,1621219010725
$GNGGA,023321.00,2218.035665,N,11410.768260,E,1,12,0.9,20.1,M,-1.2,M,,*56,1621219010736
$GNRMC,023321.00,A,2218.035665,N,11410.768260,E,18.0,139.4,170521,2.2,W,A,V*76,1621219010736
$GPGSV,4,1,13,01,40,168,26,07,54,320,31,08,54,009,26,09,28,233,29,1*66,1621219011711
$GPGSV,4,2,13,16,16,075,22,21,59,133,35,27,24,035,24,30,16,319,21,1*65,1621219011720
$GPGSV,4,3,13,04,21,195,,14,02,291,,17,04,233,,22,07,150,,1*65,1621219011722
$GPGSV,4,4,13,26,01,095,,1*5F,1621219011723
$GLGSV,2,1,07,82,25,025,33,73,37,347,27,80,52,064,30,79,12,115,23,1*74,1621219011727
$GLGSV,2,2,07,83,74,029,19,84,39,203,,71,02,267,,1*44,1621219011731
$GAGSV,2,1,07,33,28,195,25,01,40,334,,13,35,046,,19,18,216,,7*74,1621219011743
$GAGSV,2,2,07,21,49,050,,26,68,137,,27,13,097,,7*49,1621219011745
$PQGSV,1,1,03,195,64,063,29,193,10,156,,194,62,067,,0*70,1621219011745
$GBGSV,4,1,16,07,56,009,23,08,35,157,24,27,71,025,29,30,49,227,26,0*70,1621219011746
$GBGSV,4,2,16,01,47,122,,02,45,233,,03,61,188,,04,33,109,,0*7D,1621219011746
$GBGSV,4,3,16,05,22,253,,06,34,188,,09,49,219,,10,49,324,,0*71,1621219011746
$GBGSV,4,4,16,13,21,178,,16,36,194,,20,00,000,,23,03,126,,0*74,1621219011747
$GNGSA,A,3,01,07,08,09,21,27,,,,,,,1.2,0.9,0.8,1*32,1621219011751
$GNGSA,A,3,73,79,80,82,,,,,,,,,1.2,0.9,0.8,2*38,1621219011751
$GNGSA,A,2,27,30,,,,,,,,,,,1.2,0.9,0.8,5*30,1621219011752
$GNVTG,140.3,T,140.3,M,18.0,N,33.3,K,A*37,1621219011752
$GNGGA,023322.00,2218.031592,N,11410.771587,E,1,12,0.9,20.1,M,-1.2,M,,*5C,1621219011753
$GNRMC,023322.00,A,2218.031592,N,11410.771587,E,18.0,140.3,170521,2.2,W,A,V*75,1621219011754
$GPGSV,4,1,13,01,40,168,26,07,54,320,31,08,54,009,22,09,28,233,31,1*6B,1621219012696
$GPGSV,4,2,13,16,16,075,22,21,59,133,35,22,07,150,20,27,24,035,24,1*68,1621219012700
$GPGSV,4,3,13,30,16,319,21,04,21,195,,14,02,291,,17,04,233,,1*6A,1621219012701
$GPGSV,4,4,13,26,01,095,,1*5F,1621219012744
$GLGSV,2,1,07,82,25,025,33,73,37,347,27,80,52,064,30,79,12,115,29,1*7E,1621219012745
$GLGSV,2,2,07,83,74,029,19,84,39,203,,71,02,267,,1*44,1621219012747
$GAGSV,2,1,07,33,28,195,23,01,40,334,,13,35,046,,19,18,216,,7*72,1621219012749
$GAGSV,2,2,07,21,49,050,,26,68,137,,27,13,097,,7*49,1621219012749
$PQGSV,1,1,03,195,64,063,30,193,10,156,,194,62,067,,0*78,1621219012749
$GBGSV,4,1,16,07,56,009,23,08,35,157,24,27,71,025,29,30,49,227,29,0*7F,1621219012749
$GBGSV,4,2,16,01,47,122,,02,45,233,,03,61,188,,04,33,109,,0*7D,1621219012749
$GBGSV,4,3,16,05,22,253,,06,34,188,,09,49,219,,10,49,324,,0*71,1621219012750
$GBGSV,4,4,16,13,21,178,,16,36,194,,20,00,000,,23,03,126,,0*74,1621219012750
$GNGSA,A,3,01,07,08,09,21,27,,,,,,,1.2,0.9,0.8,1*32,1621219012752
$GNGSA,A,3,73,79,80,82,,,,,,,,,1.2,0.9,0.8,2*38,1621219012752
$GNGSA,A,2,27,30,,,,,,,,,,,1.2,0.9,0.8,5*30,1621219012752
$GNVTG,137.9,T,137.9,M,20.0,N,37.0,K,A*3B,1621219012752
$GNGGA,023323.00,2218.026450,N,11410.778232,E,1,12,0.9,13.5,M,-1.2,M,,*50,1621219012752
$GNRMC,023323.00,A,2218.026450,N,11410.778232,E,20.0,137.9,170521,2.2,W,A,V*7C,1621219012752
$GPGSV,4,1,13,01,40,168,28,07,54,320,31,08,54,009,22,09,28,233,31,1*65,1621219013697
$GPGSV,4,2,13,16,16,075,22,21,59,133,35,22,07,150,19,27,24,035,24,1*62,1621219013698
$GPGSV,4,3,13,30,16,319,21,04,21,195,,14,02,291,,17,04,233,,1*6A,1621219013698
$GPGSV,4,4,13,26,01,095,,1*5F,1621219013698
$GLGSV,2,1,07,82,25,025,33,73,37,347,27,80,52,064,34,79,12,115,24,1*77,1621219013698
$GLGSV,2,2,07,83,74,029,19,84,39,203,,71,02,267,,1*44,1621219013698
$GAGSV,2,1,07,33,28,195,23,01,40,334,,13,35,046,,19,18,216,,7*72,1621219013698
$GAGSV,2,2,07,21,49,050,,26,68,137,,27,13,097,,7*49,1621219013699
$PQGSV,1,1,03,195,64,063,28,193,10,156,,194,62,067,,0*71,1621219013699
$GBGSV,4,1,16,07,56,009,23,08,35,157,24,27,71,025,20,30,49,227,29,0*76,1621219013699
$GBGSV,4,2,16,01,47,122,,02,45,233,,03,61,188,,04,33,109,,0*7D,1621219013700
$GBGSV,4,3,16,05,22,253,,06,34,188,,09,49,219,,10,49,324,,0*71,1621219013700
$GBGSV,4,4,16,13,21,178,,16,36,194,,20,00,000,,23,03,126,,0*74,1621219013700
$GNGSA,A,3,01,07,08,09,21,27,,,,,,,1.2,0.9,0.8,1*32,1621219013704
$GNGSA,A,3,73,79,80,82,,,,,,,,,1.2,0.9,0.8,2*38,1621219013705
$GNGSA,A,2,27,30,,,,,,,,,,,1.2,0.9,0.8,5*30,1621219013708
$GNVTG,138.3,T,138.3,M,19.6,N,36.3,K,A*35,1621219013709
$GNGGA,023324.00,2218.022463,N,11410.781486,E,1,12,0.9,15.1,M,-1.2,M,,*5E,1621219013709
$GNRMC,023324.00,A,2218.022463,N,11410.781486,E,19.6,138.3,170521,2.2,W,A,V*79,1621219013709
$GPGSV,4,1,13,01,40,168,27,04,21,195,19,07,54,320,31,08,54,009,21,1*68,1621219014690
$GPGSV,4,2,13,09,28,233,25,16,16,075,22,21,59,133,35,22,07,150,21,1*6C,1621219014691
$GPGSV,4,3,13,27,24,035,25,30,16,319,18,14,02,291,,17,04,233,,1*68,1621219014691
$GPGSV,4,4,13,26,01,095,,1*5F,1621219014691
$GLGSV,2,1,07,82,23,025,33,73,37,347,20,80,52,066,29,79,11,116,24,1*78,1621219014692
$GLGSV,2,2,07,83,73,028,19,84,40,203,,71,02,265,,1*4E,1621219014692
$GAGSV,2,1,07,33,28,195,23,01,40,334,,13,35,046,,19,18,216,,7*72,1621219014692
$GAGSV,2,2,07,21,49,050,,26,68,137,,27,13,097,,7*49,1621219014692
$PQGSV,1,1,03,193,10,156,18,195,64,063,27,194,62,067,,0*77,1621219014692
$GBGSV,4,1,16,03,61,188,30,07,56,009,20,08,35,157,24,09,49,219,22,0*79,1621219014693
$GBGSV,4,2,16,16,36,194,20,27,71,025,26,30,49,227,21,01,47,122,,0*73,1621219014693
$GBGSV,4,3,16,02,45,233,,04,33,109,,05,22,253,,06,34,188,,0*7B,1621219014693
$GBGSV,4,4,16,10,49,324,,13,21,178,,20,00,000,,23,03,126,,0*73,1621219014694
$GNGSA,A,3,01,04,07,08,09,21,27,,,,,,1.2,0.9,0.8,1*36,1621219014696
$GNGSA,A,2,73,79,80,,,,,,,,,,1.2,0.9,0.8,2*33,1621219014696
$GNGSA,A,2,27,30,,,,,,,,,,,1.2,0.9,0.8,5*30,1621219014697
$GNVTG,135.8,T,135.8,M,16.7,N,30.9,K,A*37,1621219014697
$GNGGA,023325.00,2218.021527,N,11410.783574,E,1,12,0.9,15.2,M,-1.2,M,,*50,1621219014697
$GNRMC,023325.00,A,2218.021527,N,11410.783574,E,16.7,135.8,170521,2.2,W,A,V*7C,1621219014697
$GPGSV,4,1,13,01,40,168,27,04,21,195,19,07,54,320,31,08,54,009,21,1*68,1621219015711
$GPGSV,4,2,13,09,28,233,25,16,16,075,22,21,59,133,35,22,07,150,21,1*6C,1621219015712
$GPGSV,4,3,13,27,24,035,27,30,16,319,18,14,02,291,,17,04,233,,1*6A,1621219015712
$GPGSV,4,4,13,26,01,095,,1*5F,1621219015713
$GLGSV,2,1,07,82,23,025,33,73,37,347,23,80,52,066,32,79,11,116,24,1*71,1621219015714
$GLGSV,2,2,07,83,73,028,19,84,40,203,,71,02,265,,1*4E,1621219015715
$GAGSV,2,1,07,33,28,195,23,01,40,334,,13,35,046,,19,18,216,,7*72,1621219015715
$GAGSV,2,2,07,21,49,050,,26,68,137,,27,13,097,,7*49,1621219015715
$PQGSV,1,1,03,193,10,156,19,195,64,063,27,194,62,067,,0*76,1621219015716
$GBGSV,4,1,16,03,61,188,30,07,56,009,20,08,35,157,24,09,49,219,22,0*79,1621219015716
$GBGSV,4,2,16,16,36,194,19,27,71,025,29,30,49,227,21,01,47,122,,0*76,1621219015716
$GBGSV,4,3,16,02,45,233,,04,33,109,,05,22,253,,06,34,188,,0*7B,1621219015716
$GBGSV,4,4,16,10,49,324,,13,21,178,,20,00,000,,23,03,126,,0*73,1621219015718
$GNGSA,A,3,01,04,07,08,09,21,27,,,,,,1.2,0.9,0.8,1*36,1621219015722
$GNGSA,A,2,73,79,80,,,,,,,,,,1.2,0.9,0.8,2*33,1621219015723
$GNGSA,A,2,27,30,,,,,,,,,,,1.2,0.9,0.8,5*30,1621219015723
$GNVTG,136.4,T,136.4,M,18.2,N,33.8,K,A*3E,1621219015724
$GNGGA,023326.00,2218.017004,N,11410.788034,E,1,12,0.9,15.6,M,-1.2,M,,*5C,1621219015724
$GNRMC,023326.00,A,2218.017004,N,11410.788034,E,18.2,136.4,170521,2.2,W,A,V*70,1621219015724
$GPGSV,4,1,13,01,40,168,24,04,21,195,19,07,54,320,30,08,54,009,25,1*6E,1621219016715
$GPGSV,4,2,13,09,28,233,25,16,16,075,22,21,59,133,36,22,07,150,22,1*6C,1621219016716
$GPGSV,4,3,13,27,24,035,27,30,16,319,18,14,02,291,,17,04,233,,1*6A,1621219016717
$GPGSV,4,4,13,26,01,095,,1*5F,1621219016720
$GLGSV,2,1,07,82,23,025,33,73,37,347,22,80,52,066,27,79,11,116,19,1*7A,1621219016720
$GLGSV,2,2,07,83,73,028,21,84,40,203,,71,02,265,,1*45,1621219016721
$GAGSV,2,1,07,33,28,195,23,01,40,334,,13,35,046,,19,18,216,,7*72,1621219016722
$GAGSV,2,2,07,21,49,050,,26,68,137,,27,13,097,,7*49,1621219016724
$PQGSV,1,1,03,193,10,156,20,195,64,063,31,194,62,067,,0*7B,1621219016730
$GBGSV,4,1,16,03,61,188,30,07,56,009,22,08,35,157,24,09,49,219,22,0*7B,1621219016731
$GBGSV,4,2,16,16,36,194,19,27,71,025,28,30,49,227,21,01,47,122,,0*77,1621219016731
$GBGSV,4,3,16,02,45,233,,04,33,109,,05,22,253,,06,34,188,,0*7B,1621219016732
$GBGSV,4,4,16,10,49,324,,13,21,178,,20,00,000,,23,03,126,,0*73,1621219016732
$GNGSA,A,3,01,04,07,08,09,21,27,,,,,,1.2,0.9,0.8,1*36,1621219016735
$GNGSA,A,2,73,79,80,,,,,,,,,,1.2,0.9,0.8,2*33,1621219016736
$GNGSA,A,2,27,30,,,,,,,,,,,1.2,0.9,0.8,5*30,1621219016737
$GNVTG,137.8,T,137.8,M,18.0,N,33.3,K,A*37,1621219016738
$GNGGA,023327.00,2218.013305,N,11410.791125,E,1,12,0.9,16.1,M,-1.2,M,,*56,1621219016739
$GNRMC,023327.00,A,2218.013305,N,11410.791125,E,18.0,137.8,170521,2.2,W,A,V*71,1621219016740
$GPGSV,4,1,13,01,40,168,24,04,21,195,20,07,54,320,31,08,54,009,28,1*68,1621219017714
$GPGSV,4,2,13,09,28,233,24,16,16,075,22,21,59,133,34,22,07,150,31,1*6D,1621219017715
$GPGSV,4,3,13,27,24,035,21,30,16,319,18,14,02,291,,17,04,233,,1*6C,1621219017715
$GPGSV,4,4,13,26,01,095,,1*5F,1621219017716
$GLGSV,2,1,07,82,23,025,33,73,37,347,22,80,52,066,28,79,11,116,19,1*75,1621219017716
$GLGSV,2,2,07,83,73,028,21,84,40,203,,71,02,265,,1*45,1621219017717
$GAGSV,2,1,07,33,28,195,23,01,40,334,,13,35,046,,19,18,216,,7*72,1621219017717
$GAGSV,2,2,07,21,49,050,,26,68,137,,27,13,097,,7*49,1621219017717
$PQGSV,1,1,03,193,10,156,21,195,64,063,29,194,62,067,,0*73,1621219017717
$GBGSV,4,1,16,03,61,188,29,07,56,009,24,08,35,157,24,09,49,219,22,0*75,1621219017717
$GBGSV,4,2,16,16,36,194,20,27,71,025,23,30,49,227,21,01,47,122,,0*76,1621219017717
$GBGSV,4,3,16,02,45,233,,04,33,109,,05,22,253,,06,34,188,,0*7B,1621219017718
$GBGSV,4,4,16,10,49,324,,13,21,178,,20,00,000,,23,03,126,,0*73,1621219017718
$GNGSA,A,3,01,04,07,08,09,21,27,,,,,,1.2,0.9,0.8,1*36,1621219017720
$GNGSA,A,2,73,79,80,,,,,,,,,,1.2,0.9,0.8,2*33,1621219017720
$GNGSA,A,2,27,30,,,,,,,,,,,1.2,0.9,0.8,5*30,1621219017721
$GNVTG,139.5,T,139.5,M,16.9,N,31.2,K,A*33,1621219017721
$GNGGA,023328.00,2218.009559,N,11410.793839,E,1,12,0.9,16.8,M,-1.2,M,,*52,1621219017721
$GNRMC,023328.00,A,2218.009559,N,11410.793839,E,16.9,139.5,170521,2.2,W,A,V*78,1621219017721
$GPGSV,4,1,13,01,40,168,22,04,21,195,23,07,54,320,31,08,54,009,30,1*64,1621219018715
$GPGSV,4,2,13,09,28,233,23,16,16,075,22,21,59,133,33,22,07,150,28,1*65,1621219018717
$GPGSV,4,3,13,27,24,035,23,30,16,319,18,14,02,291,,17,04,233,,1*6E,1621219018719
$GPGSV,4,4,13,26,01,095,,1*5F,1621219018721
$GLGSV,2,1,08,82,23,025,33,73,37,347,22,80,52,066,28,79,11,116,22,1*72,1621219018721
$GLGSV,2,2,08,83,73,028,21,74,00,000,,84,40,203,,71,02,265,,1*79,1621219018722
$GAGSV,2,1,07,33,28,195,23,01,40,334,,13,35,046,,19,18,216,,7*72,1621219018722
$GAGSV,2,2,07,21,49,050,,26,68,137,,27,13,097,,7*49,1621219018723
$PQGSV,1,1,03,193,10,156,25,195,64,063,29,194,62,067,,0*77,1621219018723
$GBGSV,4,1,16,03,61,188,29,07,56,009,25,08,35,157,21,09,49,219,22,0*71,1621219018723
$GBGSV,4,2,16,16,36,194,20,27,71,025,29,30,49,227,21,01,47,122,,0*7C,1621219018723
$GBGSV,4,3,16,02,45,233,,04,33,109,,05,22,253,,06,34,188,,0*7B,1621219018724
$GBGSV,4,4,16,10,49,324,,13,21,178,,20,00,000,,23,03,126,,0*73,1621219018724
$GNGSA,A,3,01,04,07,08,09,21,27,,,,,,1.2,0.9,0.8,1*36,1621219018728
$GNGSA,A,2,73,79,80,,,,,,,,,,1.2,0.9,0.8,2*33,1621219018729
$GNGSA,A,2,27,30,,,,,,,,,,,1.2,0.9,0.8,5*30,1621219018730
$GNVTG,144.2,T,144.2,M,14.1,N,26.1,K,A*3C,1621219018730
$GNGGA,023329.00,2218.006407,N,11410.794425,E,1,12,0.9,17.6,M,-1.2,M,,*5F,1621219018731
$GNRMC,023329.00,A,2218.006407,N,11410.794425,E,14.1,144.2,170521,2.2,W,A,V*7D,1621219018731
$GPGSV,4,1,13,01,40,168,22,04,21,195,29,07,54,320,32,08,54,009,34,1*69,1621219019700
$GPGSV,4,2,13,09,28,233,22,16,16,075,22,21,59,133,34,22,07,150,25,1*6E,1621219019701
$GPGSV,4,3,13,27,24,035,23,30,16,319,18,14,02,291,,17,04,233,,1*6E,1621219019702
$GPGSV,4,4,13,26,01,095,,1*5F,1621219019704
$GLGSV,2,1,08,82,23,025,33,73,37,347,22,80,52,066,28,79,11,116,25,1*75,1621219019705
$GLGSV,2,2,08,83,73,028,21,74,00,000,,84,40,203,,71,02,265,,1*79,1621219019708
$GAGSV,2,1,07,33,28,195,23,01,40,334,,13,35,046,,19,18,216,,7*72,1621219019709
$GAGSV,2,2,07,21,49,050,,26,68,137,,27,13,097,,7*49,1621219019710
$PQGSV,1,1,03,193,10,156,24,195,64,063,29,194,62,067,,0*76,1621219019711
$GBGSV,4,1,16,03,61,188,29,07,56,009,27,08,35,157,21,09,49,219,28,0*79,1621219019711
$GBGSV,4,2,16,16,36,194,21,27,71,025,29,30,49,227,21,01,47,122,,0*7D,1621219019711
$GBGSV,4,3,16,02,45,233,,04,33,109,,05,22,253,,06,34,188,,0*7B,1621219019711
$GBGSV,4,4,16,10,49,324,,13,21,178,,20,00,000,,23,03,126,,0*73,1621219019712
$GNGSA,A,3,01,04,07,08,09,21,27,,,,,,1.2,0.9,0.8,1*36,1621219019722
$GNGSA,A,2,73,79,80,,,,,,,,,,1.2,0.9,0.8,2*33,1621219019723
$GNGSA,A,2,27,30,,,,,,,,,,,1.2,0.9,0.8,5*30,1621219019744
$GNVTG,131.7,T,131.7,M,8.2,N,15.1,K,A*02,1621219019745
$GNGGA,023330.00,2218.007394,N,11410.795136,E,1,12,0.9,19.0,M,-1.2,M,,*55,1621219019745
$GNRMC,023330.00,A,2218.007394,N,11410.795136,E,8.2,131.7,170521,2.2,W,A,V*46,1621219019746
$GPGSV,4,1,13,01,40,168,22,04,21,195,29,07,54,320,30,08,54,009,36,1*69,1621219020706
$GPGSV,4,2,13,09,28,233,26,16,16,075,19,21,59,133,33,22,07,150,26,1*66,1621219020710
$GPGSV,4,3,13,27,24,035,26,30,16,319,18,14,02,291,,17,04,233,,1*6B,1621219020711
$GPGSV,4,4,13,26,01,095,,1*5F,1621219020715
$GLGSV,2,1,08,82,23,025,33,73,37,347,20,80,52,066,28,79,11,116,28,1*7A,1621219020716
$GLGSV,2,2,08,83,73,028,21,74,00,000,,84,40,203,,71,02,265,,1*79,1621219020716
$GAGSV,2,1,07,33,28,195,23,01,40,334,,13,35,046,,19,18,216,,7*72,1621219020717
$GAGSV,2,2,07,21,49,050,,26,68,137,,27,13,097,,7*49,1621219020717
$PQGSV,1,1,03,193,10,156,24,195,64,063,29,194,62,067,,0*76,1621219020717
$GBGSV,4,1,16,03,61,188,26,07,56,009,30,08,35,157,21,09,49,219,31,0*78,1621219020717
$GBGSV,4,2,16,16,36,194,21,27,71,025,26,30,49,227,21,01,47,122,,0*72,1621219020719
$GBGSV,4,3,16,02,45,233,,04,33,109,,05,22,253,,06,34,188,,0*7B,1621219020719
$GBGSV,4,4,16,10,49,324,,13,21,178,,20,00,000,,23,03,126,,0*73,1621219020720
$GNGSA,A,3,01,04,07,08,09,16,21,27,,,,,1.2,0.8,0.8,1*30,1621219020729
$GNGSA,A,2,73,79,80,,,,,,,,,,1.2,0.8,0.8,2*32,1621219020730
$GNGSA,A,2,27,30,,,,,,,,,,,1.2,0.8,0.8,5*31,1621219020731
$GNVTG,125.0,T,125.0,M,6.6,N,12.2,K,A*0C,1621219020731
$GNGGA,023331.00,2218.005663,N,11410.796404,E,1,12,0.8,21.5,M,-1.2,M,,*53,1621219020731
$GNRMC,023331.00,A,2218.005663,N,11410.796404,E,6.6,125.0,170521,2.2,W,A,V*47,1621219020731
$GPGSV,4,1,13,04,21,195,31,07,54,320,30,08,54,009,36,09,28,233,22,1*6B,1621219021690
$GPGSV,4,2,13,16,16,075,25,21,59,133,34,22,07,150,26,27,24,035,29,1*65,1621219021690
$GPGSV,4,3,13,30,16,319,19,01,40,168,,14,02,291,,17,04,233,,1*61,1621219021690
$GPGSV,4,4,13,26,01,095,,1*5F,1621219021690
$GLGSV,2,1,08,82,23,025,33,73,37,347,26,80,52,066,28,79,11,116,29,1*7D,1621219021690
$GLGSV,2,2,08,83,73,028,21,74,00,000,,84,40,203,,71,02,265,,1*79,1621219021690
$GAGSV,2,1,07,33,28,195,23,01,40,334,,13,35,046,,19,18,216,,7*72,1621219021691
$GAGSV,2,2,07,21,49,050,,26,68,137,,27,13,097,,7*49,1621219021691
$PQGSV,1,1,03,193,10,156,20,195,64,063,29,194,62,067,,0*72,1621219021691
$GBGSV,4,1,16,03,61,188,26,07,56,009,31,08,35,157,21,09,49,219,32,0*7A,1621219021691
$GBGSV,4,2,16,16,36,194,21,27,71,025,26,30,49,227,25,01,47,122,,0*76,1621219021691
$GBGSV,4,3,16,02,45,233,,04,33,109,,05,22,253,,06,34,188,,0*7B,1621219021691
$GBGSV,4,4,16,10,49,324,,13,21,178,,20,00,000,,23,03,126,,0*73,1621219021691
$GNGSA,A,3,01,04,07,08,09,16,21,27,,,,,1.2,0.8,0.8,1*30,1621219021692
$GNGSA,A,2,73,79,80,,,,,,,,,,1.2,0.8,0.8,2*32,1621219021694
$GNGSA,A,2,27,30,,,,,,,,,,,1.2,0.8,0.8,5*31,1621219021695
$GNVTG,123.4,T,123.4,M,4.5,N,8.4,K,A*30,1621219021695
$GNGGA,023332.00,2218.004584,N,11410.796075,E,1,12,0.8,20.7,M,-1.2,M,,*5A,1621219021695
$GNRMC,023332.00,A,2218.004584,N,11410.796075,E,4.5,123.4,170521,2.2,W,A,V*4E,1621219021695
$GPGSV,4,1,13,04,21,195,31,07,54,320,31,08,54,009,34,09,28,233,22,1*68,1621219022699
$GPGSV,4,2,13,16,16,075,25,21,59,133,34,22,07,150,26,27,24,035,28,1*64,1621219022700
$GPGSV,4,3,13,30,16,319,19,01,40,168,,14,02,291,,17,04,233,,1*61,1621219022700
$GPGSV,4,4,13,26,01,095,,1*5F,1621219022701
$GLGSV,2,1,08,82,23,025,33,73,37,347,24,80,52,066,28,79,11,116,28,1*7E,1621219022701
$GLGSV,2,2,08,83,73,028,21,74,00,000,,84,40,203,,71,02,265,,1*79,1621219022702
$GAGSV,2,1,07,33,28,195,23,01,40,334,,13,35,046,,19,18,216,,7*72,1621219022702
$GAGSV,2,2,07,21,49,050,,26,68,137,,27,13,097,,7*49,1621219022702
$PQGSV,1,1,03,193,10,156,23,195,64,063,29,194,62,067,,0*71,1621219022703
$GBGSV,4,1,16,03,61,188,26,07,56,009,30,08,35,157,20,09,49,219,32,0*7A,1621219022704
$GBGSV,4,2,16,16,36,194,21,27,71,025,24,30,49,227,27,01,47,122,,0*76,1621219022704
$GBGSV,4,3,16,02,45,233,,04,33,109,,05,22,253,,06,34,188,,0*7B,1621219022704
$GBGSV,4,4,16,10,49,324,,13,21,178,,20,00,000,,23,03,126,,0*73,1621219022704
$GNGSA,A,3,01,04,07,08,09,16,21,27,,,,,1.2,0.8,0.8,1*30,1621219022707
$GNGSA,A,2,73,79,80,,,,,,,,,,1.2,0.8,0.8,2*32,1621219022709
$GNGSA,A,2,27,30,,,,,,,,,,,1.2,0.8,0.8,5*31,1621219022710
$GNVTG,89.1,T,89.1,M,2.1,N,3.9,K,A*34,1621219022710
$GNGGA,023333.00,2218.005341,N,11410.798383,E,1,12,0.8,15.4,M,-1.2,M,,*54,1621219022711
$GNRMC,023333.00,A,2218.005341,N,11410.798383,E,2.1,89.1,170521,2.2,W,A,V*73,1621219022711
$GPGSV,4,1,13,04,21,195,32,07,54,320,31,08,54,009,35,09,28,233,22,1*6A,1621219023690
$GPGSV,4,2,13,16,16,075,25,21,59,133,35,22,07,150,27,27,24,035,29,1*65,1621219023712
$GPGSV,4,3,13,30,16,319,19,01,40,168,,14,02,291,,17,04,233,,1*61,1621219023712
$GPGSV,4,4,13,26,01,095,,1*5F,1621219023713
$GLGSV,2,1,08,82,23,025,33,73,37,347,24,80,52,066,28,79,11,116,27,1*71,1621219023713
$GLGSV,2,2,08,83,73,028,21,74,00,000,,84,40,203,,71,02,265,,1*79,1621219023713
$GAGSV,2,1,07,33,28,195,23,01,40,334,,13,35,046,,19,18,216,,7*72,1621219023713
$GAGSV,2,2,07,21,49,050,,26,68,137,,27,13,097,,7*49,1621219023713
$PQGSV,1,1,03,193,10,156,26,195,64,063,29,194,62,067,,0*74,1621219023713
$GBGSV,4,1,16,03,61,188,26,07,56,009,30,08,35,157,20,09,49,219,32,0*7A,1621219023714
$GBGSV,4,2,16,16,36,194,20,27,71,025,23,30,49,227,28,01,47,122,,0*7F,1621219023714
$GBGSV,4,3,16,02,45,233,,04,33,109,,05,22,253,,06,34,188,,0*7B,1621219023714
$GBGSV,4,4,16,10,49,324,,13,21,178,,20,00,000,,23,03,126,,0*73,1621219023714
$GNGSA,A,3,01,04,07,08,09,16,21,27,,,,,1.2,0.8,0.8,1*30,1621219023716
$GNGSA,A,2,73,79,,,,,,,,,,,1.2,0.8,0.8,2*3A,1621219023716
$GNGSA,A,2,27,30,,,,,,,,,,,1.2,0.8,0.8,5*31,1621219023716
$GNVTG,84.2,T,84.2,M,0.5,N,0.9,K,A*31,1621219023716
$GNGGA,023334.00,2218.005058,N,11410.795969,E,1,12,0.8,15.1,M,-1.2,M,,*5E,1621219023717
$GNRMC,023334.00,A,2218.005058,N,11410.795969,E,0.5,84.2,170521,2.2,W,A,V*74,1621219023717
$GPGSV,4,1,13,04,21,195,32,07,54,320,31,08,54,009,35,09,28,233,22,1*6A,1621219024701
$GPGSV,4,2,13,16,16,075,26,21,59,133,36,22,07,150,28,27,24,035,28,1*6B,1621219024702
$GPGSV,4,3,13,30,16,319,19,01,40,168,,14,02,291,,17,04,233,,1*61,1621219024704
$GPGSV,4,4,13,26,01,095,,1*5F,1621219024713
$GLGSV,2,1,08,82,23,025,33,73,37,347,21,80,52,066,28,79,11,116,28,1*7B,1621219024713
$GLGSV,2,2,08,83,73,028,21,74,00,000,,84,40,203,,71,02,265,,1*79,1621219024714
$GAGSV,2,1,07,33,28,195,23,01,40,334,,13,35,046,,19,18,216,,7*72,1621219024715
$GAGSV,2,2,07,21,49,050,,26,68,137,,27,13,097,,7*49,1621219024716
$PQGSV,1,1,03,193,10,156,27,195,64,063,29,194,62,067,,0*75,1621219024716
$GBGSV,4,1,16,03,61,188,26,07,56,009,31,08,35,157,21,09,49,219,33,0*7B,1621219024716
$GBGSV,4,2,16,16,36,194,20,27,71,025,22,30,49,227,28,01,47,122,,0*7E,1621219024716
$GBGSV,4,3,16,02,45,233,,04,33,109,,05,22,253,,06,34,188,,0*7B,1621219024717
$GBGSV,4,4,16,10,49,324,,13,21,178,,20,00,000,,23,03,126,,0*73,1621219024717
$GNGSA,A,3,04,07,08,09,16,21,27,,,,,,1.2,0.9,0.9,1*31,1621219024718
$GNGSA,A,2,73,79,,,,,,,,,,,1.2,0.9,0.9,2*3A,1621219024719
$GNGSA,A,2,27,30,,,,,,,,,,,1.2,0.9,0.9,5*31,1621219024719
$GNVTG,,T,,M,0.0,N,0.0,K,A*3D,1621219024719
$GNGGA,023335.00,2218.005300,N,11410.793988,E,1,11,0.9,16.1,M,-1.2,M,,*59,1621219024719
$GNRMC,023335.00,A,2218.005300,N,11410.793988,E,0.0,,170521,2.2,W,A,V*67,1621219024719
$GPGSV,4,1,13,04,21,195,32,07,54,320,31,08,54,009,35,09,28,233,22,1*6A,1621219025694
$GPGSV,4,2,13,16,16,075,25,21,59,133,36,22,07,150,26,27,24,035,28,1*66,1621219025696
$GPGSV,4,3,13,30,16,319,18,01,40,168,,14,02,291,,17,04,233,,1*60,1621219025698
$GPGSV,4,4,13,26,01,095,,1*5F,1621219025699
$GLGSV,2,1,08,82,23,025,33,73,37,347,21,80,52,066,28,79,11,116,29,1*7A,1621219025700
$GLGSV,2,2,08,83,73,028,21,74,00,000,,84,40,203,,71,02,265,,1*79,1621219025706
$GAGSV,2,1,07,33,28,195,23,01,40,334,,13,35,046,,19,18,216,,7*72,1621219025706
$GAGSV,2,2,07,21,49,050,,26,68,137,,27,13,097,,7*49,1621219025708
$PQGSV,1,1,03,193,10,156,26,195,64,063,29,194,62,067,,0*74,1621219025709
$GBGSV,4,1,16,03,61,188,26,07,56,009,30,08,35,157,21,09,49,219,33,0*7A,1621219025710
$GBGSV,4,2,16,16,36,194,20,27,71,025,22,30,49,227,27,01,47,122,,0*71,1621219025710
$GBGSV,4,3,16,02,45,233,,04,33,109,,05,22,253,,06,34,188,,0*7B,1621219025712
$GBGSV,4,4,16,10,49,324,,13,21,178,,20,00,000,,23,03,126,,0*73,1621219025712
$GNGSA,A,3,04,07,08,09,16,21,27,,,,,,1.2,0.9,0.9,1*31,1621219025716
$GNGSA,A,2,73,79,,,,,,,,,,,1.2,0.9,0.9,2*3A,1621219025716
$GNGSA,A,2,27,30,,,,,,,,,,,1.2,0.9,0.9,5*31,1621219025717
$GNVTG,,T,,M,0.0,N,0.0,K,A*3D,1621219025717
$GNGGA,023336.00,2218.005225,N,11410.793003,E,1,11,0.9,16.7,M,-1.2,M,,*50,1621219025717
$GNRMC,023336.00,A,2218.005225,N,11410.793003,E,0.0,,170521,2.2,W,A,V*68,1621219025717
$GPGSV,4,1,13,04,21,195,32,07,54,320,31,08,54,009,34,09,28,233,22,1*6B,1621219026695
$GPGSV,4,2,13,16,16,075,25,21,59,133,36,22,07,150,28,27,24,035,28,1*68,1621219026699
$GPGSV,4,3,13,30,16,319,18,01,40,168,,14,02,291,,17,04,233,,1*60,1621219026700
$GPGSV,4,4,13,26,01,095,,1*5F,1621219026700
$GLGSV,2,1,08,82,23,025,33,73,37,347,23,80,52,066,28,79,11,116,30,1*70,1621219026701
$GLGSV,2,2,08,83,73,028,21,74,00,000,,84,40,203,,71,02,265,,1*79,1621219026701
$GAGSV,2,1,07,33,28,195,23,01,40,334,,13,35,046,,19,18,216,,7*72,1621219026702
$GAGSV,2,2,07,21,49,050,,26,68,137,,27,13,097,,7*49,1621219026702
$PQGSV,1,1,03,193,10,156,27,195,64,063,18,194,62,067,,0*77,1621219026702
$GBGSV,4,1,16,03,61,188,26,07,56,009,30,08,35,157,21,09,49,219,33,0*7A,1621219026703
$GBGSV,4,2,16,16,36,194,21,27,71,025,21,28,17,036,19,30,49,227,27,0*71,1621219026703
$GBGSV,4,3,16,01,47,122,,02,45,233,,04,33,109,,05,22,253,,0*78,1621219026704
$GBGSV,4,4,16,06,34,188,,10,49,324,,13,21,178,,20,00,000,,0*74,1621219026705
$GNGSA,A,3,04,07,08,09,16,21,27,,,,,,1.2,0.9,0.9,1*31,1621219026707
$GNGSA,A,2,73,79,,,,,,,,,,,1.2,0.9,0.9,2*3A,1621219026708
$GNGSA,A,2,27,30,,,,,,,,,,,1.2,0.9,0.9,5*31,1621219026708
$GNVTG,,T,,M,0.0,N,0.0,K,A*3D,1621219026709
$GNGGA,023337.00,2218.005178,N,11410.792189,E,1,11,0.9,17.3,M,-1.2,M,,*5D,1621219026709
$GNRMC,023337.00,A,2218.005178,N,11410.792189,E,0.0,,170521,2.2,W,A,V*60,1621219026710
$GPGSV,4,1,13,01,40,168,24,04,21,195,31,07,54,320,31,08,54,009,33,1*62,1621219027698
$GPGSV,4,2,13,09,28,233,22,16,16,075,25,21,59,133,35,22,07,150,27,1*6A,1621219027700
$GPGSV,4,3,13,27,24,035,26,30,16,319,18,14,02,291,,17,04,233,,1*6B,1621219027701
$GPGSV,4,4,13,26,01,095,,1*5F,1621219027701
$GLGSV,2,1,08,82,23,025,33,73,37,347,23,80,52,066,28,79,11,116,29,1*78,1621219027707
$GLGSV,2,2,08,83,73,028,21,74,00,000,,84,40,203,,71,02,265,,1*79,1621219027710
$GAGSV,2,1,07,33,28,195,23,01,40,334,,13,35,046,,19,18,216,,7*72,1621219027723
$GAGSV,2,2,07,21,49,050,,26,68,137,,27,13,097,,7*49,1621219027733
