$GPGSV,4,1,13,01,40,168,24,07,54,320,14,08,54,009,20,09,28,233,35,1*68,1621218691980
$GPGSV,4,2,13,16,16,075,21,21,59,133,29,27,24,035,17,04,21,195,,1*6D,1621218691980
$GPGSV,4,3,13,14,02,291,,17,04,233,,22,07,150,,26,02,094,,1*64,1621218691980
$GPGSV,4,4,13,30,16,319,,1*59,1621218691980
$GPGSV,1,1,04,01,40,168,17,08,54,009,26,09,28,233,29,27,24,035,13,8*6C,1621218691980
$GLGSV,2,1,07,73,37,347,15,82,24,025,,80,52,066,,79,12,116,,1*77,1621218691980
$GLGSV,2,2,07,84,38,203,,83,74,029,,71,02,267,,1*4D,1621218691980
$GAGSV,3,1,09,01,40,334,24,13,35,046,18,26,68,137,25,27,13,097,15,7*75,1621218691980
$GAGSV,3,2,09,04,15,274,,19,18,216,,21,49,050,,31,00,000,,7*77,1621218691980
$GAGSV,3,3,09,33,28,195,,7*4D,1621218691980
$GAGSV,1,1,02,01,40,334,21,26,68,137,20,1*78,1621218691980
$GQGSV,1,1,03,-189,64,063,18,-191,10,156,,-190,61,068,,1*4E,1621218691980
$GQGSV,1,1,01,-190,61,068,24,8*47,1621218691980
$GBGSV,4,1,16,27,71,025,26,01,47,122,,02,45,233,,03,61,188,,1*73,1621218691980
$GBGSV,4,2,16,04,33,109,,05,22,253,,06,34,188,,07,56,009,,1*77,1621218691980
$GBGSV,4,3,16,08,35,157,,09,49,219,,10,49,324,,13,21,178,,1*73,1621218691980
$GBGSV,4,4,16,16,37,194,,20,00,000,,23,03,126,,28,17,036,,1*72,1621218691980
$GNGSA,A,3,01,09,21,,,,,,,,,,1.3,1.0,0.8,1*31,1621218691991
$GNGSA,A,3,01,26,,,,,,,,,,,1.3,1.0,0.8,3*3D,1621218691991
$GNGSA,A,3,27,,,,,,,,,,,,1.3,1.0,0.8,4*3A,1621218691991
$GNGSA,A,3,02,,,,,,,,,,,,1.3,1.0,0.8,5*3C,1621218691991
$GNVTG,,T,,M,0.0,N,0.0,K,A*3D,1621218691991
$GNDTM,P90,,0000.000018,S,00000.000001,W,0.993,W84*47,1621218691991
$GNRMC,023255.00,A,2218.072629,N,11410.739589,E,0.0,,170521,2.2,W,A,V*63,1621218691991
$GNGNS,023255.00,2218.072629,N,11410.739589,E,ANAAAN,07,1.0,10.9,-1.3,,,V*0D,1621218691991
$GNGGA,023255.00,2218.072629,N,11410.739589,E,1,07,1.0,10.9,M,-1.3,M,,*5D,1621218691991
$GPGSV,4,1,13,01,40,168,24,07,54,320,14,08,54,009,17,09,28,233,34,1*6D,1621218692977
$GPGSV,4,2,13,16,16,075,21,21,59,133,27,27,24,035,17,04,21,195,,1*63,1621218692977
$GPGSV,4,3,13,14,02,291,,17,04,233,,22,07,150,,26,02,094,,1*64,1621218692977
$GPGSV,4,4,13,30,16,319,,1*59,1621218692977
$GPGSV,1,1,04,01,40,168,17,08,54,009,26,09,28,233,28,27,24,035,13,8*6D,1621218692977
$GLGSV,2,1,07,73,37,347,15,82,24,025,,80,52,066,,79,12,116,,1*77,1621218692977
$GLGSV,2,2,07,84,38,203,,83,74,029,,71,02,267,,1*4D,1621218692977
$GAGSV,3,1,09,01,40,334,23,13,35,046,18,26,68,137,24,27,13,097,15,7*73,1621218692977
$GAGSV,3,2,09,04,15,274,,19,18,216,,21,49,050,,31,00,000,,7*77,1621218692977
$GAGSV,3,3,09,33,28,195,,7*4D,1621218692977
$GAGSV,1,1,02,01,40,334,21,26,68,137,21,1*79,1621218692977
$GQGSV,1,1,03,-189,64,063,17,-191,10,156,,-190,61,068,,1*41,1621218692977
$GQGSV,1,1,01,-190,61,068,24,8*47,1621218692977
$GBGSV,4,1,16,27,71,025,27,01,47,122,,02,45,233,,03,61,188,,1*72,1621218692977
$GBGSV,4,2,16,04,33,109,,05,22,253,,06,34,188,,07,56,009,,1*77,1621218692977
$GBGSV,4,3,16,08,35,157,,09,49,219,,10,49,324,,13,21,178,,1*73,1621218692977
$GBGSV,4,4,16,16,37,194,,20,00,000,,23,03,126,,28,17,036,,1*72,1621218692977
$GNGSA,A,3,01,08,09,16,21,,,,,,,,1.3,1.0,0.8,1*3E,1621218692990
$GNGSA,A,3,01,26,,,,,,,,,,,1.3,1.0,0.8,3*3D,1621218692990
$GNGSA,A,3,27,,,,,,,,,,,,1.3,1.0,0.8,4*3A,1621218692990
$GNGSA,A,3,02,03,,,,,,,,,,,1.3,1.0,0.8,5*3F,1621218692990
$GNVTG,,T,,M,0.0,N,0.0,K,A*3D,1621218692990
$GNDTM,P90,,0000.000018,S,00000.000001,W,0.993,W84*47,1621218692990
$GNRMC,023256.00,A,2218.072629,N,11410.739589,E,0.0,,170521,2.2,W,A,V*60,1621218692990
$GNGNS,023256.00,2218.072629,N,11410.739589,E,ANAAAN,10,1.0,10.9,-1.3,,,V*08,1621218692990
$GNGGA,023256.00,2218.072629,N,11410.739589,E,1,10,1.0,10.9,M,-1.3,M,,*58,1621218692990
$GPGSV,4,1,13,01,40,168,25,07,54,320,14,08,54,009,17,09,28,233,34,1*6C,1621218693980
$GPGSV,4,2,13,16,16,075,22,21,59,133,28,27,24,035,17,04,21,195,,1*6F,1621218693980
$GPGSV,4,3,13,14,02,291,,17,04,233,,22,07,150,,26,02,094,,1*64,1621218693980
$GPGSV,4,4,13,30,16,319,,1*59,1621218693980
$GPGSV,1,1,04,01,40,168,17,08,54,009,26,09,28,233,28,27,24,035,16,8*68,1621218693980
$GLGSV,2,1,07,73,37,347,15,82,24,025,,80,52,066,,79,12,116,,1*77,1621218693980
$GLGSV,2,2,07,84,38,203,,83,74,029,,71,02,267,,1*4D,1621218693980
$GAGSV,3,1,09,01,40,334,26,13,35,046,18,26,68,137,25,27,13,097,15,7*77,1621218693980
$GAGSV,3,2,09,04,15,274,,19,18,216,,21,49,050,,31,00,000,,7*77,1621218693980
$GAGSV,3,3,09,33,28,195,,7*4D,1621218693980
$GAGSV,1,1,02,01,40,334,21,26,68,137,21,1*79,1621218693980
$GQGSV,1,1,03,-189,64,063,17,-191,10,156,,-190,61,068,,1*41,1621218693980
$GQGSV,1,1,01,-190,61,068,24,8*47,1621218693980
$GBGSV,4,1,16,27,71,025,27,01,47,122,,02,45,233,,03,61,188,,1*72,1621218693980
$GBGSV,4,2,16,04,33,109,,05,22,253,,06,34,188,,07,56,009,,1*77,1621218693980
$GBGSV,4,3,16,08,35,157,,09,49,219,,10,49,324,,13,21,178,,1*73,1621218693980
$GBGSV,4,4,16,16,37,194,,20,00,000,,23,03,126,,28,17,036,,1*72,1621218693980
$GNGSA,A,3,01,09,16,21,,,,,,,,,1.3,1.0,0.8,1*36,1621218693991
$GNGSA,A,3,01,26,,,,,,,,,,,1.3,1.0,0.8,3*3D,1621218693991
$GNGSA,A,3,27,,,,,,,,,,,,1.3,1.0,0.8,4*3A,1621218693991
$GNGSA,A,3,02,,,,,,,,,,,,1.3,1.0,0.8,5*3C,1621218693991
$GNVTG,,T,,M,0.0,N,0.0,K,A*3D,1621218693991
$GNDTM,P90,,0000.000018,S,00000.000001,W,0.993,W84*47,1621218693991
$GNRMC,023257.00,A,2218.072629,N,11410.739589,E,0.0,,170521,2.2,W,A,V*61,1621218693991
$GNGNS,023257.00,2218.072629,N,11410.739589,E,ANAAAN,08,1.0,10.9,-1.3,,,V*00,1621218693991
$GNGGA,023257.00,2218.072629,N,11410.739589,E,1,08,1.0,10.9,M,-1.3,M,,*50,1621218693991
$GPGSV,4,1,13,01,40,168,25,07,54,320,14,08,54,009,17,09,28,233,34,1*6C,1621218694980
$GPGSV,4,2,13,16,16,075,23,21,59,133,27,27,24,035,17,04,21,195,,1*61,1621218694980
$GPGSV,4,3,13,14,02,291,,17,04,233,,22,07,150,,26,02,094,,1*64,1621218694980
$GPGSV,4,4,13,30,16,319,,1*59,1621218694980
$GPGSV,1,1,04,01,40,168,17,08,54,009,26,09,28,233,28,27,24,035,16,8*68,1621218694980
$GLGSV,2,1,07,73,37,347,15,82,24,025,,80,52,066,,79,12,116,,1*77,1621218694980
$GLGSV,2,2,07,84,40,203,,83,74,029,,71,02,267,,1*42,1621218694980
$GAGSV,3,1,09,01,40,334,25,13,35,046,18,26,68,137,23,04,15,274,,7*7E,1621218694980
$GAGSV,3,2,09,19,18,216,,21,49,050,,27,13,097,,31,00,000,,7*7F,1621218694980
$GAGSV,3,3,09,33,28,195,,7*4D,1621218694980
$GAGSV,1,1,02,01,40,334,18,26,68,137,20,1*72,1621218694980
$GQGSV,1,1,03,-189,64,063,17,-191,10,156,,-190,61,068,,1*41,1621218694980
$GQGSV,1,1,01,-190,61,068,24,8*47,1621218694980
$GBGSV,4,1,16,27,71,025,26,01,47,122,,02,45,233,,03,61,188,,1*73,1621218694980
$GBGSV,4,2,16,04,33,109,,05,22,253,,06,34,188,,07,56,009,,1*77,1621218694980
$GBGSV,4,3,16,08,35,157,,09,49,219,,10,49,324,,13,21,178,,1*73,1621218694980
$GBGSV,4,4,16,16,37,194,,20,00,000,,23,03,126,,28,17,036,,1*72,1621218694980
$GNGSA,A,3,01,09,16,21,,,,,,,,,1.3,1.0,0.8,1*36,1621218694992
$GNGSA,A,3,01,26,,,,,,,,,,,1.3,1.0,0.8,3*3D,1621218694992
$GNGSA,A,3,27,,,,,,,,,,,,1.3,1.0,0.8,4*3A,1621218694992
$GNGSA,A,3,02,,,,,,,,,,,,1.3,1.0,0.8,5*3C,1621218694992
$GNVTG,,T,,M,0.0,N,0.0,K,A*3D,1621218694992
$GNDTM,P90,,0000.000018,S,00000.000001,W,0.993,W84*47,1621218694992
$GNRMC,023258.00,A,2218.072629,N,11410.739589,E,0.0,,170521,2.2,W,A,V*6E,1621218694992
$GNGNS,023258.00,2218.072629,N,11410.739589,E,ANAAAN,08,1.0,10.9,-1.3,,,V*0F,1621218694992
$GNGGA,023258.00,2218.072629,N,11410.739589,E,1,08,1.0,10.9,M,-1.3,M,,*5F,1621218694992
$GPGSV,4,1,13,01,40,168,25,07,54,320,14,08,54,009,17,09,28,233,33,1*6B,1621218695978
$GPGSV,4,2,13,16,16,075,24,21,59,133,26,27,24,035,17,04,21,195,,1*67,1621218695978
$GPGSV,4,3,13,14,02,291,,17,04,233,,22,07,150,,26,02,094,,1*64,1621218695978
$GPGSV,4,4,13,30,16,319,,1*59,1621218695978
$GPGSV,1,1,04,01,40,168,17,08,54,009,26,09,28,233,29,27,24,035,16,8*69,1621218695978
$GLGSV,2,1,07,73,37,347,15,82,24,025,,80,52,066,,79,12,116,,1*77,1621218695978
$GLGSV,2,2,07,84,40,203,,83,74,029,,71,02,267,,1*42,1621218695978
$GAGSV,3,1,09,01,40,334,26,13,35,046,18,26,68,137,24,04,15,274,,7*7A,1621218695978
$GAGSV,3,2,09,19,18,216,,21,49,050,,27,13,097,,31,00,000,,7*7F,1621218695978
$GAGSV,3,3,09,33,28,195,,7*4D,1621218695978
$GAGSV,1,1,02,01,40,334,22,26,68,137,20,1*7B,1621218695978
$GQGSV,1,1,03,-189,64,063,17,-191,10,156,,-190,61,068,,1*41,1621218695978
$GQGSV,1,1,01,-190,61,068,24,8*47,1621218695978
$GBGSV,4,1,16,27,71,025,26,01,47,122,,02,45,233,,03,61,188,,1*73,1621218695978
$GBGSV,4,2,16,04,33,109,,05,22,253,,06,34,188,,07,56,009,,1*77,1621218695978
$GBGSV,4,3,16,08,35,157,,09,49,219,,10,49,324,,13,21,178,,1*73,1621218695978
$GBGSV,4,4,16,16,37,194,,20,00,000,,23,03,126,,28,17,036,,1*72,1621218695978
$GNGSA,A,3,01,09,16,21,,,,,,,,,1.3,1.0,0.8,1*36,1621218695990
$GNGSA,A,3,01,26,,,,,,,,,,,1.3,1.0,0.8,3*3D,1621218695990
$GNGSA,A,3,27,,,,,,,,,,,,1.3,1.0,0.8,4*3A,1621218695990
$GNGSA,A,3,02,,,,,,,,,,,,1.3,1.0,0.8,5*3C,1621218695990
$GNVTG,,T,,M,0.0,N,0.0,K,A*3D,1621218695990
$GNDTM,P90,,0000.000018,S,00000.000001,W,0.993,W84*47,1621218695990
$GNRMC,023259.00,A,2218.072629,N,11410.739589,E,0.0,,170521,2.2,W,A,V*6F,1621218695990
$GNGNS,023259.00,2218.072629,N,11410.739589,E,ANAAAN,08,1.0,10.9,-1.3,,,V*0E,1621218695990
$GNGGA,023259.00,2218.072629,N,11410.739589,E,1,08,1.0,10.9,M,-1.3,M,,*5E,1621218695990
$GPGSV,4,1,13,01,40,168,26,07,54,320,14,08,54,009,17,09,28,233,34,1*6F,1621218696980
$GPGSV,4,2,13,16,16,075,24,21,59,133,26,27,24,035,17,04,21,195,,1*67,1621218696980
$GPGSV,4,3,13,14,02,291,,17,04,233,,22,07,150,,26,02,094,,1*64,1621218696980
$GPGSV,4,4,13,30,16,319,,1*59,1621218696980
$GPGSV,1,1,04,01,40,168,17,08,54,009,27,09,28,233,29,27,24,035,16,8*68,1621218696980
$GLGSV,2,1,07,73,37,347,15,82,24,025,,80,52,066,,79,12,116,,1*77,1621218696980
$GLGSV,2,2,07,84,40,203,,83,74,029,,71,02,267,,1*42,1621218696980
$GAGSV,3,1,09,01,40,334,26,13,35,046,18,26,68,137,25,04,15,274,,7*7B,1621218696980
$GAGSV,3,2,09,19,18,216,,21,49,050,,27,13,097,,31,00,000,,7*7F,1621218696980
$GAGSV,3,3,09,33,28,195,,7*4D,1621218696980
$GAGSV,1,1,02,01,40,334,22,26,68,137,20,1*7B,1621218696980
$GQGSV,1,1,03,-189,64,063,17,-191,10,156,,-190,61,068,,1*41,1621218696980
$GQGSV,1,1,01,-190,61,068,25,8*46,1621218696980
$GBGSV,4,1,16,27,71,025,26,01,47,122,,02,45,233,,03,61,188,,1*73,1621218696980
$GBGSV,4,2,16,04,33,109,,05,22,253,,06,34,188,,07,56,009,,1*77,1621218696980
$GBGSV,4,3,16,08,35,157,,09,49,219,,10,49,324,,13,21,178,,1*73,1621218696980
$GBGSV,4,4,16,16,37,194,,20,00,000,,23,03,126,,28,17,036,,1*72,1621218696980
$GNGSA,A,3,01,09,16,21,,,,,,,,,1.3,1.0,0.8,1*36,1621218696993
$GNGSA,A,3,01,26,,,,,,,,,,,1.3,1.0,0.8,3*3D,1621218696993
$GNGSA,A,3,27,,,,,,,,,,,,1.3,1.0,0.8,4*3A,1621218696993
$GNGSA,A,3,02,03,,,,,,,,,,,1.3,1.0,0.8,5*3F,1621218696993
$GNVTG,,T,,M,0.0,N,0.0,K,A*3D,1621218696993
$GNDTM,P90,,0000.000018,S,00000.000001,W,0.993,W84*47,1621218696993
$GNRMC,023300.00,A,2218.072629,N,11410.739589,E,0.0,,170521,2.2,W,A,V*62,1621218696993
$GNGNS,023300.00,2218.072629,N,11410.739589,E,ANAAAN,09,1.0,10.9,-1.3,,,V*02,1621218696993
$GNGGA,023300.00,2218.072629,N,11410.739589,E,1,09,1.0,10.9,M,-1.3,M,,*52,1621218696993
$GPGSV,4,1,13,01,40,168,25,07,54,320,14,08,54,009,17,09,28,233,34,1*6C,1621218697979
$GPGSV,4,2,13,16,16,075,24,21,59,133,27,27,24,035,17,04,21,195,,1*66,1621218697979
$GPGSV,4,3,13,14,02,291,,17,04,233,,22,07,150,,26,02,094,,1*64,1621218697979
$GPGSV,4,4,13,30,16,319,,1*59,1621218697979
$GPGSV,1,1,04,01,40,168,17,08,54,009,27,09,28,233,29,27,24,035,16,8*68,1621218697979
$GLGSV,2,1,07,73,37,347,15,79,12,116,15,82,24,025,,80,52,066,,1*73,1621218697979
$GLGSV,2,2,07,84,40,203,,83,74,029,,71,02,267,,1*42,1621218697979
$GAGSV,3,1,09,01,40,334,26,13,35,046,18,26,68,137,25,04,15,274,,7*7B,1621218697979
$GAGSV,3,2,09,19,18,216,,21,49,050,,27,13,097,,31,00,000,,7*7F,1621218697979
$GAGSV,3,3,09,33,28,195,,7*4D,1621218697979
$GAGSV,1,1,02,01,40,334,22,26,68,137,19,1*71,1621218697979
$GQGSV,1,1,03,-189,64,063,17,-191,10,156,,-190,61,068,,1*41,1621218697979
$GQGSV,1,1,01,-190,61,068,23,8*40,1621218697979
$GBGSV,4,1,16,27,71,025,27,01,47,122,,02,45,233,,03,61,188,,1*72,1621218697979
$GBGSV,4,2,16,04,33,109,,05,22,253,,06,34,188,,07,56,009,,1*77,1621218697979
$GBGSV,4,3,16,08,35,157,,09,49,219,,10,49,324,,13,21,178,,1*73,1621218697979
$GBGSV,4,4,16,16,37,194,,20,00,000,,23,03,126,,28,17,036,,1*72,1621218697979
$GNGSA,A,3,01,09,16,21,,,,,,,,,1.3,1.0,0.8,1*36,1621218697990
$GNGSA,A,3,79,,,,,,,,,,,,1.3,1.0,0.8,2*37,1621218697990
$GNGSA,A,3,01,26,,,,,,,,,,,1.3,1.0,0.8,3*3D,1621218697990
$GNGSA,A,3,27,,,,,,,,,,,,1.3,1.0,0.8,4*3A,1621218697990
$GNGSA,A,3,02,,,,,,,,,,,,1.3,1.0,0.8,5*3C,1621218697990
$GNVTG,,T,,M,0.0,N,0.0,K,A*3D,1621218697990
$GNDTM,P90,,0000.000018,S,00000.000001,W,0.993,W84*47,1621218697990
$GNRMC,023301.00,A,2218.072629,N,11410.739589,E,0.0,,170521,2.2,W,A,V*63,1621218697990
$GNGNS,023301.00,2218.072629,N,11410.739589,E,AAAAAN,09,1.0,10.9,-1.3,,,V*0C,1621218697990
$GNGGA,023301.00,2218.072629,N,11410.739589,E,1,09,1.0,10.9,M,-1.3,M,,*53,1621218697990
$GPGSV,4,1,13,01,40,168,27,07,54,320,14,08,54,009,17,09,28,233,35,1*6F,1621218698978
$GPGSV,4,2,13,16,16,075,25,21,59,133,26,27,24,035,15,04,21,195,,1*64,1621218698978
$GPGSV,4,3,13,14,02,291,,17,04,233,,22,07,150,,26,02,094,,1*64,1621218698978
$GPGSV,4,4,13,30,16,319,,1*59,1621218698978
$GPGSV,1,1,04,01,40,168,17,08,54,009,27,09,28,233,29,27,24,035,16,8*68,1621218698978
$GLGSV,2,1,07,73,37,347,15,79,12,116,15,82,24,025,,80,52,066,,1*73,1621218698978
$GLGSV,2,2,07,84,40,203,,83,74,029,,71,02,267,,1*42,1621218698978
$GAGSV,3,1,09,01,40,334,26,13,35,046,18,26,68,137,24,04,15,274,,7*7A,1621218698978
$GAGSV,3,2,09,19,18,216,,21,49,050,,27,13,097,,31,00,000,,7*7F,1621218698978
$GAGSV,3,3,09,33,28,195,,7*4D,1621218698978
$GAGSV,1,1,02,01,40,334,20,26,68,137,19,1*73,1621218698978
$GQGSV,1,1,03,-189,64,063,17,-191,10,156,,-190,61,068,,1*41,1621218698978
$GQGSV,1,1,01,-190,61,068,23,8*40,1621218698978
$GBGSV,4,1,16,27,71,025,27,01,47,122,,02,45,233,,03,61,188,,1*72,1621218698978
$GBGSV,4,2,16,04,33,109,,05,22,253,,06,34,188,,07,56,009,,1*77,1621218698978
$GBGSV,4,3,16,08,35,157,,09,49,219,,10,49,324,,13,21,178,,1*73,1621218698978
$GBGSV,4,4,16,16,37,194,,20,00,000,,23,03,126,,28,17,036,,1*72,1621218698978
$GNGSA,A,3,01,09,16,21,27,,,,,,,,1.2,1.0,0.8,1*32,1621218698991
$GNGSA,A,3,01,13,26,,,,,,,,,,1.2,1.0,0.8,3*3E,1621218698991
$GNGSA,A,3,27,,,,,,,,,,,,1.2,1.0,0.8,4*3B,1621218698991
$GNGSA,A,3,02,,,,,,,,,,,,1.2,1.0,0.8,5*3D,1621218698991
$GNVTG,,T,,M,0.0,N,0.0,K,A*3D,1621218698991
$GNDTM,P90,,0000.000018,S,00000.000001,W,0.993,W84*47,1621218698991
$GNRMC,023302.00,A,2218.072629,N,11410.739589,E,0.0,,170521,2.2,W,A,V*60,1621218698991
$GNGNS,023302.00,2218.072629,N,11410.739589,E,ANAAAN,10,1.0,10.9,-1.3,,,V*08,1621218698991
$GNGGA,023302.00,2218.072629,N,11410.739589,E,1,10,1.0,10.9,M,-1.3,M,,*58,1621218698991
$GPGSV,4,1,13,01,40,168,24,07,54,320,14,08,54,009,16,09,28,233,34,1*6C,1621218699979
$GPGSV,4,2,13,16,16,075,25,21,59,133,25,27,24,035,15,04,21,195,,1*67,1621218699979
$GPGSV,4,3,13,14,02,291,,17,04,233,,22,07,150,,26,02,094,,1*64,1621218699979
$GPGSV,4,4,13,30,16,319,,1*59,1621218699979
$GPGSV,1,1,04,01,40,168,14,08,54,009,26,09,28,233,28,27,24,035,17,8*6A,1621218699979
$GLGSV,2,1,07,73,37,347,15,79,12,116,15,82,24,025,,80,52,066,,1*73,1621218699979
$GLGSV,2,2,07,84,40,203,,83,74,029,,71,02,267,,1*42,1621218699979
$GAGSV,3,1,09,01,40,334,23,13,35,046,18,26,68,137,26,04,15,274,,7*7D,1621218699979
$GAGSV,3,2,09,19,18,216,,21,49,050,,27,13,097,,31,00,000,,7*7F,1621218699979
$GAGSV,3,3,09,33,28,195,,7*4D,1621218699979
$GAGSV,1,1,02,01,40,334,20,26,68,137,21,1*78,1621218699979
$GQGSV,1,1,03,-189,64,063,17,-191,10,156,,-190,61,068,,1*41,1621218699979
$GQGSV,1,1,01,-190,61,068,23,8*40,1621218699979
$GBGSV,4,1,16,27,71,025,26,01,47,122,,02,45,233,,03,61,188,,1*73,1621218699979
$GBGSV,4,2,16,04,33,109,,05,22,253,,06,34,188,,07,56,009,,1*77,1621218699979
$GBGSV,4,3,16,08,35,157,,09,49,219,,10,49,324,,13,21,178,,1*73,1621218699979
$GBGSV,4,4,16,16,37,194,,20,00,000,,23,03,126,,28,17,036,,1*72,1621218699979
$GNGSA,A,3,01,08,09,16,21,,,,,,,,1.2,1.0,0.8,1*3F,1621218699991
$GNGSA,A,3,01,26,,,,,,,,,,,1.2,1.0,0.8,3*3C,1621218699991
$GNGSA,A,3,27,,,,,,,,,,,,1.2,1.0,0.8,4*3B,1621218699991
$GNVTG,232.9,T,232.9,M,0.6,N,1.1,K,A*3B,1621218699991
$GNDTM,P90,,0000.000018,S,00000.000001,W,0.993,W84*47,1621218699991
$GNRMC,023303.00,A,2218.072399,N,11410.738753,E,0.6,232.9,170521,2.2,W,A,V*49,1621218699991
$GNGNS,023303.00,2218.072399,N,11410.738753,E,ANAANN,08,1.0,11.3,-1.3,,,V*0E,1621218699991
$GNGGA,023303.00,2218.072399,N,11410.738753,E,1,08,1.0,11.3,M,-1.3,M,,*51,1621218699991
$GPGSV,4,1,13,01,40,168,25,08,54,009,22,09,28,233,34,16,16,075,24,1*6C,1621218700981
$GPGSV,4,2,13,21,59,133,28,27,24,035,15,04,21,195,,07,54,320,,1*68,1621218700981
$GPGSV,4,3,13,14,02,291,,17,04,233,,22,07,150,,26,02,094,,1*64,1621218700981
$GPGSV,4,4,13,30,16,319,,1*59,1621218700981
$GPGSV,1,1,04,01,40,168,14,08,54,009,26,09,28,233,30,27,24,035,17,8*63,1621218700981
$GLGSV,2,1,07,73,37,347,14,79,12,116,15,82,24,025,,80,52,066,,1*72,1621218700981
$GLGSV,2,2,07,84,40,203,,83,74,029,,71,02,267,,1*42,1621218700981
$GAGSV,3,1,09,01,40,334,22,13,35,046,23,26,68,136,26,04,15,274,,7*75,1621218700981
$GAGSV,3,2,09,19,18,216,,21,49,050,,27,13,097,,31,00,000,,7*7F,1621218700981
$GAGSV,3,3,09,33,28,195,,7*4D,1621218700981
$GAGSV,1,1,02,01,40,334,20,26,68,136,21,1*79,1621218700981
$GQGSV,1,1,03,-189,64,063,17,-191,10,156,,-190,61,068,,1*41,1621218700981
$GQGSV,1,1,01,-190,61,068,23,8*40,1621218700981
$GBGSV,4,1,16,27,71,025,27,01,47,122,,02,45,233,,03,61,188,,1*72,1621218700981
$GBGSV,4,2,16,04,33,109,,05,22,253,,06,34,188,,07,56,009,,1*77,1621218700981
$GBGSV,4,3,16,08,35,157,,09,49,219,,10,49,324,,13,21,178,,1*73,1621218700981
$GBGSV,4,4,16,16,37,194,,20,00,000,,23,03,126,,28,17,036,,1*72,1621218700981
$GNGSA,A,3,01,08,09,16,21,,,,,,,,1.2,0.8,0.8,1*36,1621218700994
$GNGSA,A,3,73,,,,,,,,,,,,1.2,0.8,0.8,2*35,1621218700994
$GNGSA,A,3,01,13,,,,,,,,,,,1.2,0.8,0.8,3*33,1621218700994
$GNGSA,A,3,27,,,,,,,,,,,,1.2,0.8,0.8,4*32,1621218700994
$GNGSA,A,3,03,,,,,,,,,,,,1.2,0.8,0.8,5*35,1621218700994
$GNVTG,232.9,T,232.9,M,2.3,N,4.3,K,A*3B,1621218700994
$GNDTM,P90,,0000.000018,S,00000.000001,W,0.993,W84*47,1621218700994
$GNRMC,023304.00,A,2218.072032,N,11410.738362,E,2.3,232.9,170521,2.2,W,A,V*4D,1621218700994
$GNGNS,023304.00,2218.072032,N,11410.738362,E,AAAAAN,10,0.8,11.3,-1.3,,,V*0D,1621218700994
$GNGGA,023304.00,2218.072032,N,11410.738362,E,1,10,0.8,11.3,M,-1.3,M,,*52,1621218700994
$GPGSV,4,1,13,01,40,168,26,04,21,195,18,08,54,009,22,09,28,233,33,1*6F,1621218701981
$GPGSV,4,2,13,16,16,075,21,21,59,133,30,27,24,035,19,07,54,320,,1*66,1621218701981
$GPGSV,4,3,13,14,02,291,,17,04,233,,22,07,150,,26,02,094,,1*64,1621218701981
$GPGSV,4,4,13,30,16,319,,1*59,1621218701981
$GPGSV,1,1,04,01,40,168,20,08,54,009,27,09,28,233,28,27,24,035,20,8*68,1621218701981
$GLGSV,2,1,07,73,37,347,14,79,12,116,15,82,24,025,,80,52,066,,1*72,1621218701981
$GLGSV,2,2,07,84,40,203,,83,74,029,,71,02,267,,1*42,1621218701981
$GAGSV,3,1,09,01,40,334,22,13,35,046,25,26,68,136,19,04,15,274,,7*7F,1621218701981
$GAGSV,3,2,09,19,18,216,,21,49,050,,27,13,097,,31,00,000,,7*7F,1621218701981
$GAGSV,3,3,09,33,28,195,,7*4D,1621218701981
$GAGSV,1,1,03,01,40,334,20,13,35,046,17,26,68,136,21,1*48,1621218701981
$GQGSV,1,1,03,-189,64,063,17,-191,10,156,,-190,61,068,,1*41,1621218701981
$GQGSV,1,1,01,-190,61,068,20,8*43,1621218701981
$GBGSV,4,1,16,27,71,025,28,01,47,122,,02,45,233,,03,61,188,,1*7D,1621218701981
$GBGSV,4,2,16,04,33,109,,05,22,253,,06,34,188,,07,56,009,,1*77,1621218701981
$GBGSV,4,3,16,08,35,157,,09,49,219,,10,49,324,,13,21,178,,1*73,1621218701981
$GBGSV,4,4,16,16,37,194,,20,00,000,,23,03,126,,28,17,036,,1*72,1621218701981
$GNGSA,A,3,01,04,09,16,21,27,,,,,,,1.1,0.8,0.8,1*3C,1621218701995
$GNGSA,A,3,13,26,,,,,,,,,,,1.1,0.8,0.8,3*35,1621218701995
$GNGSA,A,3,27,,,,,,,,,,,,1.1,0.8,0.8,4*31,1621218701995
$GNVTG,233.1,T,233.1,M,4.4,N,8.1,K,A*34,1621218701995
$GNDTM,P90,,0000.000018,S,00000.000001,W,0.993,W84*47,1621218701995
$GNRMC,023305.00,A,2218.071408,N,11410.737422,E,4.4,233.1,170521,2.2,W,A,V*46,1621218701995
$GNGNS,023305.00,2218.071408,N,11410.737422,E,ANAANN,09,0.8,11.3,-1.3,,,V*06,1621218701995
$GNGGA,023305.00,2218.071408,N,11410.737422,E,1,09,0.8,11.3,M,-1.3,M,,*59,1621218701995
$GPGSV,4,1,13,01,40,168,27,04,21,195,18,08,54,009,21,09,28,233,31,1*6F,1621218702978
$GPGSV,4,2,13,16,16,075,21,21,59,133,25,27,24,035,21,07,54,320,,1*69,1621218702978
$GPGSV,4,3,13,14,02,291,,17,04,233,,22,07,150,,26,02,094,,1*64,1621218702978
$GPGSV,4,4,13,30,16,319,,1*59,1621218702978
$GPGSV,1,1,04,01,40,168,24,08,54,009,23,09,28,233,30,27,24,035,20,8*61,1621218702978
$GLGSV,2,1,07,73,37,347,14,79,12,116,15,82,24,025,,80,52,066,,1*72,1621218702978
$GLGSV,2,2,07,84,40,203,,83,74,029,,71,02,267,,1*42,1621218702978
$GAGSV,3,1,09,01,40,334,21,13,35,046,23,26,68,136,19,04,15,274,,7*7A,1621218702978
$GAGSV,3,2,09,19,18,216,,21,49,050,,27,13,097,,31,00,000,,7*7F,1621218702978
$GAGSV,3,3,09,33,28,195,,7*4D,1621218702978
$GAGSV,1,1,03,01,40,334,22,13,35,046,22,26,68,136,19,1*47,1621218702978
$GQGSV,1,1,03,-189,64,063,17,-191,10,156,,-190,61,068,,1*41,1621218702978
$GQGSV,1,1,01,-190,61,068,20,8*43,1621218702978
$GBGSV,4,1,16,27,71,025,29,01,47,122,,02,45,233,,03,61,188,,1*7C,1621218702978
$GBGSV,4,2,16,04,33,109,,05,22,253,,06,34,188,,07,56,009,,1*77,1621218702978
$GBGSV,4,3,16,08,35,157,,09,49,219,,10,49,324,,13,21,178,,1*73,1621218702978
$GBGSV,4,4,16,16,37,194,,20,00,000,,23,03,126,,28,17,036,,1*72,1621218702978
$GNGSA,A,3,01,08,09,21,27,,,,,,,,1.1,0.8,0.8,1*37,1621218702991
$GNGSA,A,3,13,,,,,,,,,,,,1.1,0.8,0.8,3*31,1621218702991
$GNGSA,A,3,27,,,,,,,,,,,,1.1,0.8,0.8,4*31,1621218702991
$GNVTG,232.9,T,232.9,M,6.7,N,12.4,K,A*0B,1621218702991
$GNDTM,P90,,0000.000018,S,00000.000001,W,0.993,W84*47,1621218702991
$GNRMC,023306.00,A,2218.070417,N,11410.736047,E,6.7,232.9,170521,2.2,W,A,V*44,1621218702991
$GNGNS,023306.00,2218.070417,N,11410.736047,E,ANAANN,07,0.8,10.9,-1.3,,,V*09,1621218702991
$GNGGA,023306.00,2218.070417,N,11410.736047,E,1,07,0.8,10.9,M,-1.3,M,,*56,1621218702991
$GPGSV,4,1,13,01,40,168,24,04,21,195,18,08,54,009,22,09,28,233,32,1*6C,1621218703979
$GPGSV,4,2,13,16,16,075,22,21,59,133,25,27,24,035,22,07,54,320,,1*69,1621218703979
$GPGSV,4,3,13,14,02,291,,17,04,233,,22,07,150,,26,02,094,,1*64,1621218703979
$GPGSV,4,4,13,30,16,319,,1*59,1621218703979
$GPGSV,1,1,04,01,40,168,23,08,54,009,23,09,28,233,32,27,24,035,20,8*64,1621218703979
$GLGSV,2,1,07,73,37,347,14,79,12,116,15,82,24,025,,80,52,066,,1*72,1621218703979
$GLGSV,2,2,07,84,40,203,,83,74,029,,71,02,267,,1*42,1621218703979
$GAGSV,3,1,09,01,40,334,22,13,35,046,26,26,68,136,20,04,15,274,,7*76,1621218703979
$GAGSV,3,2,09,19,18,216,,21,49,050,,27,13,097,,31,00,000,,7*7F,1621218703979
$GAGSV,3,3,09,33,28,195,,7*4D,1621218703979
$GAGSV,1,1,03,01,40,334,22,13,35,046,22,26,68,136,19,1*47,1621218703979
$GQGSV,1,1,03,-190,61,068,19,-189,64,063,17,-191,10,156,,1*49,1621218703979
$GQGSV,1,1,01,-190,61,068,23,8*40,1621218703979
$GBGSV,4,1,16,27,71,025,31,01,47,122,,02,45,233,,03,61,188,,1*75,1621218703979
$GBGSV,4,2,16,04,33,109,,05,22,253,,06,34,188,,07,56,009,,1*77,1621218703979
$GBGSV,4,3,16,08,35,157,,09,49,219,,10,49,324,,13,21,178,,1*73,1621218703979
$GBGSV,4,4,16,16,37,194,,20,00,000,,23,03,126,,28,17,036,,1*72,1621218703979
$GNGSA,A,3,01,08,09,16,21,27,,,,,,,1.1,0.8,0.8,1*30,1621218703992
$GNGSA,A,3,01,13,26,,,,,,,,,,1.1,0.8,0.8,3*34,1621218703992
$GNGSA,A,3,27,,,,,,,,,,,,1.1,0.8,0.8,4*31,1621218703992
$GNGSA,A,3,02,,,,,,,,,,,,1.1,0.8,0.8,5*37,1621218703992
$GNVTG,234.0,T,234.0,M,7.9,N,14.5,K,A*03,1621218703992
$GNDTM,P90,,0000.000018,S,00000.000001,W,0.993,W84*47,1621218703992
$GNRMC,023307.00,A,2218.069216,N,11410.734367,E,7.9,234.0,170521,2.2,W,A,V*49,1621218703992
$GNGNS,023307.00,2218.069216,N,11410.734367,E,ANAAAN,11,0.8,10.2,-1.3,,,V*07,1621218703992
$GNGGA,023307.00,2218.069216,N,11410.734367,E,1,11,0.8,10.2,M,-1.3,M,,*57,1621218703992
$GPGSV,4,1,13,01,40,168,22,04,21,195,18,08,54,009,22,09,28,233,33,1*6B,1621218704978
$GPGSV,4,2,13,16,16,075,24,21,59,133,23,27,24,035,22,07,54,320,,1*69,1621218704978
$GPGSV,4,3,13,14,02,291,,17,04,233,,22,07,150,,26,02,094,,1*64,1621218704978
$GPGSV,4,4,13,30,16,319,,1*59,1621218704978
$GPGSV,1,1,04,01,40,168,24,08,54,009,23,09,28,233,31,27,24,035,20,8*60,1621218704978
$GLGSV,2,1,07,73,37,347,14,79,12,116,15,82,24,025,,80,52,066,,1*72,1621218704978
$GLGSV,2,2,07,84,40,203,,83,74,029,,71,02,267,,1*42,1621218704978
$GAGSV,3,1,09,01,40,334,22,13,35,046,25,26,68,136,22,04,15,274,,7*77,1621218704978
$GAGSV,3,2,09,19,18,216,,21,49,050,,27,13,097,,31,00,000,,7*7F,1621218704978
$GAGSV,3,3,09,33,28,195,,7*4D,1621218704978
$GAGSV,1,1,03,01,40,334,22,13,35,046,24,26,68,136,21,1*4A,1621218704978
$GQGSV,1,1,03,-190,61,068,25,-189,64,063,19,-191,10,156,,1*48,1621218704978
$GQGSV,1,1,01,-190,61,068,24,8*47,1621218704978
$GBGSV,4,1,16,27,71,025,29,01,47,122,,02,45,233,,03,61,188,,1*7C,1621218704978
$GBGSV,4,2,16,04,33,109,,05,22,253,,06,34,188,,07,56,009,,1*77,1621218704978
$GBGSV,4,3,16,08,35,157,,09,49,219,,10,49,324,,13,21,178,,1*73,1621218704978
$GBGSV,4,4,16,16,37,194,,20,00,000,,23,03,126,,28,17,036,,1*72,1621218704978
$GNGSA,A,3,01,09,16,21,,,,,,,,,1.2,0.9,0.8,1*3F,1621218704992
$GNGSA,A,3,13,26,,,,,,,,,,,1.2,0.9,0.8,3*37,1621218704992
$GNGSA,A,3,27,,,,,,,,,,,,1.2,0.9,0.8,4*33,1621218704992
$GNGSA,A,3,02,03,,,,,,,,,,,1.2,0.9,0.8,5*36,1621218704992
$GNVTG,233.6,T,233.6,M,7.4,N,13.7,K,A*0B,1621218704992
$GNDTM,P90,,0000.000018,S,00000.000001,W,0.993,W84*47,1621218704992
$GNRMC,023308.00,A,2218.068192,N,11410.732939,E,7.4,233.6,170521,2.2,W,A,V*43,1621218704992
$GNGNS,023308.00,2218.068192,N,11410.732939,E,ANAAAN,09,0.9,8.1,-1.3,,,V*33,1621218704992
$GNGGA,023308.00,2218.068192,N,11410.732939,E,1,09,0.9,8.1,M,-1.3,M,,*63,1621218704992
$GPGSV,4,1,13,01,40,168,25,04,21,195,18,08,54,009,22,09,28,233,29,1*67,1621218705980
$GPGSV,4,2,13,16,16,075,24,21,59,133,21,27,24,035,22,07,54,320,,1*6B,1621218705980
$GPGSV,4,3,13,14,02,291,,17,04,233,,22,07,150,,26,02,094,,1*64,1621218705980
$GPGSV,4,4,13,30,16,319,,1*59,1621218705980
$GPGSV,1,1,04,01,40,168,24,08,54,009,21,09,28,233,27,27,24,035,20,8*65,1621218705980
$GLGSV,2,1,07,73,37,347,14,79,12,116,15,82,24,025,,80,52,066,,1*72,1621218705980
$GLGSV,2,2,07,84,40,203,,83,74,029,,71,02,267,,1*42,1621218705980
$GAGSV,3,1,09,01,40,334,22,13,35,046,23,26,68,136,22,04,15,274,,7*71,1621218705980
$GAGSV,3,2,09,19,18,216,,21,49,050,,27,13,097,,31,00,000,,7*7F,1621218705980
$GAGSV,3,3,09,33,28,195,,7*4D,1621218705980
$GAGSV,1,1,03,01,40,334,22,13,35,046,24,26,68,136,23,1*48,1621218705980
$GQGSV,1,1,03,-190,61,068,23,-189,64,063,23,-191,10,156,,1*47,1621218705980
$GQGSV,1,1,01,-190,61,068,24,8*47,1621218705980
$GBGSV,4,1,16,27,71,025,27,01,47,122,,02,45,233,,03,61,188,,1*72,1621218705980
$GBGSV,4,2,16,04,33,109,,05,22,253,,06,34,188,,07,56,009,,1*77,1621218705980
$GBGSV,4,3,16,08,35,157,,09,49,219,,10,49,324,,13,21,178,,1*73,1621218705980
$GBGSV,4,4,16,16,37,194,,20,00,000,,23,03,126,,28,17,036,,1*72,1621218705980
$GNGSA,A,3,01,08,09,16,21,,,,,,,,1.2,0.9,0.8,1*37,1621218705995
$GNGSA,A,3,13,26,,,,,,,,,,,1.2,0.9,0.8,3*37,1621218705995
$GNGSA,A,3,27,,,,,,,,,,,,1.2,0.9,0.8,4*33,1621218705995
$GNGSA,A,3,02,03,,,,,,,,,,,1.2,0.9,0.8,5*36,1621218705995
$GNVTG,227.6,T,227.6,M,7.6,N,14.1,K,A*08,1621218705995
$GNDTM,P90,,0000.000018,S,00000.000001,W,0.993,W84*47,1621218705995
$GNRMC,023309.00,A,2218.066849,N,11410.731418,E,7.6,227.6,170521,2.2,W,A,V*49,1621218705995
$GNGNS,023309.00,2218.066849,N,11410.731418,E,ANAAAN,10,0.9,7.3,-1.3,,,V*3B,1621218705995
$GNGGA,023309.00,2218.066849,N,11410.731418,E,1,10,0.9,7.3,M,-1.3,M,,*6B,1621218705995
$GPGSV,4,1,13,01,40,168,24,04,21,195,18,07,54,320,27,08,54,009,24,1*68,1621218706981
$GPGSV,4,2,13,09,28,233,24,16,16,075,22,21,59,133,22,27,24,035,20,1*6C,1621218706981
$GPGSV,4,3,13,14,02,291,,17,04,233,,22,07,150,,26,02,094,,1*64,1621218706981
$GPGSV,4,4,13,30,16,319,,1*59,1621218706981
$GPGSV,1,1,04,01,40,168,23,08,54,009,21,09,28,233,27,27,24,035,20,8*62,1621218706981
$GLGSV,2,1,07,73,37,347,22,79,12,116,14,82,24,025,,80,52,066,,1*76,1621218706981
$GLGSV,2,2,07,84,40,203,,83,74,029,,71,02,267,,1*42,1621218706981
$GAGSV,3,1,09,01,40,334,22,13,35,046,24,26,68,136,20,04,15,274,,7*74,1621218706981
$GAGSV,3,2,09,19,18,216,,21,49,050,,27,13,097,,31,00,000,,7*7F,1621218706981
$GAGSV,3,3,09,33,28,195,,7*4D,1621218706981
$GAGSV,1,1,03,01,40,334,22,13,35,046,24,26,68,136,23,1*48,1621218706981
$GQGSV,1,1,03,-190,61,068,23,-189,64,063,23,-191,10,156,,1*47,1621218706981
$GQGSV,1,1,01,-190,61,068,21,8*42,1621218706981
$GBGSV,4,1,16,27,71,025,27,01,47,122,,02,45,233,,03,61,188,,1*72,1621218706981
$GBGSV,4,2,16,04,33,109,,05,22,253,,06,34,188,,07,56,009,,1*77,1621218706981
$GBGSV,4,3,16,08,35,157,,09,49,219,,10,49,324,,13,21,178,,1*73,1621218706981
$GBGSV,4,4,16,16,37,194,,20,00,000,,23,03,126,,28,17,036,,1*72,1621218706981
$GNGSA,A,3,01,07,08,09,16,21,27,,,,,,1.1,0.8,0.8,1*37,1621218706996
$GNGSA,A,3,73,79,,,,,,,,,,,1.1,0.8,0.8,2*38,1621218706996
$GNGSA,A,3,13,26,,,,,,,,,,,1.1,0.8,0.8,3*35,1621218706996
$GNGSA,A,3,27,,,,,,,,,,,,1.1,0.8,0.8,4*31,1621218706996
$GNGSA,A,3,02,,,,,,,,,,,,1.1,0.8,0.8,5*37,1621218706996
$GNVTG,206.4,T,206.4,M,6.9,N,12.7,K,A*06,1621218706996
$GNDTM,P90,,0000.000018,S,00000.000001,W,0.993,W84*47,1621218706996
$GNRMC,023310.00,A,2218.065072,N,11410.730659,E,6.9,206.4,170521,2.2,W,A,V*4B,1621218706996
$GNGNS,023310.00,2218.065072,N,11410.730659,E,AAAAAN,13,0.8,7.3,-1.3,,,V*3B,1621218706996
$GNGGA,023310.00,2218.065072,N,11410.730659,E,1,12,0.8,7.3,M,-1.3,M,,*65,1621218706996
$GPGSV,4,1,13,01,40,168,30,04,21,195,18,07,54,320,35,08,54,009,23,1*69,1621218707980
$GPGSV,4,2,13,09,28,233,28,16,16,075,25,21,59,133,32,27,24,035,23,1*65,1621218707980
$GPGSV,4,3,13,30,16,319,19,14,02,291,,17,04,233,,22,07,150,,1*68,1621218707980
$GPGSV,4,4,13,26,02,094,,1*5D,1621218707980
$GPGSV,1,1,04,01,40,168,24,08,54,009,20,09,28,233,27,27,24,035,20,8*64,1621218707980
$GLGSV,2,1,07,73,37,347,24,79,12,116,14,82,24,025,,80,52,066,,1*70,1621218707980
$GLGSV,2,2,07,84,40,203,,83,74,029,,71,02,267,,1*42,1621218707980
$GAGSV,3,1,09,01,40,334,22,13,35,046,24,26,68,136,31,04,15,274,,7*74,1621218707980
$GAGSV,3,2,09,19,18,216,,21,49,050,,27,13,097,,31,00,000,,7*7F,1621218707980
$GAGSV,3,3,09,33,28,195,,7*4D,1621218707980
$GAGSV,1,1,03,01,40,334,22,13,35,046,24,26,68,136,23,1*48,1621218707980
$GQGSV,1,1,03,-190,61,068,22,-189,64,063,23,-191,10,156,,1*46,1621218707980
$GQGSV,1,1,01,-190,61,068,23,8*40,1621218707980
$GBGSV,4,1,16,27,71,025,27,01,47,122,,02,45,233,,03,61,188,,1*72,1621218707980
$GBGSV,4,2,16,04,33,109,,05,22,253,,06,34,188,,07,56,009,,1*77,1621218707980
$GBGSV,4,3,16,08,35,157,,09,49,219,,10,49,324,,13,21,178,,1*73,1621218707980
$GBGSV,4,4,16,16,37,194,,20,00,000,,23,03,126,,28,17,036,,1*72,1621218707980
$GNGSA,A,3,01,07,08,09,16,21,27,30,,,,,1.0,0.7,0.7,1*35,1621218707994
$GNGSA,A,3,73,,,,,,,,,,,,1.0,0.7,0.7,2*37,1621218707994
$GNGSA,A,3,26,,,,,,,,,,,,1.0,0.7,0.7,3*36,1621218707994
$GNGSA,A,3,02,,,,,,,,,,,,1.0,0.7,0.7,5*36,1621218707994
$GNVTG,173.2,T,173.2,M,6.5,N,12.0,K,A*0D,1621218707994
$GNDTM,P90,,0000.000018,S,00000.000001,W,0.993,W84*47,1621218707994
$GNRMC,023311.00,A,2218.063295,N,11410.731249,E,6.5,173.2,170521,2.2,W,A,V*48,1621218707994
$GNGNS,023311.00,2218.063295,N,11410.731249,E,AAANAN,11,0.7,7.1,-1.3,,,V*33,1621218707994
$GNGGA,023311.00,2218.063295,N,11410.731249,E,1,11,0.7,7.1,M,-1.3,M,,*63,1621218707994
$GPGSV,4,1,13,01,40,168,35,04,21,195,17,07,54,320,31,08,54,009,28,1*6C,1621218708978
$GPGSV,4,2,13,09,28,233,30,16,16,075,23,21,59,133,39,27,24,035,25,1*67,1621218708978
$GPGSV,4,3,13,30,16,319,19,14,02,291,,17,04,233,,22,07,150,,1*68,1621218708978
$GPGSV,4,4,13,26,02,094,,1*5D,1621218708978
$GPGSV,1,1,04,01,40,168,27,08,54,009,26,09,28,233,25,27,24,035,20,8*63,1621218708978
$GLGSV,2,1,07,73,37,347,24,80,52,066,18,79,12,116,14,82,24,025,,1*79,1621218708978
$GLGSV,2,2,07,84,40,203,,83,74,029,,71,02,267,,1*42,1621218708978
$GAGSV,3,1,09,01,40,334,18,13,35,046,33,26,68,136,34,04,15,274,,7*7E,1621218708978
$GAGSV,3,2,09,19,18,216,,21,49,050,,27,13,097,,31,00,000,,7*7F,1621218708978
$GAGSV,3,3,09,33,28,195,,7*4D,1621218708978
$GAGSV,1,1,03,01,40,334,22,13,35,046,23,26,68,136,25,1*49,1621218708978
$GQGSV,1,1,03,-190,61,068,30,-189,64,063,23,-191,10,156,,1*45,1621218708978
$GQGSV,1,1,01,-190,61,068,28,8*4B,1621218708978
$GBGSV,4,1,16,27,71,025,23,01,47,122,,02,45,233,,03,61,188,,1*76,1621218708978
$GBGSV,4,2,16,04,33,109,,05,22,253,,06,34,188,,07,56,009,,1*77,1621218708978
$GBGSV,4,3,16,08,35,157,,09,49,219,,10,49,324,,13,21,178,,1*73,1621218708978
$GBGSV,4,4,16,16,37,194,,20,00,000,,23,03,126,,28,17,036,,1*72,1621218708978
$GNGSA,A,3,01,07,08,09,21,27,,,,,,,1.1,0.8,0.7,1*3F,1621218708994
$GNGSA,A,3,13,26,,,,,,,,,,,1.1,0.8,0.7,3*3A,1621218708994
$GNGSA,A,3,27,,,,,,,,,,,,1.1,0.8,0.7,4*3E,1621218708994
$GNGSA,A,3,02,,,,,,,,,,,,1.1,0.8,0.7,5*38,1621218708994
$GNVTG,143.4,T,143.4,M,6.9,N,12.7,K,A*06,1621218708994
$GNDTM,P90,,0000.000018,S,00000.000001,W,0.993,W84*47,1621218708994
$GNRMC,023312.00,A,2218.061922,N,11410.732658,E,6.9,143.4,170521,2.2,W,A,V*40,1621218708994
$GNGNS,023312.00,2218.061922,N,11410.732658,E,ANAAAN,10,0.8,7.4,-1.3,,,V*39,1621218708994
$GNGGA,023312.00,2218.061922,N,11410.732658,E,1,10,0.8,7.4,M,-1.3,M,,*69,1621218708994
$GPGSV,4,1,13,01,40,168,35,04,21,195,21,07,54,320,30,08,54,009,33,1*62,1621218709979
$GPGSV,4,2,13,09,28,233,30,16,16,075,23,21,59,133,34,27,24,035,32,1*6C,1621218709979
$GPGSV,4,3,13,30,16,319,25,14,02,291,,17,04,233,,22,07,150,,1*67,1621218709979
$GPGSV,4,4,13,26,02,094,,1*5D,1621218709979
$GPGSV,1,1,04,01,40,168,33,08,54,009,31,09,28,233,25,27,24,035,17,8*64,1621218709979
$GLGSV,2,1,07,73,37,347,25,80,52,066,26,79,12,116,14,82,24,025,,1*75,1621218709979
$GLGSV,2,2,07,84,40,203,,83,74,029,,71,02,267,,1*42,1621218709979
$GAGSV,3,1,09,01,40,334,18,13,35,046,37,26,68,136,28,04,15,274,,7*77,1621218709979
$GAGSV,3,2,09,19,18,216,,21,49,050,,27,13,097,,31,00,000,,7*7F,1621218709979
$GAGSV,3,3,09,33,28,195,,7*4D,1621218709979
$GAGSV,1,1,03,01,40,334,22,13,35,046,29,26,68,136,26,1*40,1621218709979
$GQGSV,1,1,03,-190,61,068,31,-189,64,063,28,-191,10,156,,1*4F,1621218709979
$GQGSV,1,1,01,-190,61,068,32,8*40,1621218709979
$GBGSV,4,1,16,27,71,025,28,01,47,122,,02,45,233,,03,61,188,,1*7D,1621218709979
$GBGSV,4,2,16,04,33,109,,05,22,253,,06,34,188,,07,56,009,,1*77,1621218709979
$GBGSV,4,3,16,08,35,157,,09,49,219,,10,49,324,,13,21,178,,1*73,1621218709979
$GBGSV,4,4,16,16,37,194,,20,00,000,,23,03,126,,28,17,036,,1*72,1621218709979
$GNGSA,A,3,01,07,08,21,27,,,,,,,,1.1,0.8,0.7,1*36,1621218709996
$GNGSA,A,3,73,80,,,,,,,,,,,1.1,0.8,0.7,2*31,1621218709996
$GNGSA,A,3,13,26,,,,,,,,,,,1.1,0.8,0.7,3*3A,1621218709996
$GNGSA,A,3,27,,,,,,,,,,,,1.1,0.8,0.7,4*3E,1621218709996
$GNGSA,A,3,02,03,,,,,,,,,,,1.1,0.8,0.7,5*3B,1621218709996
$GNVTG,136.7,T,136.7,M,7.8,N,14.4,K,A*03,1621218709996
$GNDTM,P90,,0000.000018,S,00000.000001,W,0.993,W84*47,1621218709996
$GNRMC,023313.00,A,2218.060245,N,11410.734358,E,7.8,136.7,170521,2.2,W,A,V*48,1621218709996
$GNGNS,023313.00,2218.060245,N,11410.734358,E,AAAAAN,12,0.8,7.6,-1.3,,,V*3F,1621218709996
$GNGGA,023313.00,2218.060245,N,11410.734358,E,1,12,0.8,7.6,M,-1.3,M,,*60,1621218709996
$GPGSV,4,1,13,01,40,168,34,04,21,195,24,07,54,320,30,08,54,009,34,1*61,1621218710980
$GPGSV,4,2,13,09,28,233,21,16,16,075,23,21,59,133,34,27,24,035,34,1*6A,1621218710980
$GPGSV,4,3,13,30,16,319,28,14,02,291,,17,04,233,,22,07,150,,1*6A,1621218710980
$GPGSV,4,4,13,26,02,094,,1*5D,1621218710980
$GPGSV,1,1,04,01,40,168,35,08,54,009,31,09,28,233,25,27,24,035,24,8*62,1621218710980
$GLGSV,2,1,07,82,24,025,18,73,37,347,26,80,52,066,23,79,12,116,14,1*7A,1621218710980
$GLGSV,2,2,07,84,40,203,,83,74,029,,71,02,267,,1*42,1621218710980
$GAGSV,3,1,09,01,40,334,18,13,35,046,37,26,68,136,27,04,15,274,,7*78,1621218710980
$GAGSV,3,2,09,19,18,216,,21,49,050,,27,13,097,,31,00,000,,7*7F,1621218710980
$GAGSV,3,3,09,33,28,195,,7*4D,1621218710980
$GAGSV,1,1,03,01,40,334,22,13,35,046,30,26,68,136,26,1*48,1621218710980
$GQGSV,1,1,03,-190,61,068,31,-189,64,063,30,-191,10,156,,1*46,1621218710980
$GQGSV,1,1,02,-190,61,068,32,-189,64,063,33,8*69,1621218710980
$GBGSV,4,1,16,27,71,025,31,01,47,122,,02,45,233,,03,61,188,,1*75,1621218710980
$GBGSV,4,2,16,04,33,109,,05,22,253,,06,34,188,,07,56,009,,1*77,1621218710980
$GBGSV,4,3,16,08,35,157,,09,49,219,,10,49,324,,13,21,178,,1*73,1621218710980
$GBGSV,4,4,16,16,37,194,,20,00,000,,23,03,126,,28,17,036,,1*72,1621218710980
$GNGSA,A,3,01,07,08,21,27,,,,,,,,1.1,0.8,0.7,1*36,1621218710995
$GNGSA,A,3,73,80,,,,,,,,,,,1.1,0.8,0.7,2*31,1621218710995
$GNGSA,A,3,13,26,,,,,,,,,,,1.1,0.8,0.7,3*3A,1621218710995
$GNGSA,A,3,27,,,,,,,,,,,,1.1,0.8,0.7,4*3E,1621218710995
$GNGSA,A,3,02,03,,,,,,,,,,,1.1,0.8,0.7,5*3B,1621218710995
$GNVTG,138.4,T,138.4,M,11.1,N,20.5,K,A*3B,1621218710995
$GNDTM,P90,,0000.000018,S,00000.000001,W,0.993,W84*47,1621218710995
$GNRMC,023314.00,A,2218.056984,N,11410.737701,E,11.1,138.4,170521,2.2,W,A,V*74,1621218710995
$GNGNS,023314.00,2218.056984,N,11410.737701,E,AAAAAN,12,0.8,7.2,-1.3,,,V*34,1621218710995
$GNGGA,023314.00,2218.056984,N,11410.737701,E,1,12,0.8,7.2,M,-1.3,M,,*6B,1621218710995
$GPGSV,4,1,13,01,40,168,33,04,21,195,25,07,54,320,27,08,54,009,33,1*66,1621218711980
$GPGSV,4,2,13,09,28,233,24,16,16,075,23,21,59,133,35,27,24,035,31,1*6B,1621218711980
$GPGSV,4,3,13,30,16,319,29,14,02,291,,17,04,233,,22,07,150,,1*6B,1621218711980
$GPGSV,4,4,13,26,02,094,,1*5D,1621218711980
$GPGSV,1,1,04,01,40,168,34,08,54,009,31,09,28,233,25,27,24,035,29,8*6E,1621218711980
$GLGSV,2,1,07,82,24,025,30,73,37,347,23,80,52,066,24,79,12,116,14,1*72,1621218711980
$GLGSV,2,2,07,84,40,203,,83,74,029,,71,02,267,,1*42,1621218711980
$GAGSV,3,1,09,01,40,334,20,13,35,046,39,26,68,136,30,27,13,097,19,7*7B,1621218711980
$GAGSV,3,2,09,04,15,274,,19,18,216,,21,49,050,,31,00,000,,7*77,1621218711980
$GAGSV,3,3,09,33,28,195,,7*4D,1621218711980
$GAGSV,1,1,03,01,40,334,22,13,35,046,25,26,68,136,30,1*4B,1621218711980
$GQGSV,1,1,03,-190,61,068,30,-189,64,063,30,-191,10,156,,1*47,1621218711980
$GQGSV,1,1,02,-190,61,068,33,-189,64,063,33,8*68,1621218711980
$GBGSV,4,1,16,27,71,025,31,01,47,122,,02,45,233,,03,61,188,,1*75,1621218711980
$GBGSV,4,2,16,04,33,109,,05,22,253,,06,34,188,,07,56,009,,1*77,1621218711980
$GBGSV,4,3,16,08,35,157,,09,49,219,,10,49,324,,13,21,178,,1*73,1621218711980
$GBGSV,4,4,16,16,37,194,,20,00,000,,23,03,126,,28,17,036,,1*72,1621218711980
$GNGSA,A,3,01,07,08,21,27,,,,,,,,1.0,0.7,0.7,1*38,1621218711996
$GNGSA,A,3,73,80,,,,,,,,,,,1.0,0.7,0.7,2*3F,1621218711996
$GNGSA,A,3,01,13,26,27,,,,,,,,,1.0,0.7,0.7,3*30,1621218711996
$GNGSA,A,3,27,,,,,,,,,,,,1.0,0.7,0.7,4*30,1621218711996
$GNGSA,A,3,02,03,,,,,,,,,,,1.0,0.7,0.7,5*35,1621218711996
$GNVTG,142.3,T,142.3,M,13.0,N,24.0,K,A*39,1621218711996
$GNDTM,P90,,0000.000018,S,00000.000001,W,0.993,W84*47,1621218711996
$GNRMC,023315.00,A,2218.054299,N,11410.740145,E,13.0,142.3,170521,2.2,W,A,V*7F,1621218711996
$GNGNS,023315.00,2218.054299,N,11410.740145,E,AAAAAN,14,0.7,7.0,-1.3,,,V*3D,1621218711996
$GNGGA,023315.00,2218.054299,N,11410.740145,E,1,12,0.7,7.0,M,-1.3,M,,*64,1621218711996
$GPGSV,4,1,13,01,40,168,27,04,21,195,26,07,54,320,22,08,54,009,32,1*64,1621218712979
$GPGSV,4,2,13,09,28,233,24,16,16,075,23,21,59,133,38,27,24,035,28,1*6E,1621218712979
$GPGSV,4,3,13,30,16,319,23,14,02,291,,17,04,233,,22,07,150,,1*61,1621218712979
$GPGSV,4,4,13,26,02,094,,1*5D,1621218712979
$GPGSV,1,1,04,01,40,168,30,08,54,009,35,09,28,233,25,27,24,035,28,8*6F,1621218712979
$GLGSV,2,1,07,82,24,025,25,73,37,347,24,80,52,066,24,79,12,116,14,1*71,1621218712979
$GLGSV,2,2,07,84,40,203,,83,74,029,,71,02,267,,1*42,1621218712979
$GAGSV,3,1,09,01,40,334,20,13,35,046,37,26,68,136,31,27,13,097,19,7*74,1621218712979
$GAGSV,3,2,09,04,15,274,,19,18,216,,21,49,050,,31,00,000,,7*77,1621218712979
$GAGSV,3,3,09,33,28,195,,7*4D,1621218712979
$GAGSV,1,1,03,01,40,334,22,13,35,046,34,26,68,136,31,1*4A,1621218712979
$GQGSV,1,1,03,-191,10,156,17,-190,61,068,31,-189,64,063,28,1*49,1621218712979
$GQGSV,1,1,02,-190,61,068,32,-189,64,063,33,8*69,1621218712979
$GBGSV,4,1,16,27,71,025,30,01,47,122,,02,45,233,,03,61,188,,1*74,1621218712979
$GBGSV,4,2,16,04,33,109,,05,22,253,,06,34,188,,07,56,009,,1*77,1621218712979
$GBGSV,4,3,16,08,35,157,,09,49,219,,10,49,324,,13,21,178,,1*73,1621218712979
$GBGSV,4,4,16,16,37,194,,20,00,000,,23,03,126,,28,17,036,,1*72,1621218712979
$GNGSA,A,3,01,07,08,21,27,,,,,,,,1.0,0.7,0.7,1*38,1621218712995
$GNGSA,A,3,73,80,,,,,,,,,,,1.0,0.7,0.7,2*3F,1621218712995
$GNGSA,A,3,13,26,,,,,,,,,,,1.0,0.7,0.7,3*34,1621218712995
$GNGSA,A,3,27,,,,,,,,,,,,1.0,0.7,0.7,4*30,1621218712995
$GNGSA,A,3,01,02,03,,,,,,,,,,1.0,0.7,0.7,5*34,1621218712995
$GNVTG,144.9,T,144.9,M,14.4,N,26.7,K,A*3F,1621218712995
$GNDTM,P90,,0000.000018,S,00000.000001,W,0.993,W84*47,1621218712995
$GNRMC,023316.00,A,2218.051195,N,11410.742799,E,14.4,144.9,170521,2.2,W,A,V*7C,1621218712995
$GNGNS,023316.00,2218.051195,N,11410.742799,E,AAAAAN,13,0.7,6.8,-1.3,,,V*3F,1621218712995
$GNGGA,023316.00,2218.051195,N,11410.742799,E,1,12,0.7,6.8,M,-1.3,M,,*61,1621218712995
$GPGSV,4,1,13,01,40,168,30,04,21,195,26,07,54,320,21,08,54,009,29,1*6B,1621218713980
$GPGSV,4,2,13,09,28,233,26,16,16,075,18,21,59,133,39,22,07,150,17,1*6F,1621218713980
$GPGSV,4,3,13,27,24,035,30,30,16,319,23,14,02,291,,17,04,233,,1*64,1621218713980
$GPGSV,4,4,13,26,02,094,,1*5D,1621218713980
$GPGSV,1,1,04,01,40,168,27,08,54,009,31,09,28,233,25,27,24,035,26,8*63,1621218713980
$GLGSV,2,1,07,82,24,025,25,73,37,347,25,80,52,066,24,79,12,116,14,1*70,1621218713980
$GLGSV,2,2,07,84,40,203,,83,74,029,,71,02,267,,1*42,1621218713980
$GAGSV,3,1,09,01,40,334,20,13,35,046,36,26,68,136,32,27,13,097,22,7*7E,1621218713980
$GAGSV,3,2,09,04,15,274,,19,18,216,,21,49,050,,31,00,000,,7*77,1621218713980
$GAGSV,3,3,09,33,28,195,,7*4D,1621218713980
$GAGSV,1,1,03,01,40,334,22,13,35,046,33,26,68,136,30,1*4C,1621218713980
$GQGSV,1,1,03,-191,10,156,17,-190,61,068,21,-189,64,063,27,1*47,1621218713980
$GQGSV,1,1,02,-190,61,068,32,-189,64,063,32,8*68,1621218713980
$GBGSV,4,1,16,27,71,025,30,01,47,122,,02,45,233,,03,61,188,,1*74,1621218713980
$GBGSV,4,2,16,04,33,109,,05,22,253,,06,34,188,,07,56,009,,1*77,1621218713980
$GBGSV,4,3,16,08,35,157,,09,49,219,,10,49,324,,13,21,178,,1*73,1621218713980
$GBGSV,4,4,16,16,37,194,,20,00,000,,23,03,126,,28,17,036,,1*72,1621218713980
$GNGSA,A,3,01,08,21,27,,,,,,,,,1.0,0.7,0.7,1*3F,1621218713995
$GNGSA,A,3,73,,,,,,,,,,,,1.0,0.7,0.7,2*37,1621218713995
$GNGSA,A,3,13,26,,,,,,,,,,,1.0,0.7,0.7,3*34,1621218713995
$GNGSA,A,3,27,,,,,,,,,,,,1.0,0.7,0.7,4*30,1621218713995
$GNGSA,A,3,03,,,,,,,,,,,,1.0,0.7,0.7,5*37,1621218713995
$GNVTG,143.3,T,143.3,M,15.4,N,28.4,K,A*33,1621218713995
$GNDTM,P90,,0000.000018,S,00000.000001,W,0.993,W84*47,1621218713995
$GNRMC,023317.00,A,2218.047797,N,11410.745639,E,15.4,143.3,170521,2.2,W,A,V*7E,1621218713995
$GNGNS,023317.00,2218.047797,N,11410.745639,E,AAAAAN,09,0.7,6.6,-1.2,,,V*35,1621218713995
$GNGGA,023317.00,2218.047797,N,11410.745639,E,1,09,0.7,6.6,M,-1.2,M,,*6A,1621218713995
$GPGSV,4,1,13,01,40,168,23,04,21,195,24,07,54,320,27,08,54,009,25,1*61,1621218714987
$GPGSV,4,2,13,09,28,233,28,16,16,075,18,21,59,133,38,22,07,150,18,1*6F,1621218714987
$GPGSV,4,3,13,27,24,035,28,30,16,319,23,14,02,291,,17,04,233,,1*6D,1621218714987
$GPGSV,4,4,13,26,02,094,,1*5D,1621218714987
$GPGSV,1,1,04,01,40,168,23,08,54,009,31,09,28,233,20,27,24,035,24,8*60,1621218714987
$GLGSV,2,1,07,82,24,025,25,73,37,347,27,80,52,066,24,79,12,116,18,1*7E,1621218714987
$GLGSV,2,2,07,84,40,203,,83,74,029,,71,02,267,,1*42,1621218714987
$GAGSV,3,1,09,01,40,334,22,13,35,046,39,26,68,136,30,27,13,097,24,7*77,1621218714987
$GAGSV,3,2,09,04,15,274,,19,18,216,,21,49,050,,31,00,000,,7*77,1621218714987
$GAGSV,3,3,09,33,28,195,,7*4D,1621218714987
$GAGSV,1,1,03,01,40,334,15,13,35,046,32,26,68,136,28,1*40,1621218714987
$GQGSV,1,1,03,-191,10,156,26,-190,61,068,21,-189,64,063,27,1*45,1621218714987
$GQGSV,1,1,02,-190,61,068,32,-189,64,063,32,8*68,1621218714987
$GBGSV,4,1,16,27,71,025,31,01,47,122,,02,45,233,,03,61,188,,1*75,1621218714987
$GBGSV,4,2,16,04,33,109,,05,22,253,,06,34,188,,07,56,009,,1*77,1621218714987
$GBGSV,4,3,16,08,35,157,,09,49,219,,10,49,324,,13,21,178,,1*73,1621218714987
$GBGSV,4,4,16,16,37,194,,20,00,000,,23,03,126,,28,17,036,,1*72,1621218714987
$GNGSA,A,3,01,04,07,08,21,27,,,,,,,1.0,0.7,0.7,1*3C,1621218715003
$GNGSA,A,3,73,79,,,,,,,,,,,1.0,0.7,0.7,2*39,1621218715003
$GNGSA,A,3,01,13,26,27,,,,,,,,,1.0,0.7,0.7,3*30,1621218715003
$GNGSA,A,3,27,,,,,,,,,,,,1.0,0.7,0.7,4*30,1621218715003
$GNGSA,A,3,01,,,,,,,,,,,,1.0,0.7,0.7,5*35,1621218715003
$GNVTG,139.3,T,139.3,M,16.8,N,31.1,K,A*31,1621218715003
$GNDTM,P90,,0000.000018,S,00000.000001,W,0.993,W84*47,1621218715003
$GNRMC,023318.00,A,2218.044279,N,11410.748806,E,16.8,139.3,170521,2.2,W,A,V*7A,1621218715003
$GNGNS,023318.00,2218.044279,N,11410.748806,E,AAAAAN,14,0.7,6.6,-1.2,,,V*3F,1621218715003
$GNGGA,023318.00,2218.044279,N,11410.748806,E,1,12,0.7,6.6,M,-1.2,M,,*66,1621218715003
$GPGSV,4,1,13,01,40,168,22,04,21,195,25,07,54,320,30,08,54,009,30,1*63,1621218715978
$GPGSV,4,2,13,09,28,233,25,16,16,075,18,21,59,133,36,22,07,150,19,1*6D,1621218715978
$GPGSV,4,3,13,27,24,035,29,30,16,319,24,14,02,291,,17,04,233,,1*6B,1621218715978
$GPGSV,4,4,13,26,02,094,,1*5D,1621218715978
$GPGSV,1,1,04,01,40,168,25,08,54,009,31,09,28,233,32,27,24,035,23,8*62,1621218715978
$GLGSV,2,1,07,82,24,025,25,73,37,347,30,80,52,066,24,79,12,116,22,1*71,1621218715978
$GLGSV,2,2,07,84,40,203,,83,74,029,,71,02,267,,1*42,1621218715978
$GAGSV,3,1,09,01,40,334,22,13,35,046,22,26,68,136,30,27,13,097,25,7*7C,1621218715978
$GAGSV,3,2,09,04,15,274,,19,18,216,,21,49,050,,31,00,000,,7*77,1621218715978
$GAGSV,3,3,09,33,28,195,,7*4D,1621218715978
$GAGSV,1,1,03,01,40,334,22,13,35,046,32,26,68,136,27,1*4B,1621218715978
$GQGSV,1,1,03,-191,10,156,29,-190,61,068,21,-189,64,063,27,1*4A,1621218715978
$GQGSV,1,1,02,-190,61,068,32,-189,64,063,32,8*68,1621218715978
$GBGSV,4,1,16,27,71,025,29,01,47,122,,02,45,233,,03,61,188,,1*7C,1621218715978
$GBGSV,4,2,16,04,33,109,,05,22,253,,06,34,188,,07,56,009,,1*77,1621218715978
$GBGSV,4,3,16,08,35,157,,09,49,219,,10,49,324,,13,21,178,,1*73,1621218715978
$GBGSV,4,4,16,16,37,194,,20,00,000,,23,03,126,,28,17,036,,1*72,1621218715978
$GNGSA,A,3,01,07,08,09,21,27,30,,,,,,1.0,0.7,0.7,1*32,1621218715992
$GNGSA,A,3,73,79,,,,,,,,,,,1.0,0.7,0.7,2*39,1621218715992
$GNGSA,A,3,01,13,26,27,,,,,,,,,1.0,0.7,0.7,3*30,1621218715992
$GNGSA,A,3,27,,,,,,,,,,,,1.0,0.7,0.7,4*30,1621218715992
$GNGSA,A,3,01,,,,,,,,,,,,1.0,0.7,0.7,5*35,1621218715992
$GNVTG,138.0,T,138.0,M,17.5,N,32.4,K,A*3B,1621218715992
$GNDTM,P90,,0000.000018,S,00000.000001,W,0.993,W84*47,1621218715992
$GNRMC,023319.00,A,2218.040629,N,11410.752244,E,17.5,138.0,170521,2.2,W,A,V*77,1621218715992
$GNGNS,023319.00,2218.040629,N,11410.752244,E,AAAAAN,15,0.7,7.5,-1.2,,,V*3F,1621218715992
$GNGGA,023319.00,2218.040629,N,11410.752244,E,1,12,0.7,7.5,M,-1.2,M,,*67,1621218715992
$GPGSV,4,1,13,01,40,168,24,04,21,195,22,07,54,320,30,08,54,009,28,1*6B,1621218716979
$GPGSV,4,2,13,09,28,233,30,16,16,075,19,21,59,133,36,22,07,150,20,1*62,1621218716979
$GPGSV,4,3,13,27,24,035,28,30,16,319,23,14,02,291,,17,04,233,,1*6D,1621218716979
$GPGSV,4,4,13,26,02,094,,1*5D,1621218716979
$GPGSV,1,1,04,01,40,168,24,08,54,009,30,09,28,233,33,27,24,035,23,8*63,1621218716979
$GLGSV,2,1,07,82,24,025,25,73,37,347,35,80,52,066,24,79,12,116,31,1*76,1621218716979
$GLGSV,2,2,07,84,40,203,19,83,74,029,,71,02,267,,1*4A,1621218716979
$GAGSV,3,1,09,01,40,334,24,13,35,046,22,26,68,136,30,27,13,097,25,7*7A,1621218716979
$GAGSV,3,2,09,04,15,274,,19,18,216,,21,49,050,,31,00,000,,7*77,1621218716979
$GAGSV,3,3,09,33,28,195,,7*4D,1621218716979
$GAGSV,1,1,03,01,40,334,22,13,35,046,32,26,68,136,27,1*4B,1621218716979
$GQGSV,1,1,03,-191,10,156,22,-190,61,068,21,-189,64,063,27,1*41,1621218716979
$GQGSV,1,1,02,-190,61,068,32,-189,64,063,32,8*68,1621218716979
$GBGSV,4,1,16,27,71,025,28,01,47,122,,02,45,233,,03,61,188,,1*7D,1621218716979
$GBGSV,4,2,16,04,33,109,,05,22,253,,06,34,188,,07,56,009,,1*77,1621218716979
$GBGSV,4,3,16,08,35,157,,09,49,219,,10,49,324,,13,21,178,,1*73,1621218716979
$GBGSV,4,4,16,16,37,194,,20,00,000,,23,03,126,,28,17,036,,1*72,1621218716979
$GNGSA,A,3,01,04,07,08,09,16,21,,,,,,0.9,0.7,0.7,1*3F,1621218716993
$GNGSA,A,3,73,79,,,,,,,,,,,0.9,0.7,0.7,2*31,1621218716993
$GNGSA,A,3,01,26,,,,,,,,,,,0.9,0.7,0.7,3*3F,1621218716993
$GNGSA,A,3,27,,,,,,,,,,,,0.9,0.7,0.7,4*38,1621218716993
$GNGSA,A,3,01,,,,,,,,,,,,0.9,0.7,0.7,5*3D,1621218716993
$GNVTG,138.0,T,138.0,M,18.2,N,33.8,K,A*3E,1621218716993
$GNDTM,P90,,0000.000018,S,00000.000001,W,0.993,W84*47,1621218716993
$GNRMC,023320.00,A,2218.036957,N,11410.755642,E,18.2,138.0,170521,2.2,W,A,V*77,1621218716993
$GNGNS,023320.00,2218.036957,N,11410.755642,E,AAAAAN,13,0.7,7.7,-1.2,,,V*33,1621218716993
$GNGGA,023320.00,2218.036957,N,11410.755642,E,1,12,0.7,7.7,M,-1.2,M,,*6D,1621218716993
$GPGSV,4,1,13,01,40,168,27,04,21,195,22,07,54,320,30,08,54,009,25,1*65,1621218717981
$GPGSV,4,2,13,09,28,233,30,16,16,075,19,21,59,133,36,22,07,150,20,1*62,1621218717981
$GPGSV,4,3,13,27,24,035,24,30,16,319,22,14,02,291,,17,04,233,,1*60,1621218717981
$GPGSV,4,4,13,26,02,094,,1*5D,1621218717981
$GPGSV,1,1,04,01,40,168,31,08,54,009,23,09,28,233,32,27,24,035,23,8*64,1621218717981
$GLGSV,2,1,07,82,24,025,25,73,37,347,27,80,52,066,18,79,12,116,37,1*7C,1621218717981
$GLGSV,2,2,07,84,40,203,19,83,74,029,,71,02,267,,1*4A,1621218717981
$GAGSV,3,1,09,01,40,334,31,13,35,046,21,26,68,136,31,27,13,097,21,7*78,1621218717981
$GAGSV,3,2,09,04,15,274,,19,18,216,,21,49,050,,31,00,000,,7*77,1621218717981
$GAGSV,3,3,09,33,28,195,,7*4D,1621218717981
$GAGSV,1,1,03,01,40,334,20,13,35,046,32,26,68,136,27,1*49,1621218717981
$GQGSV,1,1,03,-191,10,156,21,-190,61,068,23,-189,64,063,26,1*41,1621218717981
$GQGSV,1,1,02,-190,61,068,20,-189,64,063,20,8*68,1621218717981
$GBGSV,4,1,16,27,71,025,28,01,47,122,,02,45,233,,03,61,188,,1*7D,1621218717981
$GBGSV,4,2,16,04,33,109,,05,22,253,,06,34,188,,07,56,009,,1*77,1621218717981
$GBGSV,4,3,16,08,35,157,,09,49,219,,10,49,324,,13,21,178,,1*73,1621218717981
$GBGSV,4,4,16,16,37,194,,20,00,000,,23,03,126,,28,17,036,,1*72,1621218717981
$GNGSA,A,3,01,07,08,09,21,27,30,,,,,,0.9,0.7,0.7,1*3A,1621218717999
$GNGSA,A,3,73,79,80,,,,,,,,,,0.9,0.7,0.7,2*39,1621218717999
$GNGSA,A,3,01,13,26,27,,,,,,,,,0.9,0.7,0.7,3*38,1621218717999
$GNGSA,A,3,02,03,,,,,,,,,,,0.9,0.7,0.7,5*3D,1621218717999
$GNVTG,138.5,T,138.5,M,19.1,N,35.5,K,A*37,1621218717999
$GNDTM,P90,,0000.000018,S,00000.000001,W,0.993,W84*47,1621218717999
$GNRMC,023321.00,A,2218.032905,N,11410.759142,E,19.1,138.5,170521,2.2,W,A,V*79,1621218717999
$GNGNS,023321.00,2218.032905,N,11410.759142,E,AAANAN,16,0.7,7.5,-1.2,,,V*32,1621218717999
$GNGGA,023321.00,2218.032905,N,11410.759142,E,1,12,0.7,7.5,M,-1.2,M,,*66,1621218717999
$GPGSV,4,1,13,01,40,168,27,04,21,195,22,07,54,320,29,08,54,009,24,1*6C,1621218718980
$GPGSV,4,2,13,09,28,233,28,16,16,075,19,21,59,133,36,22,07,150,20,1*6B,1621218718980
$GPGSV,4,3,13,27,24,035,24,30,16,319,21,14,02,291,,17,04,233,,1*63,1621218718980
$GPGSV,4,4,13,26,02,094,,1*5D,1621218718980
$GPGSV,1,1,04,01,40,168,31,08,54,009,24,09,28,233,29,27,24,035,23,8*69,1621218718980
$GLGSV,2,1,07,82,24,025,25,73,37,347,26,80,52,066,29,79,12,116,38,1*70,1621218718980
$GLGSV,2,2,07,84,40,203,19,83,74,029,,71,02,267,,1*4A,1621218718980
$GAGSV,3,1,09,01,40,334,24,13,35,046,21,26,68,136,30,27,13,097,21,7*7D,1621218718980
$GAGSV,3,2,09,04,15,274,,19,18,216,,21,49,050,,31,00,000,,7*77,1621218718980
$GAGSV,3,3,09,33,28,195,,7*4D,1621218718980
$GAGSV,1,1,03,01,40,334,20,13,35,046,32,26,68,136,28,1*46,1621218718980
$GQGSV,1,1,03,-191,10,156,21,-190,61,068,29,-189,64,063,37,1*4B,1621218718980
$GQGSV,1,1,02,-190,61,068,30,-189,64,063,31,8*69,1621218718980
$GBGSV,4,1,16,27,71,025,20,01,47,122,,02,45,233,,03,61,188,,1*75,1621218718980
$GBGSV,4,2,16,04,33,109,,05,22,253,,06,34,188,,07,56,009,,1*77,1621218718980
$GBGSV,4,3,16,08,35,157,,09,49,219,,10,49,324,,13,21,178,,1*73,1621218718980
$GBGSV,4,4,16,16,37,194,,20,00,000,,23,03,126,,28,17,036,,1*72,1621218718980
$GNGSA,A,3,01,07,08,21,30,,,,,,,,0.9,0.7,0.7,1*36,1621218718995
$GNGSA,A,3,73,79,80,,,,,,,,,,0.9,0.7,0.7,2*39,1621218718995
$GNGSA,A,3,01,26,,,,,,,,,,,0.9,0.7,0.7,3*3F,1621218718995
$GNGSA,A,3,27,,,,,,,,,,,,0.9,0.7,0.7,4*38,1621218718995
$GNGSA,A,3,02,03,,,,,,,,,,,0.9,0.7,0.7,5*3D,1621218718995
$GNVTG,137.9,T,137.9,M,19.3,N,35.7,K,A*37,1621218718995
$GNDTM,P90,,0000.000018,S,00000.000001,W,0.993,W84*47,1621218718995
$GNRMC,023322.00,A,2218.029078,N,11410.763275,E,19.3,137.9,170521,2.2,W,A,V*7C,1621218718995
$GNGNS,023322.00,2218.029078,N,11410.763275,E,AAAAAN,13,0.7,8.1,-1.2,,,V*37,1621218718995
$GNGGA,023322.00,2218.029078,N,11410.763275,E,1,12,0.7,8.1,M,-1.2,M,,*69,1621218718995
$GPGSV,4,1,13,01,40,168,28,07,54,320,31,08,54,009,35,09,28,233,33,1*61,1621218719981
$GPGSV,4,2,13,16,16,075,19,21,59,133,37,22,07,150,20,27,24,035,21,1*67,1621218719981
$GPGSV,4,3,13,30,16,319,23,04,21,195,,14,02,291,,17,04,233,,1*68,1621218719981
$GPGSV,4,4,13,26,02,094,,1*5D,1621218719981
$GPGSV,1,1,04,01,40,168,28,08,54,009,34,09,28,233,32,27,24,035,23,8*6A,1621218719981
$GLGSV,2,1,07,82,24,025,25,73,37,347,23,80,52,066,27,79,12,116,40,1*74,1621218719981
$GLGSV,2,2,07,84,40,203,19,83,74,029,,71,02,267,,1*4A,1621218719981
$GAGSV,3,1,09,01,40,334,24,13,35,046,20,26,68,136,33,27,13,097,21,7*7F,1621218719981
$GAGSV,3,2,09,04,15,274,,19,18,216,,21,49,050,,31,00,000,,7*77,1621218719981
$GAGSV,3,3,09,33,28,195,,7*4D,1621218719981
$GAGSV,1,1,03,01,40,334,20,13,35,046,32,26,68,136,28,1*46,1621218719981
$GQGSV,1,1,03,-191,10,156,21,-190,61,068,31,-189,64,063,38,1*4D,1621218719981
$GQGSV,1,1,02,-190,61,068,30,-189,64,063,33,8*6B,1621218719981
$GBGSV,4,1,16,27,71,025,20,01,47,122,,02,45,233,,03,61,188,,1*75,1621218719981
$GBGSV,4,2,16,04,33,109,,05,22,253,,06,34,188,,07,56,009,,1*77,1621218719981
$GBGSV,4,3,16,08,35,157,,09,49,219,,10,49,324,,13,21,178,,1*73,1621218719981
$GBGSV,4,4,16,16,37,194,,20,00,000,,23,03,126,,28,17,036,,1*72,1621218719981
$GNGSA,A,3,01,07,08,21,,,,,,,,,0.9,0.7,0.7,1*35,1621218719995
$GNGSA,A,3,79,80,,,,,,,,,,,0.9,0.7,0.7,2*3D,1621218719995
$GNGSA,A,3,26,,,,,,,,,,,,0.9,0.7,0.7,3*3E,1621218719995
$GNGSA,A,3,02,03,,,,,,,,,,,0.9,0.7,0.7,5*3D,1621218719995
$GNVTG,137.9,T,137.9,M,19.3,N,35.7,K,A*37,1621218719995
$GNDTM,P90,,0000.000018,S,00000.000001,W,0.993,W84*47,1621218719995
$GNRMC,023323.00,A,2218.025075,N,11410.767136,E,19.3,137.9,170521,2.2,W,A,V*7C,1621218719995
$GNGNS,023323.00,2218.025075,N,11410.767136,E,AAANAN,09,0.7,8.4,-1.2,,,V*36,1621218719995
$GNGGA,023323.00,2218.025075,N,11410.767136,E,1,09,0.7,8.4,M,-1.2,M,,*66,1621218719995
$GPGSV,4,1,13,01,40,168,26,04,21,195,23,07,54,320,30,08,54,009,33,1*62,1621218720981
$GPGSV,4,2,13,09,28,233,35,16,16,075,18,21,59,133,37,22,07,150,20,1*67,1621218720981
$GPGSV,4,3,13,27,24,035,31,30,16,319,21,14,02,291,,17,04,233,,1*67,1621218720981
$GPGSV,4,4,13,26,02,094,,1*5D,1621218720981
$GPGSV,1,1,04,01,40,168,23,08,54,009,32,09,28,233,29,27,24,035,23,8*6D,1621218720981
$GLGSV,2,1,07,82,24,025,25,73,37,347,25,80,52,066,33,79,12,116,35,1*75,1621218720981
$GLGSV,2,2,07,84,40,203,19,83,74,029,,71,02,267,,1*4A,1621218720981
$GAGSV,3,1,09,01,40,334,21,13,35,046,28,26,68,136,32,27,13,097,21,7*73,1621218720981
$GAGSV,3,2,09,04,15,274,,19,18,216,,21,49,050,,31,00,000,,7*77,1621218720981
$GAGSV,3,3,09,33,28,195,,7*4D,1621218720981
$GAGSV,1,1,03,01,40,334,20,13,35,046,20,26,68,136,27,1*4A,1621218720981
$GQGSV,1,1,03,-191,10,156,19,-190,61,068,32,-189,64,063,36,1*4B,1621218720981
$GQGSV,1,1,02,-190,61,068,27,-189,64,063,32,8*6C,1621218720981
$GBGSV,4,1,16,27,71,025,22,01,47,122,,02,45,233,,03,61,188,,1*77,1621218720981
$GBGSV,4,2,16,04,33,109,,05,22,253,,06,34,188,,07,56,009,,1*77,1621218720981
$GBGSV,4,3,16,08,35,157,,09,49,219,,10,49,324,,13,21,178,,1*73,1621218720981
$GBGSV,4,4,16,16,37,194,,20,00,000,,23,03,126,,28,17,036,,1*72,1621218720981
$GNGSA,A,3,01,04,07,08,16,21,30,,,,,,0.9,0.7,0.7,1*35,1621218720999
$GNGSA,A,3,73,79,80,,,,,,,,,,0.9,0.7,0.7,2*39,1621218720999
$GNGSA,A,3,01,13,26,,,,,,,,,,0.9,0.7,0.7,3*3D,1621218720999
$GNGSA,A,3,27,,,,,,,,,,,,0.9,0.7,0.7,4*38,1621218720999
$GNGSA,A,3,01,02,03,,,,,,,,,,0.9,0.7,0.7,5*3C,1621218720999
$GNVTG,138.0,T,138.0,M,18.9,N,34.9,K,A*33,1621218720999
$GNDTM,P90,,0000.000018,S,00000.000001,W,0.993,W84*47,1621218720999
$GNRMC,023324.00,A,2218.021022,N,11410.771092,E,18.9,138.0,170521,2.2,W,A,V*78,1621218720999
$GNGNS,023324.00,2218.021022,N,11410.771092,E,AAAAAN,17,0.7,9.0,-1.2,,,V*3A,1621218720999
$GNGGA,023324.00,2218.021022,N,11410.771092,E,1,12,0.7,9.0,M,-1.2,M,,*60,1621218720999
$GPGSV,4,1,13,01,40,168,27,04,21,195,22,07,54,320,30,08,54,009,30,1*61,1621218721979
$GPGSV,4,2,13,09,28,233,26,16,16,075,21,21,59,133,35,22,07,150,20,1*6D,1621218721979
$GPGSV,4,3,13,27,24,035,27,30,16,319,23,14,02,291,,17,04,233,,1*62,1621218721979
$GPGSV,4,4,13,26,02,094,,1*5D,1621218721979
$GPGSV,1,1,04,01,40,168,23,08,54,009,26,09,28,233,23,27,24,035,28,8*69,1621218721979
$GLGSV,2,1,07,82,24,025,25,73,37,347,30,80,52,066,29,79,12,116,27,1*79,1621218721979
$GLGSV,2,2,07,84,40,203,19,83,74,029,,71,02,267,,1*4A,1621218721979
$GAGSV,3,1,09,01,40,334,21,13,35,046,40,26,68,136,28,27,13,097,21,7*76,1621218721979
$GAGSV,3,2,09,04,15,274,,19,18,216,,21,49,050,,31,00,000,,7*77,1621218721979
$GAGSV,3,3,09,33,28,195,,7*4D,1621218721979
$GAGSV,1,1,03,01,40,334,18,13,35,046,29,26,68,136,28,1*47,1621218721979
$GQGSV,1,1,03,-191,10,156,19,-190,61,068,31,-189,64,063,37,1*49,1621218721979
$GQGSV,1,1,02,-190,61,068,34,-189,64,063,30,8*6C,1621218721979
$GBGSV,4,1,16,27,71,025,25,01,47,122,,02,45,233,,03,61,188,,1*70,1621218721979
$GBGSV,4,2,16,04,33,109,,05,22,253,,06,34,188,,07,56,009,,1*77,1621218721979
$GBGSV,4,3,16,08,35,157,,09,49,219,,10,49,324,,13,21,178,,1*73,1621218721979
$GBGSV,4,4,16,16,37,194,,20,00,000,,23,03,126,,28,17,036,,1*72,1621218721979
$GNGSA,A,3,01,07,08,21,27,,,,,,,,0.9,0.7,0.7,1*30,1621218722002
$GNGSA,A,3,73,79,80,,,,,,,,,,0.9,0.7,0.7,2*39,1621218722002
$GNGSA,A,3,13,26,,,,,,,,,,,0.9,0.7,0.7,3*3C,1621218722002
$GNGSA,A,3,27,,,,,,,,,,,,0.9,0.7,0.7,4*38,1621218722002
$GNGSA,A,3,02,03,,,,,,,,,,,0.9,0.7,0.7,5*3D,1621218722002
$GNVTG,137.6,T,137.6,M,18.3,N,34.0,K,A*30,1621218722002
$GNDTM,P90,,0000.000018,S,00000.000001,W,0.993,W84*47,1621218722002
$GNRMC,023325.00,A,2218.017141,N,11410.774838,E,18.3,137.6,170521,2.2,W,A,V*76,1621218722002
$GNGNS,023325.00,2218.017141,N,11410.774838,E,AAAAAN,13,0.7,9.2,-1.2,,,V*31,1621218722002
$GNGGA,023325.00,2218.017141,N,11410.774838,E,1,12,0.7,9.2,M,-1.2,M,,*6F,1621218722002
$GPGSV,4,1,13,01,40,168,27,04,21,195,23,07,54,320,31,08,54,009,29,1*69,1621218722980
$GPGSV,4,2,13,09,28,233,32,16,16,075,21,21,59,133,37,22,07,150,20,1*6A,1621218722980
$GPGSV,4,3,13,27,24,035,30,30,16,319,23,14,02,291,,17,04,233,,1*64,1621218722980
$GPGSV,4,4,13,26,02,094,,1*5D,1621218722980
$GPGSV,1,1,04,01,40,168,27,08,54,009,27,09,28,233,30,27,24,035,28,8*6E,1621218722980
$GLGSV,2,1,07,82,24,025,25,73,37,347,31,80,52,066,31,79,12,116,26,1*70,1621218722980
$GLGSV,2,2,07,84,40,203,19,83,74,029,,71,02,267,,1*4A,1621218722980
$GAGSV,3,1,09,01,40,334,25,13,35,046,41,26,68,136,32,27,13,097,19,7*73,1621218722980
$GAGSV,3,2,09,04,15,274,,19,18,216,,21,49,050,,31,00,000,,7*77,1621218722980
$GAGSV,3,3,09,33,28,195,,7*4D,1621218722980
$GAGSV,1,1,03,01,40,334,18,13,35,046,31,26,68,136,28,1*4E,1621218722980
$GQGSV,1,1,03,-191,10,156,22,-190,61,068,31,-189,64,063,33,1*45,1621218722980
$GQGSV,1,1,02,-190,61,068,34,-189,64,063,35,8*69,1621218722980
$GBGSV,4,1,16,27,71,025,28,01,47,122,,02,45,233,,03,61,188,,1*7D,1621218722980
$GBGSV,4,2,16,04,33,109,,05,22,253,,06,34,188,,07,56,009,,1*77,1621218722980
$GBGSV,4,3,16,08,35,157,,09,49,219,,10,49,324,,13,21,178,,1*73,1621218722980
$GBGSV,4,4,16,16,37,194,,20,00,000,,23,03,126,,28,17,036,,1*72,1621218722980
$GNGSA,A,3,01,07,08,21,27,,,,,,,,0.9,0.7,0.7,1*30,1621218722996
$GNGSA,A,3,73,79,80,,,,,,,,,,0.9,0.7,0.7,2*39,1621218722996
$GNGSA,A,3,01,13,26,,,,,,,,,,0.9,0.7,0.7,3*3D,1621218722996
$GNGSA,A,3,27,,,,,,,,,,,,0.9,0.7,0.7,4*38,1621218722996
$GNGSA,A,3,02,03,,,,,,,,,,,0.9,0.7,0.7,5*3D,1621218722996
