     3.03           OBSERVATION DATA    M: Mixed            RINEX VERSION / TYPE
RTKCONV demo5 b33c                      20210520 074709 UTC PGM / RUN BY / DATE 
log: C:\Users\Ivan_PolyU_Dktp\Dropbox\HUAWEI Exp\20210517_  COMMENT             
format: RINEX                                               COMMENT             
Geo++                                                       MARKER NAME         
                                                            MARKER NUMBER       
                                                            MARKER TYPE         
                                                            OBSERVER / AGENCY   
unknown             Xiaomi              MI 8                REC # / TYPE / VERS 
unknown             MI 8                                    ANT # / TYPE        
 -2419261.2269  5385461.9437  2405356.1396                  APPROX POSITION XYZ 
        0.0000        0.0000        0.0000                  ANTENNA: DELTA H/E/N
G    8 C1C L1C D1C S1C C5Q L5Q D5Q S5Q                      SYS / # / OBS TYPES 
R    4 C1C L1C D1C S1C                                      SYS / # / OBS TYPES 
J    8 C1C L1C D1C S1C C5Q L5Q D5Q S5Q                      SYS / # / OBS TYPES 
  2021     5    17     2    33   13.0001954     GPS         TIME OF FIRST OBS   
  2021     5    17     2    46   19.0002637     GPS         TIME OF LAST OBS    
G                                                           SYS / PHASE SHIFT   
R                                                           SYS / PHASE SHIFT   
J                                                           SYS / PHASE SHIFT   
  3 R01  1 R09 -2 R17  4                                    GLONASS SLOT / FRQ #
 C1C    0.000 C1P    0.000 C2C    0.000 C2P    0.000        GLONASS COD/PHS/BIS 
                                                            END OF HEADER       
> 2021  5 17  2 33 13.0001954  0  6                     
G 1  21535802.874 1                      3229.858          21.250                                                                  
G 9                                                                  22982451.380 1  90188070.736 1     -1403.255          25.500  
G27  23191189.374 1                     -2923.607          18.500                                                                  
J 2  38522537.003 1                      1232.394          12.500                                                                  
R 9  21072301.249 1                      2801.455          15.750  
R15  23287566.053 1                     -2266.559          22.750  
> 2021  5 17  2 33 14.0001955  0  5                     
G 1  21535211.084 1                      3227.726          21.250                                                                  
G 9  22982857.899 1                     -1881.771          18.500    22982837.513 1  90189591.875 1     -1403.494          25.250  
G27  23191770.971 1                     -2925.124          18.750                                                                  
R 9  21071779.011 1                      2801.232          16.000  
R15  23288027.734 1                     -2266.432          22.000  
> 2021  5 17  2 33 15.0001956  0  4                     
G 1  21534625.889 1                      3218.443          21.250                                                                  
G 9  22983234.438 1                     -1881.804          16.000    22983225.444 1  90191112.706 1     -1403.185          24.500  
R 9  21071322.127 1                      2807.167          16.000  
R15  23288518.494 1                     -2269.471          21.750  
> 2021  5 17  2 33 16.0001957  0  5                     
G 1  21534038.595 1                      3224.030          20.250                                                                  
G 9  22983599.285 1                     -1879.160          16.500    22983610.977 1  90192634.050 1     -1403.700          25.000  
G27  23192943.759 1                     -2939.933          17.500                                                                  
R 9  21070832.866 1                      2804.199          19.000  
R15  23288980.774 1                     -2272.650          23.000  
> 2021  5 17  2 33 17.0001958  0  4                     
G 1  21533446.505 1                      3226.646          19.750                                                                  
G 9  22983972.827 1                     -1877.129          14.250    22984001.907 1  90194155.419 1     -1403.724          25.250  
J 2  38521709.875 1                      1239.876          13.250                                                                  
R15  23289435.859 1                     -2268.857          24.000  
> 2021  5 17  2 33 18.0001958  0  4                     
G 1  21532830.132 1                      3225.624          18.500                                                                  
G 9                                                                  22984357.460 1                     -1403.442          25.250  
R 9  21069807.876 1                      2806.390          20.000  
R15  23289854.969 1                     -2268.082          25.250  
> 2021  5 17  2 33 19.0001959  0  4                     
G 1  21532249.434 1                      3226.246          19.000                                                                  
G 9                                                                  22984747.490 1                     -1403.687          25.250  
R 9  21069351.292 1                      2804.693          21.250  
R15  23290308.855 1 124456376.95511     -2268.366          26.500  
> 2021  5 17  2 33 20.0001960  0  4                     
G 1  21531669.635 1                      3224.165          17.250                                                                  
G 9                                                                  22985133.024 1  90198602.39611     -1404.105          24.750  
R 9  21068850.938 1                      2803.232          20.750  
R15  23290759.443 1                     -2269.261          27.250  
> 2021  5 17  2 33 21.0001961  0  5                     
G 1  21531071.250 1                      3223.039          17.000                                                                  
G 9                                                                  22985521.555 1  90200123.473 1     -1403.432          25.750  
J 2  38520860.563 1                      1237.010          13.250                                                                  
R 9  21068378.465 1                      2806.154          19.250  
R15  23291192.643 1                     -2268.464          25.000  
> 2021  5 17  2 33 22.0001962  0  5                     
G 1  21530504.342 1                      3226.522          20.500                                                                  
G 9                                                                  22985907.987 1  90201642.080 1     -1400.963          26.250  
J 2  38520647.111 1                      1228.270          13.750                                                                  
R 9  21067850.231 1                      2801.610          21.500  
R15  23291644.130 1                     -2269.304          21.750  
> 2021  5 17  2 33 23.0001963  0  4                     
G 1  21529918.248 1                      3225.294          20.750                                                                  
G 9  22986283.927 1                     -1872.120          21.250    22986293.520 1  90203156.830 1     -1397.105          26.750  
R 9  21067358.871 1                      2793.793          20.250  
R15  23292086.924 1                     -2272.691          19.250  
> 2021  5 17  2 33 24.0001963  0  5                     
G 1  21529303.373 1                      3221.969          18.000                                                                  
G 9  22986645.476 1                     -1862.128          22.500    22986648.175 1  90204550.170 1     -1393.339          26.750  
G21  20574060.274 1                       969.155          19.500                                                                  
R 9  21066824.641 1                      2794.956          20.500  
R15  23292512.329 1                     -2274.092          18.250  
> 2021  5 17  2 33 25.0001964  0  5                     
G 1  21528706.786 1                      3227.777          22.250    21528722.675 1                      2414.637          20.500  
G 9  22987028.311 1                     -1859.044          24.750    22987034.607 1  90206058.783 1     -1390.968          27.750  
G21  20573899.885 1                       967.572          19.000                                                                  
R 9  21066392.340 1                      2798.113          18.500  
R15  23292973.110 1                     -2277.686          15.500  
> 2021  5 17  2 33 26.0001965  0  6                     
G 1  21528139.579 1                      3229.187          22.000    21528133.883 1                      2411.667          18.750  
G 9  22987416.243 1                     -1865.062          29.250    22987417.142 1                     -1391.283          26.750  
G16  24273138.556 1                     -1601.191          19.500                                                                  
G21  20573757.184 1                       960.240          20.250                                                                  
R 9  21065862.307 1                      2798.741          19.500  
R15  23293444.984 1                     -2277.152          15.000  
> 2021  5 17  2 33 27.0001966  0  7                     
G 1  21527558.881 1                      3227.309          20.750                                                                  
G 9  22987799.677 1                     -1868.598          25.000    22987804.474 1  90209076.41011     -1390.942          24.500  
G16  24273475.822 1                     -1602.998          16.750                                                                  
G21  20573606.988 1                       967.888          18.750                                                                  
G27  23199349.125 1                     -2928.397          14.500                                                                  
J 2  38519595.439 1                      1239.504          14.250                                                                  
R 9  21065402.425 1                      2794.960          19.500  
> 2021  5 17  2 33 28.0001967  0  7                     
G 1  21526976.984 1                      3227.060          19.000                                                                  
G 7  21054698.036 1                      2347.548          25.750                                                                  
G 9  22988201.699 1                     -1874.331          21.250    22988190.307 1                     -1446.191          18.750  
G16  24273796.600 1                     -1600.922          19.750                                                                  
G21  20573452.895 1                       975.899          18.750                                                                  
J 2  38519387.083 1                      1229.017          14.500                                                                  
R 9  21064853.206 1                      2804.183          24.500  
> 2021  5 17  2 33 29.0001968  0  7                     
G 1  21526400.783 1                      3230.624          20.750                                                                  
G 7  21054278.926 1                      2353.169          24.500                                                                  
G 9                                                                  22988573.142 1                     -1403.085          19.250  
G16  24274121.575 1                     -1589.968          18.750                                                                  
G21  20573269.722 1                       974.068          28.000                                                                  
J 2  38519178.727 1                      1240.095          17.250                                                                  
R 9  21064348.355 1                      2819.555          23.250  
> 2021  5 17  2 33 30.0001969  0  7                     
G 1  21525796.401 1                      3237.879          23.750                                                                  
G 7  21053876.005 1                      2352.040          23.250                                                                  
G 9                                                                  22988959.275 1                     -1410.957          23.000  
G16  24274454.345 1                     -1582.662          17.750                                                                  
G21  20573120.725 1 108112452.85211       974.554          31.750                                                                  
R 9  21063836.909 1                      2828.395          19.500  
R18  22181157.704 1                     -3739.735          12.750  
> 2021  5 17  2 33 31.0001970  0 10                     
G 1  21525204.911 1 113115871.89011      3236.987          30.750                                                                  
G 7  21053447.002 1                      2348.116          22.500                                                                  
G 8  21055462.207 1                     -1777.567          27.250    21055464.905 1                     -1324.096          24.750  
G 9  22989351.703 1                     -1890.123          23.000                                                                  
G16  24274809.299 1                     -1567.664          14.500                                                                  
G21  20572964.833 1 108111633.499 1       976.895          33.500                                                                  
J 2  38518762.016 1                      1247.698          29.500    38518763.515 1                       930.662          22.750  
R 9  21063339.553 1                      2829.139          19.500  
R15  23295686.232 1                     -2253.879          13.750  
R18  22182033.698 1                     -3750.231          19.500  
> 2021  5 17  2 33 32.0001971  0 13                     
G 1  21524616.418 1 113112789.649 1      3239.782          33.750                                                                  
G 7  21053028.192 1                      2345.532          25.250                                                                  
G 8  21055821.658 1                     -1777.574          26.750    21055830.652 1                     -1319.485          23.500  
G 9  22989787.601 1                     -1894.306          17.500                                                                  
G16  24275157.358 1                     -1570.553          14.750                                                                  
G21  20572811.639 1 108110812.892 1       978.150          35.000                                                                  
G27  23202270.902 1                     -2930.514          26.250                                                                  
G30  24112076.857 1                      3476.749          16.250                                                                  
J 2  38518551.262 1                      1246.667          30.500    38518563.254 1                       931.310          23.000  
R 9  21062861.984 1                      2823.495          20.000  
R15  23296125.128 1                     -2250.671          15.000  
R16  20170471.273 1                       232.985          27.250  
R18  22182683.947 1                     -3765.903          27.500  
> 2021  5 17  2 33 33.0001971  0 10                     
G 1  21523999.445 1 113109547.547 1      3242.102          33.000                                                                  
G 7  21052591.094 1                      2331.389          25.250                                                                  
G 8  21056164.920 1                     -1775.858          27.000    21056170.317 1  82628928.60311     -1322.442          26.500  
G21  20572622.170 1 108109834.137 1       978.754          34.750                                                                  
G27  23202823.719 1                     -2934.359          25.250                                                                  
J 2  38518309.629 1 202415082.71511      1247.079          29.250    38518321.921 1                       932.412          23.500  
R 9  21062384.415 1                      2816.565          19.250  
R15  23296547.836 1                     -2248.352          15.750  
R16  20170426.005 1 107746981.29311       227.414          28.250  
R18  22183404.948 1                     -3765.137          28.000  
> 2021  5 17  2 33 34.0001972  0 11                     
G 1                                                                  21523404.957 1                      2426.889          19.500  
G 7  21052175.582 1 110629912.14411      2330.170          26.750                                                                  
G 8  21056531.567 1                     -1776.987          29.250    21056537.562 1                     -1325.081          30.750  
G21  20572465.079 1 108109011.177 1       980.502          35.250                                                                  
G27  23203414.011 1                     -2934.942          27.000                                                                  
J 1  37356224.424 1                      -200.943          18.500                                                                  
J 2  38518103.672 1 202413992.044 1      1248.213          27.750    38518107.869 1 151153346.19411       931.326          23.000  
R 9  21061889.757 1                      2814.241          18.750  
R15  23297015.212 1                     -2244.573          16.750  
R16  20170411.615 1 107746914.117 1       227.319          28.250  
R18  22184130.446 1                     -3769.234          25.500  
> 2021  5 17  2 33 35.0001973  0 11                     
G 1  21522836.251 1                      3244.832          25.500                                                                  
G 7  21051758.571 1 110627743.225 1      2326.461          26.750                                                                  
G 8  21056893.716 1                     -1777.254          27.250    21056908.106 1                     -1337.592          25.500  
G21  20572310.985 1 108108188.721 1       979.998          34.000                                                                  
G27  23203997.107 1                     -2938.516          27.000                                                                  
J 1  37356292.177 1                      -211.355          17.000    37356300.871 1                      -147.114          20.500  
J 2                                                                  38517898.314 1                       918.384          18.250  
R 9  21061384.007 1                      2814.490          18.500  
R15  23297531.754 1                     -2246.001          19.750  
R16  20170406.818 1                       226.186          23.250  
R18  22184866.137 1                     -3769.234          26.000  
> 2021  5 17  2 33 36.0001974  0 13                     
G 1  21522246.559 1                      3245.755          21.500                                                                  
G 4  23667348.236 1                     -2710.455          19.250                                                                  
G 7  21051342.159 1                      2322.514          26.500                                                                  
G 8                                                                  21057280.448 1                     -1347.208          22.250  
G21  20572151.496 1 108107365.822 1       980.441          34.000                                                                  
G27  23204589.197 1                     -2938.305          26.500                                                                  
G30  24109531.319 1                      3457.131          21.500                                                                  
J 1  37356377.018 1                      -196.139          20.250    37356370.723 1                      -151.594          19.500  
J 2  38517681.264 1                      1231.806          18.000                                                                  
R 9  21060868.064 1                      2822.708          18.500  
R15  23297994.634 1                     -2245.652          19.500  
R16  20170394.826 1                       222.396          18.750  
R18  22185593.433 1                     -3789.068          25.000  
> 2021  5 17  2 33 37.0001975  0 12                     
G 1  21521669.158 1                      3244.304          19.500                                                                  
G 4  23667889.661 1                     -2707.444          16.750                                                                  
G 7  21050936.240 1                      2320.110          25.750                                                                  
G 8                                                                  21057655.788 1                     -1352.569          20.000  
G 9  22991656.208 1                     -1850.424          22.750                                                                  
G21  20572000.400 1 108106542.154 1       981.211          34.000                                                                  
G27  23205178.889 1 121944083.64111     -2938.953          25.000                                                                  
G30  24108905.052 1                      3448.479          21.250                                                                  
J 1                                                                  37356436.377 1                      -145.031          19.500  
R 9  21060384.499 1                      2831.516          19.000  
R15  23298408.348 1                     -2234.033          19.000  
R18  22186346.212 1                     -3787.179          26.000  
> 2021  5 17  2 33 38.0001976  0  9                     
G 4  23668464.363 1                     -2702.249          17.000                                                                  
G 7  21050523.426 1                      2319.484          25.250                                                                  
G 8  21058028.730 1                     -1787.468          20.500                                                                  
G 9                                                                  22992040.242 1                     -1411.924          24.750  
G21  20571840.611 1 108105717.771 1       981.925          34.000                                                                  
G27  23205779.373 1                     -2938.067          20.250                                                                  
G30  24108271.591 1                      3449.000          19.500                                                                  
R 9  21059846.372 1                      2830.741          28.000  
R15  23298820.862 1                     -2232.054          22.500  
> 2021  5 17  2 33 39.0001977  0 10                     
G 1  21520485.278 1                      3248.364          23.500    21520482.280 1  84450919.79111      2426.655          30.250  
G 4  23669022.277 1                     -2702.723          15.750                                                                  
G 7  21050123.503 1                      2318.969          28.250                                                                  
G 9                                                                  22992426.674 1                     -1415.937          26.000  
G21  20571679.922 1 108104892.589 1       982.724          35.750                                                                  
G27  23206373.262 1                     -2933.962          16.000                                                                  
G30  24107643.825 1                      3450.099          19.250                                                                  
J 1  37356685.505 1                      -185.080          20.500                                                                  
R 9  21059354.412 1                      2829.568          23.250  
R15  23299278.645 1                     -2229.614          24.250  
> 2021  5 17  2 33 40.0001977  0  9                     
G 1  21519868.905 1                      3239.020          26.750    21519863.808 1  84448492.681 1      2427.109          31.000  
G 4  23669549.012 1                     -2711.524          16.750                                                                  
G 7  21049675.913 1                      2332.216          28.500                                                                  
G 9                                                                  22992787.025 1                     -1459.541          20.250  
G21  20571494.950 1 108103909.847 1       982.742          37.000                                                                  
G27  23206929.977 1                     -2934.989          10.750                                                                  
G30  24106994.475 1                      3453.115          20.000                                                                  
J 2  38516833.751 1                      1250.392          26.250                                                                  
R15  23299673.771 1                     -2224.375          27.500  
> 2021  5 17  2 33 41.0001978  0  9                     
G 1  21519296.301 1                      3228.983          25.750    21519276.815 1                      2423.495          27.750  
G 4  23670103.628 1                     -2726.445          16.250                                                                  
G 7  21049254.105 1                      2332.216          27.000                                                                  
G 8  21059116.677 1                     -1801.665          22.750                                                                  
G21  20571339.658 1 108103085.490 1       981.899          36.500                                                                  
G30  24106376.903 1                      3450.330          19.250                                                                  
J 2  38516626.594 1                      1250.151          25.750    38516634.089 1                       930.396          20.500  
R15  23300123.160 1                     -2228.073          27.500  
R16  20170325.874 1                       217.688          22.000  
> 2021  5 17  2 33 42.0001979  0  8                     
G 4  23670663.041 1                     -2731.884          15.750                                                                  
G 7  21048850.884 1                      2332.216          26.250                                                                  
G 8  21059492.317 1                     -1801.852          23.250    21059483.623 1                     -1345.678          18.750  
G21  20571183.466 1 108102261.962 1       981.070          35.500                                                                  
G30  24105741.642 1                      3448.430          19.000                                                                  
J 2  38516423.635 1                      1251.982          28.500    38516424.534 1 151146704.65511       934.276          23.250  
R15  23300564.155 1                     -2231.247          24.750  
R16  20170296.195 1                       224.368          26.500  
> 2021  5 17  2 33 43.0001980  0  8                     
G 4  23671217.657 1                     -2723.025          15.500                                                                  
G 7  21048438.070 1                      2319.710          27.000                                                                  
G 8  21059866.458 1                     -1798.958          20.000                                                                  
G21  20571025.775 1 108101439.345 1       980.159          35.500                                                                  
G30  24105120.472 1                      3449.871          18.500                                                                  
J 2  38516207.784 1 202404070.56311      1250.255          32.250    38516211.981 1                       934.059          24.750  
R15  23301024.337 1                     -2234.690          23.500  
R16  20170262.318 1                       230.872          27.500  
> 2021  5 17  2 33 44.0001981  0  8                     
G 7  21048026.155 1                      2318.123          27.000                                                                  
G 8  21060243.597 1                     -1791.191          17.000                                                                  
G21  20570867.485 1 108100617.903 1       978.984          35.500                                                                  
G30  24104480.715 1                      3448.660          17.500                                                                  
J 2  38515999.129 1 202402977.712 1      1250.393          30.000    38516007.223 1 151145072.11711       933.801          27.250  
R 9  21056904.808 1                      2772.738          22.250  
R15  23301480.321 1                     -2246.757          23.000  
R16  20170251.825 1                       222.891          26.250  
> 2021  5 17  2 33 45.0001982  0  9                     
G 7  21047617.238 1                      2326.508          25.250                                                                  
G 8  21060602.448 1                     -1767.482          22.000                                                                  
G21  20570715.490 1 108099799.744 1       975.701          37.000                                                                  
G30  24103847.853 1                      3452.921          19.000                                                                  
J 1  37356923.840 1                      -197.325          25.000    37356922.041 1                      -148.631          22.250  
J 2  38515787.775 1 202401885.812 1      1249.442          30.500    38515795.270 1 151144256.554 1       933.208          25.000  
R 9  21056423.941 1                      2772.964          25.000  
R15  23301933.607 1                     -2243.142          24.750  
R16  20170262.618 1                       218.282          23.750  
> 2021  5 17  2 33 46.0001982  0 10                     
G 1  21516310.668 1                      3254.540          24.000    21516307.670 1                      2413.118          24.000  
G 7  21047176.543 1                      2322.826          24.500                                                                  
G 8  21060938.516 1                     -1767.040          25.500    21060938.516 1                     -1313.347          23.750  
G21  20570530.818 1 108098829.792 1       969.952          37.750                                                                  
G30  24103191.008 1                      3467.592          19.250                                                                  
J 1  37356957.716 1                      -210.354          28.750    37356961.913 1                      -156.775          27.000  
J 2  38515550.639 1                      1247.878          25.500    38515571.325 1 151143325.112 1       931.442          21.000  
R 9  21055901.703 1                      2780.002          24.250  
R15  23302331.132 1                     -2251.816          27.000  
R16  20170210.754 1                       216.506          22.500  
> 2021  5 17  2 33 47.0001983  0 11                     
G 1  21515722.775 1                      3245.188          24.250    21515724.274 1                      2408.148          24.500  
G 4  23673316.204 1                     -2716.910          26.500                                                                  
G 7  21046761.930 1                      2335.855          28.000                                                                  
G 8  21061315.954 1                     -1772.681          23.500    21061315.954 1                     -1334.214          20.250  
G21  20570377.324 1 108098023.966 1       963.368          38.250                                                                  
G30  24102570.138 1                      3484.592          19.250                                                                  
J 1  37357032.964 1                      -222.518          26.500    37357029.067 1 146597048.15011      -161.440          25.000  
J 2  38515353.975 1                      1241.182          21.250    38515365.068 1                       942.182          18.000  
R 9  21055409.743 1                      2792.051          22.250  
R15  23302787.716 1                     -2263.995          27.500  
R16  20170182.573 1                       210.568          19.500  
> 2021  5 17  2 33 48.0001984  0 11                     
G 1  21515134.582 1                      3245.188          22.500    21515137.580 1                      2402.599          23.500  
G 4  23673850.434 1                     -2731.421          30.250                                                                  
G 7  21046347.317 1 110599255.15411      2340.554          29.750                                                                  
G 8  21061691.594 1 110679676.10111     -1789.031          25.500                                                                  
G 9  22995897.372 1                     -1880.425          23.500                                                                  
G21  20570224.430 1 108097224.682 1       956.826          38.500                                                                  
J 1  37357107.013 1                      -232.527          25.750    37357101.317 1 146597335.997 1      -170.203          25.000  
J 2  38515147.418 1                      1235.964          18.250                                                                  
R 9  21054914.486 1                      2804.546          23.500  
R15  23303235.606 1 124525536.35411     -2270.717          30.000  
R16  20170179.575 1                       205.472          16.750  
> 2021  5 17  2 33 49.0001985  0 11                     
G 1  21514552.385 1                      3213.724          20.500    21514556.582 1                      2400.749          23.500  
G 7  21045934.503 1 110597069.069 1      2343.626          29.000                                                                  
G 8  21062061.538 1                     -1785.785          22.500                                                                  
G 9  22996269.414 1                     -1885.346          21.250                                                                  
G21  20570068.838 1 108096429.135 1       953.089          37.000                                                                  
G27  23212265.683 1                     -2938.866          19.000                                                                  
J 1  37357175.965 1                      -234.624          24.500    37357177.164 1 146597628.403 1      -174.760          26.500  
R 9  21054421.927 1                      2809.213          23.750  
R15  23303676.600 1 124527973.973 1     -2277.419          30.250  
R16  20170187.670 1                       198.115          11.500  
R18  22195263.239 1                     -3774.062          20.000  
> 2021  5 17  2 33 50.0001986  0  9                     
G 1                                                                  21513977.683 1                      2400.749          23.250  
G 7  21045513.594 1 110594883.452 1      2343.159          29.500                                                                  
G 8  21062447.371 1                     -1783.176          21.000                                                                  
G 9  22996657.345 1                     -1883.868          20.500                                                                  
G21  20569919.541 1 108095634.561 1       952.115          37.250                                                                  
J 1  37357249.115 1                      -234.636          24.500    37357251.813 1                      -174.911          27.500  
R 9  21053926.370 1                      2803.786          23.250  
R15  23304122.991 1                     -2278.523          29.500  
R18  22196093.065 1                     -3776.038          20.250  
> 2021  5 17  2 33 51.0001987  0 10                     
G 1  21513387.991 1                      3215.843          21.500    21513395.186 1  84423123.88411      2400.595          24.250  
G 7  21045093.885 1 110592697.990 1      2343.005          29.750                                                                  
G 8  21062825.709 1                     -1784.108          20.250                                                                  
G21  20569765.747 1 108094840.372 1       951.732          37.000                                                                  
G27  23213404.894 1                     -2939.929          11.750                                                                  
J 1  37357327.360 1                      -233.432          24.500    37357328.560 1 146598213.46711      -174.800          27.500  
J 2  38514529.246 1                      1223.780          12.000                                                                  
R 9  21053473.384 1                      2798.880          21.000  
R15  23304573.280 1 124532572.86211     -2278.303          29.750  
R18  22196789.482 1                     -3773.844          22.000  
> 2021  5 17  2 33 52.0001987  0  9                     
G 1  21512774.316 1                      3212.171          18.750    21512782.411 1                      2400.416          24.000  
G 7  21044645.095 1 110590355.507 1      2342.482          31.000                                                                  
G 8  21063163.275 1                     -1786.090          21.750                                                                  
G 9  22997394.835 1                     -1881.695          20.250                                                                  
G21  20569583.174 1 108093889.285 1       951.087          37.500                                                                  
J 1  37357370.531 1                      -234.539          24.000    37357371.730 1 146598388.201 1      -174.734          27.250  
R 9  21052962.238 1                      2803.774          21.750  
R15  23304947.421 1 124534572.664 1     -2278.802          29.500  
R18  22197482.003 1                     -3778.187          22.500  
> 2021  5 17  2 33 53.0001988  0  9                     
G 1  21512195.417 1                      3210.760          13.500    21512202.612 1                      2399.375          24.250  
G 7  21044230.183 1 110588171.177 1      2341.872          31.250                                                                  
G 8  21063526.324 1                     -1784.897          23.000                                                                  
G 9  22997778.269 1                     -1876.958          20.500                                                                  
G21  20569435.376 1 108093096.635 1       950.193          38.000                                                                  
J 1  37357443.380 1 196314728.12611      -234.159          23.250    37357447.577 1                      -174.940          27.250  
R 9  21052449.892 1                      2807.374          22.500  
R15  23305437.581 1 124537012.168 1     -2279.304          29.000  
R18  22198194.310 1                     -3779.672          23.250  
> 2021  5 17  2 33 54.0001989  0 10                     
G 1  21511634.206 1                      3210.149          13.000    21511620.415 1                      2399.327          23.750  
G 7  21043814.670 1 110585987.261 1      2341.458          31.750                                                                  
G 8  21063891.771 1                     -1789.278          23.000    21063897.767 1                     -1346.196          17.500  
G 9  22998177.593 1                     -1886.146          20.000                                                                  
G16  24282314.603 1 127604218.51611     -1587.627          25.500                                                                  
G21  20569285.180 1 108092304.580 1       949.597          38.000                                                                  
J 1  37357518.028 1                      -232.631          22.750    37357519.527 1 146598973.19111      -174.831          27.000  
R 9  21051957.333 1                      2809.622          21.750  
R15  23305916.350 1 124539750.144 1     -2279.775          29.250  
R18  22198937.495 1                     -3777.939          22.250  
> 2021  5 17  2 33 55.0001990  0 10                     
G 1                                                                  21511037.019 1  84413877.74611      2399.355          23.750  
G 7  21043400.657 1 110583803.767 1      2341.036          31.750                                                                  
G 8  21064260.516 1                     -1787.607          23.250    21064268.310 1                     -1333.834          18.250  
G 9  22998564.025 1                     -1883.520          20.000                                                                  
G16  24282657.266 1 127605963.813 1     -1587.755          25.000                                                                  
G21  20569134.085 1 108091513.123 1       948.999          38.250                                                                  
J 1  37357589.979 1                      -233.057          23.000    37357595.075 1 146599265.593 1      -174.756          28.000  
R 9  21051385.329 1                      2810.408          19.750  
R15  23306375.932 1 124542190.379 1     -2280.035          29.500  
R18  22199672.586 1                     -3778.843          22.000  
> 2021  5 17  2 33 56.0001991  0  9                     
G 1                                                                  21510459.619 1                      2399.065          24.000  
G 7  21042987.543 1 110581620.392 1      2340.917          32.250                                                                  
G 8  21064626.263 1                     -1789.822          23.000    21064634.957 1                     -1333.054          19.250  
G 9  22998962.150 1                     -1885.864          22.500                                                                  
G21  20568981.191 1 108090722.014 1       948.651          38.250                                                                  
J 1  37357665.227 1                      -233.583          23.250    37357670.923 1 146599557.721 1      -174.483          27.750  
R 9  21050860.692 1                      2803.439          19.500  
R15  23306835.514 1 124544630.781 1     -2280.202          29.000  
R18  22200416.971 1                     -3780.159          22.000  
> 2021  5 17  2 33 57.0001992  0  8                     
G 1                                                                  21509877.722 1  84409314.60011      2399.050          23.250  
G 7  21042572.031 1 110579437.572 1      2340.362          32.000                                                                  
G 8  21064996.506 1                     -1787.540          22.750    21065004.901 1                     -1333.355          17.500  
G21  20568833.393 1 108089931.599 1       947.958          37.750                                                                  
J 1  37357745.571 1                      -233.423          24.750    37357744.372 1 146599849.894 1      -174.529          27.000  
R 9  21050378.626 1                      2803.264          19.000  
R15  23307305.888 1 124547071.604 1     -2280.624          27.750  
R18  22201144.567 1                     -3781.888          21.250  
> 2021  5 17  2 33 58.0001993  0  8                     
G 1                                                                  21509294.325 1                      2398.672          23.750  
G 7  21042156.818 1 110577255.123 1      2339.990          31.500                                                                  
G 8  21065371.847 1                     -1789.042          22.750    21065378.442 1                     -1338.121          18.250  
G21  20568684.696 1 108089141.790 1       947.351          37.250                                                                  
J 1  37357820.219 1                      -236.488          22.000    37357818.121 1 146600142.049 1      -174.509          27.000  
R 9  21049895.660 1                      2804.669          19.500  
R15  23307814.336 1 124549892.843 1     -2281.038          28.750  
R18  22201886.554 1                     -3778.713          21.250  
> 2021  5 17  2 33 59.0001993  0  9                     
G 1                                                                  21508686.346 1                      2398.371          24.250  
G 7  21041713.125 1 110574915.160 1      2339.963          31.500                                                                  
G 8  21065707.314 1 110701096.95011     -1789.297          24.250    21065719.306 1                     -1337.198          18.000  
G 9  23000114.552 1                     -1886.664          24.500                                                                  
G21  20568504.820 1 108088194.662 1       947.128          37.500                                                                  
J 1  37357860.092 1                      -234.224          21.250    37357862.790 1 146600316.155 1      -174.106          27.000  
R 9  21049385.414 1                      2802.891          19.250  
R15  23308209.762 1                     -2281.113          27.250  
R18  22202587.169 1                     -3768.322          21.000  
> 2021  5 17  2 34  0.0001994  0 10                     
G 1                                                                  21508102.950 1  84402353.83111      2398.578          24.250  
G 7  21041296.414 1 110572733.207 1      2339.496          32.250                                                                  
G 8  21066066.166 1                     -1789.838          25.000    21066087.151 1                     -1331.970          17.750  
G 9  23000503.383 1 120868235.14511     -1886.887          25.000                                                                  
G21  20568352.226 1 108087405.716 1       946.488          38.250                                                                  
J 1  37357936.539 1                      -232.678          22.500    37357937.438 1                      -174.205          27.000  
R 9  21048864.075 1                      2801.602          20.000  
R15  23308636.367 1                     -2282.997          25.250  
R16  20169988.907 1                       202.504          14.000  
R18  22203328.555 1                     -3773.507          21.500  
> 2021  5 17  2 34  1.0001995  0 12                     
G 1                                                                  21507524.651 1                      2398.252          24.000  
G 4  23680959.713 1 124444184.17211     -2732.397          31.250                                                                  
G 7  21040880.901 1 110570551.726 1      2339.023          32.500                                                                  
G 8  21066440.906 1                     -1789.069          23.750    21066458.594 1                     -1330.227          18.000  
G 9  23000892.813 1 120870279.365 1     -1886.678          24.500                                                                  
G16  24284627.502 1                     -1585.285          17.000                                                                  
G21  20568201.730 1 108086617.480 1       945.778          38.250                                                                  
J 1  37358009.688 1                      -235.161          22.000    37358010.887 1                      -174.395          27.000  
R 9  21048414.086 1                      2802.459          20.750  
R15  23309049.481 1                     -2281.007          22.500  
R16  20170040.472 1                       210.683          14.000  
R18  22204045.359 1                     -3787.260          21.750  
> 2021  5 17  2 34  2.0001996  0 11                     
G 1                                                                  21506940.355 1  84397792.92011      2397.939          25.000  
G 4  23681506.534 1 124447074.118 1     -2732.404          31.000                                                                  
G 7  21040466.588 1 110568370.647 1      2338.621          32.250                                                                  
G 8  21066807.553 1                     -1790.012          24.500    21066828.838 1                     -1331.646          18.750  
G 9  23001285.841 1 120872324.310 1     -1887.403          24.250                                                                  
G21  20568055.731 1 108085829.849 1       945.173          38.250                                                                  
J 1  37358075.043 1                      -231.943          22.750    37358086.135 1 146601191.27511      -174.021          27.750  
R 9  21047958.102 1                      2799.443          22.000  
R15  23309492.274 1                     -2277.637          22.000  
R16  20170027.281 1                       209.467          14.000  
R18  22204783.148 1                     -3785.841          22.000  
> 2021  5 17  2 34  3.0001997  0 10                     
G 1                                                                  21506360.556 1                      2398.130          24.250  
G 4  23682050.957 1 124449963.801 1     -2732.141          31.250                                                                  
G 7  21040052.275 1 110566189.849 1      2338.340          32.750                                                                  
G 8  21067180.794 1 110708886.44811     -1790.082          26.250    21067198.782 1                     -1336.443          17.500  
G 9  23001661.781 1 120874369.345 1     -1887.493          24.750                                                                  
G21  20567905.235 1 108085042.680 1       944.711          38.500                                                                  
J 1  37358158.685 1                      -234.485          22.750    37358159.584 1                      -173.537          27.250  
R 9  21047477.535 1                      2802.207          24.500  
R15  23309932.669 1                     -2280.482          22.000  
R18  22205549.718 1                     -3775.060          21.500  
> 2021  5 17  2 34  4.0001998  0 10                     
G 1                                                                  21505779.259 1                      2397.999          24.250  
G 4  23682601.076 1 124452853.271 1     -2731.928          31.250                                                                  
G 7  21039634.064 1 110564009.298 1      2338.093          32.750                                                                  
G 8  21067554.036 1 110710834.060 1     -1790.070          26.500    21067568.126 1                     -1342.093          18.750  
G 9  23002047.614 1 120876414.395 1     -1887.508          24.500                                                                  
G21  20567755.039 1 108084255.941 1       944.282          38.250                                                                  
J 1  37358235.132 1                      -231.131          22.250    37358234.233 1 146601774.06411      -173.679          27.250  
R 9  21046964.889 1                      2806.041          24.250  
R15  23310421.031 1                     -2291.322          19.500  
R18  22206265.322 1                     -3775.654          22.250  
> 2021  5 17  2 34  5.0001999  0  9                     
G 1                                                                  21505197.661 1  84390952.87711      2397.307          24.250  
G 4  23683151.795 1 124455742.914 1     -2732.101          30.250                                                                  
G 7  21039219.751 1 110561829.286 1      2337.553          32.000                                                                  
G 8  21067922.181 1                     -1790.861          26.500                                                                  
G 9  23002430.449 1                     -1887.853          22.750                                                                  
G21  20567602.745 1 108083469.958 1       943.524          37.250                                                                  
J 1  37358303.784 1                      -230.143          22.000    37358307.982 1                      -173.779          27.000  
R 9  21046440.253 1                      2801.829          23.500  
R18  22207033.690 1                     -3781.683          21.500  
> 2021  5 17  2 34  6.0001999  0 11                     
G 1                                                                  21504586.684 1                      2396.331          24.000  
G 4  23683668.038 1 124458474.918 1     -2732.004          29.750                                                                  
G 7  21038776.058 1 110559492.255 1      2337.031          31.750                                                                  
G 8  21068264.244 1                     -1790.836          25.750                                                                  
G 9  23002790.200 1                     -1886.893          22.250                                                                  
G16  24286201.712 1                     -1586.333          17.500                                                                  
G21  20567422.869 1 108082527.077 1       942.881          37.750                                                                  
J 1  37358352.651 1                      -230.911          21.250    37358352.651 1 146602239.16011      -173.733          26.500  
R 9  21045929.406 1                      2800.794          23.500  
R16  20169907.963 1                       212.070          12.750  
R18  22207727.710 1                     -3777.627          20.750  
> 2021  5 17  2 34  7.0002000  0 10                     
G 1                                                                  21504007.485 1  84386275.66411      2397.802          24.250  
G 4  23684213.360 1 124461363.166 1     -2730.706          29.500                                                                  
G 7  21038360.546 1 110557311.847 1      2337.950          31.500                                                                  
G 8  21068626.393 1 110716519.53511     -1789.146          26.000                                                                  
G 9  23003176.332 1                     -1883.548          23.250                                                                  
G16  24286544.375 1                     -1588.828          18.500                                                                  
G21  20567273.873 1 108081741.069 1       943.550          38.000                                                                  
J 1  37358433.595 1                      -233.831          22.750    37358426.699 1                      -171.573          26.250  
R 9  21045416.761 1                      2800.297          22.250  
R18  22208456.505 1                     -3772.093          20.500  
> 2021  5 17  2 34  8.0002001  0 10                     
G 1                                                                  21503424.989 1  84383994.185 1      2399.123          24.250  
G 4  23684763.479 1 124464249.412 1     -2728.704          29.000                                                                  
G 7  21037945.334 1 110555129.937 1      2339.452          31.250                                                                  
G 8  21069002.333 1 110718465.020 1     -1787.943          26.000                                                                  
G 9  23003571.159 1                     -1887.192          23.500                                                                  
G16  24286880.143 1                     -1590.253          18.500                                                                  
G21  20567124.276 1 108080953.792 1       944.819          37.500                                                                  
J 1  37358507.044 1                      -231.117          21.750    37358501.048 1 146602818.34411      -171.201          26.250  
R 9  21044892.124 1                      2811.121          21.250  
R18  22209205.387 1                     -3776.789          18.500  
> 2021  5 17  2 34  9.0002002  0 10                     
G 1                                                                  21502844.291 1                      2398.148          24.250  
G 4  23685309.102 1 124467135.743 1     -2728.789          29.000                                                                  
G 7  21037525.924 1 110552948.513 1      2338.967          30.750                                                                  
G 8  21069373.776 1 110720410.860 1     -1788.298          27.000                                                                  
G 9  23003962.688 1 120886479.06311     -1885.517          24.750                                                                  
G16  24287218.009 1                     -1584.894          19.750                                                                  
G21  20566978.277 1 108080167.117 1       944.217          37.250                                                                  
J 1  37358579.594 1 196320652.06411      -229.230          23.250    37358575.396 1 146603107.102 1      -171.113          27.000  
R 9  21044407.360 1                      2811.509          19.250  
R18  22209949.172 1                     -3780.108          17.750  
> 2021  5 17  2 34 10.0002003  0  9                     
G 1                                                                  21502265.391 1  84379432.38211      2398.469          24.250  
