$GPGGA,023256.00,2218.060811,N,11410.733379,E,1,09,1.2,19.0,M,-1.3,M,,*49,1621218781652
$GPGSV,5,1,16,21,61,133,14,07,56,321,12,08,54,011,13,01,42,170,22*77,1621218781658
$GPGSV,5,2,16,09,29,233,19,27,25,036,19,04,21,196,10,16,17,077,10*76,1621218781658
$GPGSV,5,3,16,30,17,320,,26,02,096,*75,1621218781659
$GPGSV,5,4,16,08,,,,01,,,15,09,,,26,27,,,09,8*67,1621218781659
$GPGSV,5,5,16,30,,,,26,,,,8*6D,1621218781659
$GLGSV,2,1,05,80,53,067,,73,38,348,20,82,25,026,13,79,13,117,23*6F,1621218781659
$GLGSV,2,2,05,84,40,205,*5F,1621218781659
$QZGSV,2,1,04,02,62,069,13,01,11,156,*6A,1621218781659
$QZGSV,2,2,04,02,,,,01,,,10,8*77,1621218781659
$GPGSA,A,3,01,08,09,21,27,,,,,,,,2.2,1.0,2.0*37,1621218781659
$GNGSA,A,3,01,08,09,21,27,,,,,,,,2.2,1.0,2.0*29,1621218781659
$GNGSA,A,3,73,79,82,,,,,,,,,,2.2,1.0,2.0*2F,1621218781659
$QZGSA,A,3,02,,,,,,,,,,,,2.2,1.0,2.0*2F,1621218781660
$IMGSA,A,3,,,,,,,,,,,,,2.2,1.0,2.0*22,1621218781660
$BDGSA,A,3,,,,,,,,,,,,,2.2,1.0,2.0*20,1621218781660
$GAGSA,A,3,,,,,,,,,,,,,2.2,1.0,2.0*20,1621218781660
$GPRMC,023256.00,A,2218.060811,N,11410.733379,E,000.0,230.9,170521,,,A*5E,1621218781660
$GPGGA,023257.00,2218.060808,N,11410.733376,E,1,09,0.8,18.9,M,-1.3,M,,*4C,1621218782645
$GPGSV,5,1,16,21,61,133,14,07,56,321,11,08,54,011,14,01,42,170,22*73,1621218782649
$GPGSV,5,2,16,09,29,233,19,27,25,036,19,04,21,196,10,16,17,077,10*76,1621218782649
$GPGSV,5,3,16,30,17,320,,26,02,096,*75,1621218782650
$GPGSV,5,4,16,08,,,,01,,,15,09,,,25,27,,,,8*6D,1621218782650
$GPGSV,5,5,16,30,,,,26,,,,8*6D,1621218782650
$GLGSV,2,1,05,80,53,067,07,73,38,348,20,82,25,026,13,79,13,117,23*68,1621218782650
$GLGSV,2,2,05,84,40,205,*5F,1621218782650
$QZGSV,2,1,04,02,62,069,13,01,11,156,*6A,1621218782650
$QZGSV,2,2,04,02,,,,01,,,10,8*77,1621218782650
$GPGSA,A,3,01,08,09,21,27,,,,,,,,2.3,1.1,2.1*36,1621218782650
$GNGSA,A,3,01,08,09,21,27,,,,,,,,2.3,1.1,2.1*28,1621218782650
$GNGSA,A,3,73,79,82,,,,,,,,,,2.3,1.1,2.1*2E,1621218782650
$QZGSA,A,3,02,,,,,,,,,,,,2.3,1.1,2.1*2E,1621218782650
$IMGSA,A,3,,,,,,,,,,,,,2.3,1.1,2.1*23,1621218782650
$BDGSA,A,3,,,,,,,,,,,,,2.3,1.1,2.1*21,1621218782651
$GAGSA,A,3,,,,,,,,,,,,,2.3,1.1,2.1*21,1621218782651
$GPRMC,023257.00,A,2218.060808,N,11410.733376,E,000.0,230.9,170521,,,A*58,1621218782651
$GPGGA,023258.00,2218.060662,N,11410.733210,E,1,10,0.8,19.1,M,-1.3,M,,*41,1621218783644
$GPGSV,5,1,16,21,61,133,13,07,56,321,11,08,54,011,14,01,42,170,22*74,1621218783646
$GPGSV,5,2,16,09,29,233,19,27,25,036,19,04,21,196,10,16,17,077,10*76,1621218783647
$GPGSV,5,3,16,30,17,320,,26,02,096,*75,1621218783647
$GPGSV,5,4,16,08,,,,01,,,15,09,,,25,27,,,,8*6D,1621218783647
$GPGSV,5,5,16,30,,,,26,,,,8*6D,1621218783647
$GLGSV,2,1,05,80,53,067,07,73,38,348,20,82,25,026,13,79,13,117,23*68,1621218783647
$GLGSV,2,2,05,84,40,205,*5F,1621218783649
$QZGSV,2,1,04,02,62,069,13,01,11,156,*6A,1621218783649
$QZGSV,2,2,04,02,,,,01,,,13,8*74,1621218783650
$GPGSA,A,3,01,08,09,21,27,,,,,,,,2.2,1.0,2.0*37,1621218783650
$GNGSA,A,3,01,08,09,21,27,,,,,,,,2.2,1.0,2.0*29,1621218783650
$GNGSA,A,3,73,79,82,,,,,,,,,,2.2,1.0,2.0*2F,1621218783650
$QZGSA,A,3,01,02,,,,,,,,,,,2.2,1.0,2.0*2E,1621218783650
$IMGSA,A,3,,,,,,,,,,,,,2.2,1.0,2.0*22,1621218783650
$BDGSA,A,3,,,,,,,,,,,,,2.2,1.0,2.0*20,1621218783650
$GAGSA,A,3,,,,,,,,,,,,,2.2,1.0,2.0*20,1621218783650
$GPRMC,023258.00,A,2218.060662,N,11410.733210,E,000.2,230.9,170521,,,A*56,1621218783650
$GPGGA,023259.00,2218.060661,N,11410.733209,E,1,10,1.2,19.4,M,-1.3,M,,*45,1621218784638
$GPGSV,5,1,16,21,61,133,13,07,56,321,11,08,54,011,15,01,42,170,21*76,1621218784642
$GPGSV,5,2,16,09,29,233,18,27,25,036,19,04,21,196,10,16,17,077,10*77,1621218784642
$GPGSV,5,3,16,30,17,320,,26,02,096,*75,1621218784642
$GPGSV,5,4,16,08,,,,01,,,14,09,,,25,27,,,,8*6C,1621218784642
$GPGSV,5,5,16,30,,,,26,,,,8*6D,1621218784642
$GLGSV,2,1,05,80,53,067,08,73,38,348,20,82,25,026,14,79,13,117,24*67,1621218784642
$GLGSV,2,2,05,84,40,205,*5F,1621218784642
$QZGSV,2,1,04,02,62,069,13,01,11,156,*6A,1621218784642
$QZGSV,2,2,04,02,,,07,01,,,13,8*73,1621218784642
$GPGSA,A,3,01,08,09,21,27,,,,,,,,2.2,1.0,2.0*37,1621218784643
$GNGSA,A,3,01,08,09,21,27,,,,,,,,2.2,1.0,2.0*29,1621218784643
$GNGSA,A,3,73,79,82,,,,,,,,,,2.2,1.0,2.0*2F,1621218784643
$QZGSA,A,3,01,02,,,,,,,,,,,2.2,1.0,2.0*2E,1621218784643
$IMGSA,A,3,,,,,,,,,,,,,2.2,1.0,2.0*22,1621218784643
$BDGSA,A,3,,,,,,,,,,,,,2.2,1.0,2.0*20,1621218784643
$GAGSA,A,3,,,,,,,,,,,,,2.2,1.0,2.0*20,1621218784643
$GPRMC,023259.00,A,2218.060661,N,11410.733209,E,000.1,230.9,170521,,,A*5F,1621218784643
$GPGGA,023300.00,2218.060488,N,11410.733133,E,1,08,1.2,20.0,M,-1.3,M,,*40,1621218785641
$GPGSV,5,1,16,21,61,133,13,07,56,321,11,08,54,011,15,01,42,170,21*76,1621218785642
$GPGSV,5,2,16,09,29,233,18,27,25,036,19,04,21,196,09,16,17,077,10*7F,1621218785642
$GPGSV,5,3,16,30,17,320,,26,02,096,*75,1621218785643
$GPGSV,5,4,16,08,,,,01,,,14,09,,,25,27,,,11,8*6C,1621218785643
$GPGSV,5,5,16,30,,,09,26,,,,8*64,1621218785643
$GLGSV,2,1,05,80,53,067,09,73,38,348,20,82,25,026,14,79,13,117,25*67,1621218785643
$GLGSV,2,2,05,84,40,205,*5F,1621218785643
$QZGSV,2,1,04,02,62,069,13,01,11,156,*6A,1621218785643
$QZGSV,2,2,04,02,,,,01,,,13,8*74,1621218785643
$GPGSA,A,3,01,08,09,27,,,,,,,,,2.2,1.0,2.0*34,1621218785643
$GNGSA,A,3,01,08,09,27,,,,,,,,,2.2,1.0,2.0*2A,1621218785643
$GNGSA,A,3,73,79,82,,,,,,,,,,2.2,1.0,2.0*2F,1621218785643
$QZGSA,A,3,02,,,,,,,,,,,,2.2,1.0,2.0*2F,1621218785643
$IMGSA,A,3,,,,,,,,,,,,,2.2,1.0,2.0*22,1621218785643
$BDGSA,A,3,,,,,,,,,,,,,2.2,1.0,2.0*20,1621218785643
$GAGSA,A,3,,,,,,,,,,,,,2.2,1.0,2.0*20,1621218785643
$GPRMC,023300.00,A,2218.060488,N,11410.733133,E,000.1,230.9,170521,,,A*5D,1621218785643
$GPGGA,023301.00,2218.060454,N,11410.733132,E,1,09,1.2,20.3,M,-1.3,M,,*43,1621218786643
$GPGSV,5,1,16,21,61,133,13,07,56,321,10,08,54,011,15,01,42,170,21*77,1621218786645
$GPGSV,5,2,16,09,29,233,17,27,25,036,18,04,21,196,09,16,17,077,10*71,1621218786645
$GPGSV,5,3,16,30,17,320,,26,02,096,*75,1621218786645
$GPGSV,5,4,16,08,,,,01,,,14,09,,,25,27,,,11,8*6C,1621218786645
$GPGSV,5,5,16,30,,,,26,,,,8*6D,1621218786645
$GLGSV,2,1,05,80,53,067,08,73,38,348,21,82,25,026,15,79,13,117,26*65,1621218786645
$GLGSV,2,2,05,84,40,205,*5F,1621218786645
$QZGSV,2,1,04,02,62,069,14,01,11,156,*6D,1621218786645
$QZGSV,2,2,04,02,,,,01,,,,8*76,1621218786645
$GPGSA,A,3,01,08,09,21,27,,,,,,,,2.4,1.1,2.1*31,1621218786645
$GNGSA,A,3,01,08,09,21,27,,,,,,,,2.4,1.1,2.1*2F,1621218786645
$GNGSA,A,3,73,79,82,,,,,,,,,,2.4,1.1,2.1*29,1621218786646
$QZGSA,A,3,02,,,,,,,,,,,,2.4,1.1,2.1*29,1621218786646
$IMGSA,A,3,,,,,,,,,,,,,2.4,1.1,2.1*24,1621218786646
$BDGSA,A,3,,,,,,,,,,,,,2.4,1.1,2.1*26,1621218786646
$GAGSA,A,3,,,,,,,,,,,,,2.4,1.1,2.1*26,1621218786647
$GPRMC,023301.00,A,2218.060454,N,11410.733132,E,000.2,231.0,170521,,,A*57,1621218786647
$GPGGA,023302.00,2218.060342,N,11410.733082,E,1,09,1.2,21.1,M,-1.3,M,,*49,1621218787637
$GPGSV,5,1,16,21,61,133,13,07,56,321,10,08,54,011,15,01,42,170,21*77,1621218787643
$GPGSV,5,2,16,09,29,233,17,27,24,036,18,04,21,196,09,16,17,077,10*70,1621218787643
$GPGSV,5,3,16,30,17,320,,26,02,096,*75,1621218787644
$GPGSV,5,4,16,08,,,08,01,,,14,09,,,25,27,,,11,8*64,1621218787644
$GPGSV,5,5,16,30,,,09,26,,,,8*64,1621218787644
$GLGSV,2,1,05,80,53,067,09,73,38,349,21,82,25,026,15,79,13,117,27*64,1621218787644
$GLGSV,2,2,05,84,40,205,*5F,1621218787645
$QZGSV,2,1,04,02,62,069,14,01,11,156,*6D,1621218787645
$QZGSV,2,2,04,02,,,07,01,,,12,8*72,1621218787645
$GPGSA,A,3,01,08,09,21,27,,,,,,,,2.2,1.0,2.0*37,1621218787645
$GNGSA,A,3,01,08,09,21,27,,,,,,,,2.2,1.0,2.0*29,1621218787645
$GNGSA,A,3,73,79,82,,,,,,,,,,2.2,1.0,2.0*2F,1621218787645
$QZGSA,A,3,02,,,,,,,,,,,,2.2,1.0,2.0*2F,1621218787645
$IMGSA,A,3,,,,,,,,,,,,,2.2,1.0,2.0*22,1621218787645
$BDGSA,A,3,,,,,,,,,,,,,2.2,1.0,2.0*20,1621218787646
$GAGSA,A,3,,,,,,,,,,,,,2.2,1.0,2.0*20,1621218787646
$GPRMC,023302.00,A,2218.060342,N,11410.733082,E,000.2,231.0,170521,,,A*5E,1621218787646
$GPGGA,023303.00,2218.060303,N,11410.733333,E,1,09,0.8,20.7,M,-1.3,M,,*48,1621218788640
$GPGSV,5,1,16,21,61,133,13,07,56,321,10,08,54,011,14,01,42,170,20*77,1621218788645
$GPGSV,5,2,16,09,29,233,16,27,24,036,18,04,21,196,09,16,17,077,09*79,1621218788645
$GPGSV,5,3,16,30,17,320,,26,02,096,*75,1621218788645
$GPGSV,5,4,16,08,,,08,01,,,14,09,,,26,27,,,11,8*67,1621218788645
$GPGSV,5,5,16,30,,,,26,,,,8*6D,1621218788645
$GLGSV,2,1,05,80,53,067,09,73,38,349,21,82,25,026,15,79,13,117,27*64,1621218788645
$GLGSV,2,2,05,84,40,205,*5F,1621218788645
$QZGSV,2,1,04,02,62,069,14,01,11,156,*6D,1621218788645
$QZGSV,2,2,04,02,,,,01,,,,8*76,1621218788646
$GPGSA,A,3,01,08,09,21,27,,,,,,,,2.2,1.0,2.0*37,1621218788646
$GNGSA,A,3,01,08,09,21,27,,,,,,,,2.2,1.0,2.0*29,1621218788646
$GNGSA,A,3,73,79,82,,,,,,,,,,2.2,1.0,2.0*2F,1621218788646
$QZGSA,A,3,02,,,,,,,,,,,,2.2,1.0,2.0*2F,1621218788646
$IMGSA,A,3,,,,,,,,,,,,,2.2,1.0,2.0*22,1621218788646
$BDGSA,A,3,,,,,,,,,,,,,2.2,1.0,2.0*20,1621218788646
$GAGSA,A,3,,,,,,,,,,,,,2.2,1.0,2.0*20,1621218788646
$GPRMC,023303.00,A,2218.060303,N,11410.733333,E,000.8,231.0,170521,,,A*59,1621218788646
$GPGGA,023304.00,2218.060193,N,11410.733349,E,1,08,0.8,19.9,M,-1.3,M,,*4C,1621218789637
$GPGSV,5,1,16,21,61,133,13,07,56,321,10,08,54,011,14,01,42,170,21*76,1621218789641
$GPGSV,5,2,16,09,29,233,21,27,24,036,18,04,21,196,09,30,18,320,*7E,1621218789641
$GPGSV,5,3,16,16,17,077,10,26,02,096,*71,1621218789641
$GPGSV,5,4,16,08,,,,01,,,13,09,,,26,27,,,,8*68,1621218789642
$GPGSV,5,5,16,30,,,10,26,,,,8*6C,1621218789642
$GLGSV,2,1,05,80,53,067,10,73,38,349,22,82,25,026,15,79,13,117,26*6E,1621218789642
$GLGSV,2,2,05,84,40,205,*5F,1621218789642
$QZGSV,2,1,04,02,62,069,14,01,11,156,*6D,1621218789642
$QZGSV,2,2,04,02,,,,01,,,11,8*76,1621218789642
$GPGSA,A,3,01,08,09,27,,,,,,,,,2.2,1.0,2.0*34,1621218789642
$GNGSA,A,3,01,08,09,27,,,,,,,,,2.2,1.0,2.0*2A,1621218789642
$GNGSA,A,3,73,79,82,,,,,,,,,,2.2,1.0,2.0*2F,1621218789642
$QZGSA,A,3,02,,,,,,,,,,,,2.2,1.0,2.0*2F,1621218789642
$IMGSA,A,3,,,,,,,,,,,,,2.2,1.0,2.0*22,1621218789642
$BDGSA,A,3,,,,,,,,,,,,,2.2,1.0,2.0*20,1621218789643
$GAGSA,A,3,,,,,,,,,,,,,2.2,1.0,2.0*20,1621218789643
$GPRMC,023304.00,A,2218.060193,N,11410.733349,E,002.9,230.8,170521,,,A*52,1621218789643
$GPGGA,023305.00,2218.059768,N,11410.732949,E,1,09,0.8,19.8,M,-1.3,M,,*4E,1621218790638
$GPGSV,5,1,16,21,61,133,14,07,56,321,10,08,54,011,14,01,42,170,21*71,1621218790645
$GPGSV,5,2,16,09,29,233,21,27,24,036,17,04,21,196,09,30,18,320,*71,1621218790646
$GPGSV,5,3,16,16,17,077,10,26,02,096,*71,1621218790646
$GPGSV,5,4,16,08,,,09,01,,,17,09,,,27,27,,,10,8*65,1621218790646
$GPGSV,5,5,16,30,,,,26,,,,8*6D,1621218790647
$GLGSV,2,1,05,80,53,067,10,73,38,349,21,82,25,026,15,79,13,117,26*6D,1621218790647
$GLGSV,2,2,05,84,40,205,*5F,1621218790647
$QZGSV,2,1,04,02,62,069,14,01,11,156,08*65,1621218790648
$QZGSV,2,2,04,02,,,,01,,,,8*76,1621218790648
$GPGSA,A,3,01,08,09,21,27,,,,,,,,2.2,1.0,2.0*37,1621218790648
$GNGSA,A,3,01,08,09,21,27,,,,,,,,2.2,1.0,2.0*29,1621218790648
$GNGSA,A,3,73,79,82,,,,,,,,,,2.2,1.0,2.0*2F,1621218790648
$QZGSA,A,3,02,,,,,,,,,,,,2.2,1.0,2.0*2F,1621218790648
$IMGSA,A,3,,,,,,,,,,,,,2.2,1.0,2.0*22,1621218790648
$BDGSA,A,3,,,,,,,,,,,,,2.2,1.0,2.0*20,1621218790648
$GAGSA,A,3,,,,,,,,,,,,,2.2,1.0,2.0*20,1621218790648
$GPRMC,023305.00,A,2218.059768,N,11410.732949,E,005.0,231.0,170521,,,A*57,1621218790648
$GPGGA,023306.00,2218.059074,N,11410.732070,E,1,10,0.8,18.9,M,-1.3,M,,*4C,1621218791647
$GPGSV,5,1,16,21,61,133,19,07,56,321,10,08,54,011,14,01,42,170,20*7D,1621218791648
$GPGSV,5,2,16,09,29,233,22,27,24,036,17,04,21,196,10,30,18,320,*7A,1621218791648
$GPGSV,5,3,16,16,17,077,13,26,02,096,*72,1621218791648
$GPGSV,5,4,16,08,,,09,01,,,18,09,,,27,27,,,10,8*6A,1621218791648
$GPGSV,5,5,16,30,,,,26,,,,8*6D,1621218791648
$GLGSV,2,1,05,80,53,067,10,73,38,349,21,82,25,026,15,79,13,117,25*6E,1621218791648
$GLGSV,2,2,05,84,40,205,*5F,1621218791649
$QZGSV,2,1,04,02,62,069,14,01,11,156,09*64,1621218791649
$QZGSV,2,2,04,02,,,,01,,,,8*76,1621218791649
$GPGSA,A,3,01,08,09,16,21,27,,,,,,,2.0,1.1,1.7*37,1621218791649
$GNGSA,A,3,01,08,09,16,21,27,,,,,,,2.0,1.1,1.7*29,1621218791649
$GNGSA,A,3,73,79,82,,,,,,,,,,2.0,1.1,1.7*28,1621218791649
$QZGSA,A,3,02,,,,,,,,,,,,2.0,1.1,1.7*28,1621218791649
$IMGSA,A,3,,,,,,,,,,,,,2.0,1.1,1.7*25,1621218791649
$BDGSA,A,3,,,,,,,,,,,,,2.0,1.1,1.7*27,1621218791649
$GAGSA,A,3,,,,,,,,,,,,,2.0,1.1,1.7*27,1621218791649
$GPRMC,023306.00,A,2218.059074,N,11410.732070,E,007.0,231.8,170521,,,A*57,1621218791649
$GPGGA,023307.00,2218.057941,N,11410.730885,E,1,11,0.8,20.7,M,-1.3,M,,*48,1621218792639
$GPGSV,5,1,16,21,61,133,19,07,56,321,10,08,54,011,14,01,42,170,22*7F,1621218792641
$GPGSV,5,2,16,09,29,233,25,27,24,036,17,04,21,196,09,30,18,320,*75,1621218792641
$GPGSV,5,3,16,16,17,077,14,26,02,096,*75,1621218792641
$GPGSV,5,4,16,08,,,09,01,,,20,09,,,28,27,,,,8*6F,1621218792641
$GPGSV,5,5,16,30,,,,26,,,,8*6D,1621218792641
$GLGSV,2,1,05,80,53,067,10,73,38,349,21,82,25,026,15,79,13,117,24*6F,1621218792641
$GLGSV,2,2,05,84,40,205,*5F,1621218792641
$QZGSV,2,1,04,02,62,069,14,01,11,156,10*6C,1621218792641
$QZGSV,2,2,04,02,,,,01,,,13,8*74,1621218792641
$GPGSA,A,3,01,08,09,16,21,27,,,,,,,2.0,1.1,1.7*37,1621218792641
$GNGSA,A,3,01,08,09,16,21,27,,,,,,,2.0,1.1,1.7*29,1621218792641
$GNGSA,A,3,73,79,82,,,,,,,,,,2.0,1.1,1.7*28,1621218792641
$QZGSA,A,3,01,02,,,,,,,,,,,2.0,1.1,1.7*29,1621218792641
$IMGSA,A,3,,,,,,,,,,,,,2.0,1.1,1.7*25,1621218792641
$BDGSA,A,3,,,,,,,,,,,,,2.0,1.1,1.7*27,1621218792642
$GAGSA,A,3,,,,,,,,,,,,,2.0,1.1,1.7*27,1621218792642
$GPRMC,023307.00,A,2218.057941,N,11410.730885,E,007.4,233.5,170521,,,A*5C,1621218792642
$GPGGA,023308.00,2218.056947,N,11410.729455,E,1,11,0.8,18.8,M,-1.3,M,,*4D,1621218793647
$GPGSV,5,1,16,21,61,133,20,07,56,321,10,08,54,011,14,01,42,170,22*75,1621218793653
$GPGSV,5,2,16,09,29,233,29,27,24,036,16,04,21,196,11,30,18,320,08*79,1621218793653
$GPGSV,5,3,16,16,17,077,20,26,02,096,*72,1621218793653
$GPGSV,5,4,16,08,,,10,01,,,20,09,,,28,27,,,09,8*6E,1621218793653
$GPGSV,5,5,16,30,,,,26,,,,8*6D,1621218793653
$GLGSV,2,1,05,80,53,067,10,73,38,349,21,82,25,026,16,79,13,117,23*6B,1621218793653
$GLGSV,2,2,05,84,40,205,*5F,1621218793653
$QZGSV,2,1,04,02,62,070,14,01,11,156,12*66,1621218793653
$QZGSV,2,2,04,02,,,,01,,,15,8*72,1621218793653
$GPGSA,A,3,01,08,09,16,21,27,,,,,,,1.8,1.0,1.6*3C,1621218793653
$GNGSA,A,3,01,08,09,16,21,27,,,,,,,1.8,1.0,1.6*22,1621218793654
$GNGSA,A,3,73,79,82,,,,,,,,,,1.8,1.0,1.6*23,1621218793654
$QZGSA,A,3,01,02,,,,,,,,,,,1.8,1.0,1.6*22,1621218793654
$IMGSA,A,3,,,,,,,,,,,,,1.8,1.0,1.6*2E,1621218793654
$BDGSA,A,3,,,,,,,,,,,,,1.8,1.0,1.6*2C,1621218793654
$GAGSA,A,3,,,,,,,,,,,,,1.8,1.0,1.6*2C,1621218793654
$GPRMC,023308.00,A,2218.056947,N,11410.729455,E,006.8,232.7,170521,,,A*53,1621218793654
$GPGGA,023309.00,2218.056228,N,11410.728301,E,1,12,0.8,18.6,M,-1.3,M,,*44,1621218794637
$GPGSV,5,1,16,21,61,133,20,07,56,321,09,08,54,011,14,01,42,170,22*7D,1621218794642
$GPGSV,5,2,16,09,29,233,29,27,24,036,16,04,21,196,13,30,18,320,10*72,1621218794642
$GPGSV,5,3,16,16,16,077,19,26,02,096,*79,1621218794642
$GPGSV,5,4,16,08,,,11,01,,,20,09,,,27,27,,,10,8*68,1621218794642
$GPGSV,5,5,16,30,,,,26,,,,8*6D,1621218794642
$GLGSV,2,1,05,80,53,067,12,73,38,349,21,82,25,026,20,79,13,117,22*6D,1621218794642
$GLGSV,2,2,05,84,40,205,*5F,1621218794642
$QZGSV,2,1,04,02,62,070,14,01,11,156,12*66,1621218794642
$QZGSV,2,2,04,02,,,,01,,,15,8*72,1621218794642
$GPGSA,A,3,01,04,08,09,16,21,27,,,,,,1.9,1.1,1.6*38,1621218794643
$GNGSA,A,3,01,04,08,09,16,21,27,,,,,,1.9,1.1,1.6*26,1621218794643
$GNGSA,A,3,73,79,82,,,,,,,,,,1.9,1.1,1.6*23,1621218794643
$QZGSA,A,3,01,02,,,,,,,,,,,1.9,1.1,1.6*22,1621218794643
$IMGSA,A,3,,,,,,,,,,,,,1.9,1.1,1.6*2E,1621218794643
$BDGSA,A,3,,,,,,,,,,,,,1.9,1.1,1.6*2C,1621218794643
$GAGSA,A,3,,,,,,,,,,,,,1.9,1.1,1.6*2C,1621218794643
$GPRMC,023309.00,A,2218.056228,N,11410.728301,E,007.1,224.2,170521,,,A*5D,1621218794643
$GPGGA,023310.00,2218.055404,N,11410.727880,E,1,15,0.8,17.1,M,-1.3,M,,*45,1621218795650
$GPGSV,5,1,16,21,61,133,20,07,56,321,26,08,54,011,14,01,42,170,22*70,1621218795651
$GPGSV,5,2,16,09,29,233,28,27,24,036,16,04,21,196,13,30,18,320,21*71,1621218795651
$GPGSV,5,3,16,16,16,077,20,26,02,096,*73,1621218795651
$GPGSV,5,4,16,08,,,11,01,,,20,09,,,26,27,,,10,8*69,1621218795652
$GPGSV,5,5,16,30,,,10,26,,,,8*6C,1621218795652
$GLGSV,2,1,05,80,53,067,13,73,38,349,25,82,25,026,19,79,13,117,22*62,1621218795652
$GLGSV,2,2,05,84,40,205,*5F,1621218795652
$QZGSV,2,1,04,02,62,070,15,01,11,156,13*66,1621218795652
$QZGSV,2,2,04,02,,,09,01,,,15,8*7B,1621218795652
$GPGSA,A,3,01,04,07,08,09,16,21,27,30,,,,1.8,0.9,1.5*37,1621218795652
$GNGSA,A,3,01,04,07,08,09,16,21,27,30,,,,1.8,0.9,1.5*29,1621218795652
$GNGSA,A,3,73,79,80,82,,,,,,,,,1.8,0.9,1.5*20,1621218795652
$QZGSA,A,3,01,02,,,,,,,,,,,1.8,0.9,1.5*29,1621218795652
$IMGSA,A,3,,,,,,,,,,,,,1.8,0.9,1.5*25,1621218795652
$BDGSA,A,3,,,,,,,,,,,,,1.8,0.9,1.5*27,1621218795652
$GAGSA,A,3,,,,,,,,,,,,,1.8,0.9,1.5*27,1621218795654
$GPRMC,023310.00,A,2218.055404,N,11410.727880,E,007.1,202.0,170521,,,A*55,1621218795654
$GPGGA,023311.00,2218.054568,N,11410.728588,E,1,15,0.8,20.0,M,-1.3,M,,*41,1621218796650
$GPGSV,5,1,16,21,61,133,28,07,56,321,26,08,54,011,15,01,42,169,22*71,1621218796653
$GPGSV,5,2,16,09,29,233,28,27,24,036,16,04,21,196,13,30,18,320,21*71,1621218796653
$GPGSV,5,3,16,16,16,077,20,26,02,096,*73,1621218796653
$GPGSV,5,4,16,08,,,,01,,,19,09,,,26,27,,,,8*62,1621218796654
$GPGSV,5,5,16,30,,,10,26,,,,8*6C,1621218796654
$GLGSV,2,1,05,80,53,067,13,73,38,349,24,82,25,026,19,79,13,117,21*60,1621218796654
$GLGSV,2,2,05,84,40,205,*5F,1621218796654
$QZGSV,2,1,04,02,62,070,17,01,11,156,13*64,1621218796654
$QZGSV,2,2,04,02,,,,01,,,,8*76,1621218796654
$GPGSA,A,3,01,04,07,08,09,16,21,27,30,,,,1.9,1.1,1.6*3C,1621218796654
$GNGSA,A,3,01,04,07,08,09,16,21,27,30,,,,1.9,1.1,1.6*22,1621218796656
$GNGSA,A,3,73,79,80,82,,,,,,,,,1.9,1.1,1.6*2B,1621218796656
$QZGSA,A,3,01,02,,,,,,,,,,,1.9,1.1,1.6*22,1621218796657
$IMGSA,A,3,,,,,,,,,,,,,1.9,1.1,1.6*2E,1621218796658
$BDGSA,A,3,,,,,,,,,,,,,1.9,1.1,1.6*2C,1621218796659
$GAGSA,A,3,,,,,,,,,,,,,1.9,1.1,1.6*2C,1621218796659
$GPRMC,023311.00,A,2218.054568,N,11410.728588,E,007.5,168.7,170521,,,A*58,1621218796659
$GPGGA,023312.00,2218.053259,N,11410.730065,E,1,14,0.8,22.5,M,-1.3,M,,*49,1621218797649
$GPGSV,5,1,16,21,61,133,32,07,56,321,25,08,54,011,22,01,42,169,24*7B,1621218797651
$GPGSV,5,2,16,09,29,233,28,27,24,036,18,04,21,196,13,30,18,320,21*7F,1621218797651
$GPGSV,5,3,16,16,16,077,19,26,02,096,*79,1621218797651
$GPGSV,5,4,16,08,,,19,01,,,19,09,,,25,27,,,10,8*68,1621218797651
$GPGSV,5,5,16,30,,,,26,,,,8*6D,1621218797651
$GLGSV,2,1,05,80,53,067,23,73,38,349,24,82,25,026,18,79,13,117,21*62,1621218797651
$GLGSV,2,2,05,84,40,205,*5F,1621218797651
$QZGSV,2,1,04,02,62,070,25,01,11,156,13*65,1621218797651
$QZGSV,2,2,04,02,,,22,01,,,13,8*74,1621218797651
$GPGSA,A,3,01,07,08,09,16,21,27,30,,,,,1.8,0.9,1.5*33,1621218797651
$GNGSA,A,3,01,07,08,09,16,21,27,30,,,,,1.8,0.9,1.5*2D,1621218797651
$GNGSA,A,3,73,79,80,82,,,,,,,,,1.8,0.9,1.5*20,1621218797651
$QZGSA,A,3,01,02,,,,,,,,,,,1.8,0.9,1.5*29,1621218797651
$IMGSA,A,3,,,,,,,,,,,,,1.8,0.9,1.5*25,1621218797651
$BDGSA,A,3,,,,,,,,,,,,,1.8,0.9,1.5*27,1621218797651
$GAGSA,A,3,,,,,,,,,,,,,1.8,0.9,1.5*27,1621218797651
$GPRMC,023312.00,A,2218.053259,N,11410.730065,E,006.9,142.0,170521,,,A*54,1621218797651
$GPGGA,023313.00,2218.051740,N,11410.731734,E,1,14,0.8,24.5,M,-1.3,M,,*43,1621218798643
$GPGSV,5,1,16,21,61,133,34,07,56,321,25,08,54,011,27,01,42,169,31*7C,1621218798646
$GPGSV,5,2,16,09,29,233,27,27,24,036,23,04,21,196,13,30,18,320,20*79,1621218798646
$GPGSV,5,3,16,16,16,077,19,26,02,096,*79,1621218798646
$GPGSV,5,4,16,08,,,25,01,,,21,09,,,25,27,,,10,8*6C,1621218798646
$GPGSV,5,5,16,30,,,,26,,,,8*6D,1621218798646
$GLGSV,2,1,05,80,53,067,24,73,38,349,23,82,25,026,19,79,13,117,20*62,1621218798646
$GLGSV,2,2,05,84,40,205,*5F,1621218798646
$QZGSV,2,1,04,02,62,070,29,01,11,156,13*69,1621218798646
$QZGSV,2,2,04,02,,,23,01,,,,8*77,1621218798646
$GPGSA,A,3,01,07,08,09,16,21,27,30,,,,,2.0,1.1,1.7*33,1621218798646
$GNGSA,A,3,01,07,08,09,16,21,27,30,,,,,2.0,1.1,1.7*2D,1621218798646
$GNGSA,A,3,73,79,80,82,,,,,,,,,2.0,1.1,1.7*20,1621218798646
$QZGSA,A,3,01,02,,,,,,,,,,,2.0,1.1,1.7*29,1621218798646
$IMGSA,A,3,,,,,,,,,,,,,2.0,1.1,1.7*25,1621218798646
$BDGSA,A,3,,,,,,,,,,,,,2.0,1.1,1.7*27,1621218798646
$GAGSA,A,3,,,,,,,,,,,,,2.0,1.1,1.7*27,1621218798647
$GPRMC,023313.00,A,2218.051740,N,11410.731734,E,006.9,133.4,170521,,,A*5A,1621218798647
$GPGGA,023314.00,2218.049637,N,11410.733325,E,1,14,0.8,23.2,M,-1.3,M,,*4A,1621218799648
$GPGSV,5,1,16,21,61,133,35,07,56,321,25,08,54,011,27,01,42,169,34*78,1621218799653
$GPGSV,5,2,16,09,29,233,26,27,24,036,26,04,21,196,12,30,18,320,20*7C,1621218799654
$GPGSV,5,3,16,16,16,077,19,26,02,096,*79,1621218799654
$GPGSV,5,4,16,08,,,25,01,,,20,09,,,24,27,,,14,8*68,1621218799655
$GPGSV,5,5,16,30,,,,26,,,,8*6D,1621218799655
$GLGSV,2,1,05,80,53,067,27,73,39,349,23,82,25,026,27,79,13,117,19*67,1621218799655
$GLGSV,2,2,05,84,40,205,*5F,1621218799657
$QZGSV,2,1,04,02,62,070,30,01,11,156,13*61,1621218799657
$QZGSV,2,2,04,02,,,23,01,,,,8*77,1621218799658
$GPGSA,A,3,01,07,08,09,16,21,27,30,,,,,1.7,1.0,1.3*32,1621218799658
$GNGSA,A,3,01,07,08,09,16,21,27,30,,,,,1.7,1.0,1.3*2C,1621218799658
$GNGSA,A,3,73,79,80,82,,,,,,,,,1.7,1.0,1.3*21,1621218799659
$QZGSA,A,3,01,02,,,,,,,,,,,1.7,1.0,1.3*28,1621218799659
$IMGSA,A,3,,,,,,,,,,,,,1.7,1.0,1.3*24,1621218799659
$BDGSA,A,3,,,,,,,,,,,,,1.7,1.0,1.3*26,1621218799660
$GAGSA,A,3,,,,,,,,,,,,,1.7,1.0,1.3*26,1621218799660
$GPRMC,023314.00,A,2218.049637,N,11410.733325,E,007.9,138.0,170521,,,A*5D,1621218799661
$GPGGA,023315.00,2218.046657,N,11410.735553,E,1,14,0.8,23.0,M,-1.3,M,,*41,1621218800643
$GPGSV,5,1,16,21,61,133,35,07,56,321,25,08,54,011,27,01,42,169,34*78,1621218800646
$GPGSV,5,2,16,09,29,233,25,27,24,036,26,04,21,196,12,30,18,320,19*75,1621218800646
$GPGSV,5,3,16,16,16,077,18,26,02,096,*78,1621218800646
$GPGSV,5,4,16,08,,,27,01,,,20,09,,,22,27,,,17,8*6F,1621218800646
$GPGSV,5,5,16,30,,,,26,,,,8*6D,1621218800647
$GLGSV,2,1,05,80,53,067,28,73,39,349,23,82,25,026,28,79,13,117,19*67,1621218800647
$GLGSV,2,2,05,84,40,205,*5F,1621218800647
$QZGSV,2,1,04,02,62,070,30,01,11,156,14*66,1621218800647
$QZGSV,2,2,04,02,,,24,01,,,12,8*73,1621218800647
$GPGSA,A,3,01,07,08,09,16,21,27,30,,,,,2.2,1.3,1.7*33,1621218800647
$GNGSA,A,3,01,07,08,09,16,21,27,30,,,,,2.2,1.3,1.7*2D,1621218800647
$GNGSA,A,3,73,79,80,82,,,,,,,,,2.2,1.3,1.7*20,1621218800647
$QZGSA,A,3,01,02,,,,,,,,,,,2.2,1.3,1.7*29,1621218800647
$IMGSA,A,3,,,,,,,,,,,,,2.2,1.3,1.7*25,1621218800647
$BDGSA,A,3,,,,,,,,,,,,,2.2,1.3,1.7*27,1621218800647
$GAGSA,A,3,,,,,,,,,,,,,2.2,1.3,1.7*27,1621218800647
$GPRMC,023315.00,A,2218.046657,N,11410.735553,E,009.0,145.1,170521,,,A*58,1621218800647
$GPGGA,023316.00,2218.043520,N,11410.738150,E,1,14,0.8,23.2,M,-1.3,M,,*4C,1621218801648
$GPGSV,5,1,16,21,61,133,35,07,56,321,27,08,54,011,29,01,42,169,33*73,1621218801653
$GPGSV,5,2,16,09,29,233,23,27,24,036,27,04,21,196,13,30,18,320,19*73,1621218801653
$GPGSV,5,3,16,16,16,077,18,26,02,096,*78,1621218801654
$GPGSV,5,4,16,08,,,31,01,,,20,09,,,21,27,,,20,8*6F,1621218801654
$GPGSV,5,5,16,30,,,,26,,,,8*6D,1621218801654
$GLGSV,2,1,05,80,53,067,28,73,39,349,22,82,25,026,28,79,13,117,19*66,1621218801655
$GLGSV,2,2,05,84,40,205,*5F,1621218801655
$QZGSV,2,1,04,02,62,070,30,01,11,156,19*6B,1621218801658
$QZGSV,2,2,04,02,,,24,01,,,20,8*72,1621218801659
$GPGSA,A,3,01,04,07,08,16,21,27,30,,,,,2.0,1.3,1.6*3D,1621218801659
$GNGSA,A,3,01,04,07,08,16,21,27,30,,,,,2.0,1.3,1.6*23,1621218801659
$GNGSA,A,3,73,79,80,82,,,,,,,,,2.0,1.3,1.6*23,1621218801660
$QZGSA,A,3,01,02,,,,,,,,,,,2.0,1.3,1.6*2A,1621218801660
$IMGSA,A,3,,,,,,,,,,,,,2.0,1.3,1.6*26,1621218801660
$BDGSA,A,3,,,,,,,,,,,,,2.0,1.3,1.6*24,1621218801661
$GAGSA,A,3,,,,,,,,,,,,,2.0,1.3,1.6*24,1621218801661
$GPRMC,023316.00,A,2218.043520,N,11410.738150,E,010.8,148.2,170521,,,A*59,1621218801661
$GPGGA,023317.00,2218.041433,N,11410.740723,E,1,15,0.8,20.8,M,-1.3,M,,*49,1621218802641
$GPGSV,5,1,16,21,61,133,35,07,56,321,27,08,54,011,29,01,42,169,33*73,1621218802643
$GPGSV,5,2,16,09,29,233,23,27,24,036,27,04,20,196,20,30,18,320,20*78,1621218802643
$GPGSV,5,3,16,16,16,077,17,26,02,096,*77,1621218802643
$GPGSV,5,4,16,08,,,30,01,,,20,09,,,,27,,,20,8*6D,1621218802643
$GPGSV,5,5,16,30,,,17,26,,,,8*6B,1621218802643
$GLGSV,2,1,05,80,53,067,28,73,39,349,22,82,25,026,28,79,13,117,20*6C,1621218802643
$GLGSV,2,2,05,84,40,205,*5F,1621218802643
$QZGSV,2,1,04,02,62,070,29,01,11,156,18*62,1621218802643
$QZGSV,2,2,04,02,,,23,01,,,20,8*75,1621218802643
$GPGSA,A,3,01,04,07,08,09,16,21,27,30,,,,2.1,1.3,1.6*35,1621218802643
$GNGSA,A,3,01,04,07,08,09,16,21,27,30,,,,2.1,1.3,1.6*2B,1621218802643
$GNGSA,A,3,73,79,80,82,,,,,,,,,2.1,1.3,1.6*22,1621218802644
$QZGSA,A,3,01,02,,,,,,,,,,,2.1,1.3,1.6*2B,1621218802644
$IMGSA,A,3,,,,,,,,,,,,,2.1,1.3,1.6*27,1621218802644
$BDGSA,A,3,,,,,,,,,,,,,2.1,1.3,1.6*25,1621218802644
$GAGSA,A,3,,,,,,,,,,,,,2.1,1.3,1.6*25,1621218802644
$GPRMC,023317.00,A,2218.041433,N,11410.740723,E,011.8,145.7,170521,,,A*5D,1621218802644
$GPGGA,023318.00,2218.039066,N,11410.743380,E,1,15,0.8,20.9,M,-1.3,M,,*42,1621218803654
$GPGSV,5,1,16,21,61,133,35,07,56,321,27,08,54,011,29,01,42,169,31*71,1621218803659
$GPGSV,5,2,16,09,29,233,23,27,24,036,27,04,20,196,20,30,18,320,21*79,1621218803659
$GPGSV,5,3,16,16,16,077,17,26,02,096,*77,1621218803659
$GPGSV,5,4,16,08,,,29,01,,,19,09,,,,27,,,19,8*65,1621218803659
$GPGSV,5,5,16,30,,,17,26,,,,8*6B,1621218803659
$GLGSV,2,1,06,80,53,067,27,73,39,349,22,82,25,026,27,79,13,117,20*6F,1621218803660
$GLGSV,2,2,06,84,40,205,,74,00,321,*6F,1621218803660
$QZGSV,2,1,04,02,62,070,28,01,11,156,20*68,1621218803660
$QZGSV,2,2,04,02,,,22,01,,,20,8*74,1621218803660
$GPGSA,A,3,01,04,07,08,09,16,21,27,30,,,,1.5,0.9,1.2*3D,1621218803660
$GNGSA,A,3,01,04,07,08,09,16,21,27,30,,,,1.5,0.9,1.2*23,1621218803660
$GNGSA,A,3,73,79,80,82,,,,,,,,,1.5,0.9,1.2*2A,1621218803660
$QZGSA,A,3,01,02,,,,,,,,,,,1.5,0.9,1.2*23,1621218803660
$IMGSA,A,3,,,,,,,,,,,,,1.5,0.9,1.2*2F,1621218803660
$BDGSA,A,3,,,,,,,,,,,,,1.5,0.9,1.2*2D,1621218803660
$GAGSA,A,3,,,,,,,,,,,,,1.5,0.9,1.2*2D,1621218803660
$GPRMC,023318.00,A,2218.039066,N,11410.743380,E,012.7,145.3,170521,,,A*5F,1621218803660
$GPGGA,023319.00,2218.036210,N,11410.746364,E,1,15,0.8,20.5,M,-1.3,M,,*4C,1621218804657
$GPGSV,5,1,16,21,61,133,35,07,56,321,27,08,54,011,28,01,42,169,30*71,1621218804660
$GPGSV,5,2,16,09,29,233,23,27,24,036,27,04,20,196,19,30,18,320,21*73,1621218804660
$GPGSV,5,3,16,16,16,077,17,26,02,096,*77,1621218804660
$GPGSV,5,4,16,08,,,28,01,,,18,09,,,21,27,,,19,8*66,1621218804660
$GPGSV,5,5,16,30,,,16,26,,,,8*6A,1621218804660
$GLGSV,2,1,06,80,53,067,26,73,39,349,21,82,24,026,27,79,13,117,20*6C,1621218804660
$GLGSV,2,2,06,84,40,205,,74,00,321,*6F,1621218804660
$QZGSV,2,1,04,02,62,070,27,01,11,156,20*67,1621218804660
$QZGSV,2,2,04,02,,,21,01,,,20,8*77,1621218804660
$GPGSA,A,3,01,04,07,08,09,16,21,27,30,,,,1.6,0.9,1.3*3F,1621218804660
$GNGSA,A,3,01,04,07,08,09,16,21,27,30,,,,1.6,0.9,1.3*21,1621218804661
$GNGSA,A,3,73,79,80,82,,,,,,,,,1.6,0.9,1.3*28,1621218804661
$QZGSA,A,3,01,02,,,,,,,,,,,1.6,0.9,1.3*21,1621218804661
$IMGSA,A,3,,,,,,,,,,,,,1.6,0.9,1.3*2D,1621218804661
$BDGSA,A,3,,,,,,,,,,,,,1.6,0.9,1.3*2F,1621218804661
$GAGSA,A,3,,,,,,,,,,,,,1.6,0.9,1.3*2F,1621218804661
$GPRMC,023319.00,A,2218.036210,N,11410.746364,E,015.2,141.4,170521,,,A*5C,1621218804661
$GPGGA,023320.00,2218.032629,N,11410.749944,E,1,14,0.8,21.2,M,-1.3,M,,*4C,1621218805644
$GPGSV,5,1,16,21,61,133,35,07,56,321,26,08,54,011,28,01,42,169,29*78,1621218805649
$GPGSV,5,2,16,09,29,233,23,27,24,036,26,04,20,196,19,30,18,320,21*72,1621218805649
$GPGSV,5,3,16,16,16,077,16,26,02,096,*76,1621218805649
$GPGSV,5,4,16,08,,,27,01,,,23,09,,,25,27,,,18,8*64,1621218805649
$GPGSV,5,5,16,30,,,16,26,,,,8*6A,1621218805649
$GLGSV,2,1,06,80,53,067,24,73,39,349,28,82,24,026,27,79,13,117,22*65,1621218805649
$GLGSV,2,2,06,84,40,205,,74,00,321,*6F,1621218805649
$QZGSV,2,1,04,02,62,070,25,01,11,156,20*65,1621218805649
$QZGSV,2,2,04,02,,,19,01,,,20,8*7C,1621218805649
$GPGSA,A,3,01,04,07,08,09,16,21,27,30,,,,1.8,1.0,1.5*3F,1621218805649
$GNGSA,A,3,01,04,07,08,09,16,21,27,30,,,,1.8,1.0,1.5*21,1621218805649
$GNGSA,A,3,73,79,80,82,,,,,,,,,1.8,1.0,1.5*28,1621218805649
$QZGSA,A,3,01,,,,,,,,,,,,1.8,1.0,1.5*23,1621218805649
$IMGSA,A,3,,,,,,,,,,,,,1.8,1.0,1.5*2D,1621218805649
$BDGSA,A,3,,,,,,,,,,,,,1.8,1.0,1.5*2F,1621218805649
$GAGSA,A,3,,,,,,,,,,,,,1.8,1.0,1.5*2F,1621218805650
$GPRMC,023320.00,A,2218.032629,N,11410.749944,E,016.6,137.3,170521,,,A*5A,1621218805650
$GPGGA,023321.00,2218.029638,N,11410.753633,E,1,15,0.8,23.0,M,-1.3,M,,*42,1621218806641
$GPGSV,5,1,16,21,61,133,36,07,56,321,28,08,54,011,27,01,42,169,29*7A,1621218806647
$GPGSV,5,2,16,09,29,233,26,27,24,036,25,04,20,196,19,30,18,320,21*74,1621218806648
$GPGSV,5,3,16,16,16,077,16,26,02,096,*76,1621218806649
$GPGSV,5,4,16,08,,,26,01,,,30,09,,,26,27,,,17,8*6B,1621218806649
$GPGSV,5,5,16,30,,,,26,,,,8*6D,1621218806649
$GLGSV,2,1,06,80,53,067,23,73,39,349,27,82,24,026,26,79,13,117,24*6A,1621218806649
$GLGSV,2,2,06,84,40,205,,74,00,321,*6F,1621218806649
$QZGSV,2,1,04,02,62,070,,01,11,156,20*62,1621218806649
$QZGSV,2,2,04,02,,,19,01,,,19,8*76,1621218806649
$GPGSA,A,3,01,04,07,08,09,16,21,27,30,,,,2.3,1.0,2.0*31,1621218806649
$GNGSA,A,3,01,04,07,08,09,16,21,27,30,,,,2.3,1.0,2.0*2F,1621218806649
$GNGSA,A,3,73,79,80,82,,,,,,,,,2.3,1.0,2.0*26,1621218806649
$QZGSA,A,3,01,02,,,,,,,,,,,2.3,1.0,2.0*2F,1621218806649
$IMGSA,A,3,,,,,,,,,,,,,2.3,1.0,2.0*23,1621218806649
$BDGSA,A,3,,,,,,,,,,,,,2.3,1.0,2.0*21,1621218806650
$GAGSA,A,3,,,,,,,,,,,,,2.3,1.0,2.0*21,1621218806650
$GPRMC,023321.00,A,2218.029638,N,11410.753633,E,017.4,137.9,170521,,,A*5C,1621218806650
$GPGGA,023322.00,2218.026140,N,11410.757405,E,1,13,0.8,24.2,M,-1.3,M,,*46,1621218807636
$GPGSV,5,1,16,21,61,133,37,07,56,321,28,08,54,011,26,01,42,169,28*7B,1621218807643
$GPGSV,5,2,16,09,29,233,29,27,24,036,24,04,20,196,19,30,18,320,21*7A,1621218807644
$GPGSV,5,3,16,16,16,077,15,26,02,096,*75,1621218807644
$GPGSV,5,4,16,08,,,24,01,,,31,09,,,25,27,,,,8*6D,1621218807645
$GPGSV,5,5,16,30,,,,26,,,,8*6D,1621218807645
$GLGSV,2,1,06,80,53,067,23,73,39,349,27,82,24,026,24,79,13,118,28*6B,1621218807646
$GLGSV,2,2,06,84,40,205,,74,00,321,*6F,1621218807646
$QZGSV,2,1,04,02,62,070,26,01,11,156,20*66,1621218807647
$QZGSV,2,2,04,02,,,20,01,,,18,8*7D,1621218807647
$GPGSA,A,3,01,04,07,08,09,16,21,30,,,,,2.8,1.8,2.1*36,1621218807648
$GNGSA,A,3,01,04,07,08,09,16,21,30,,,,,2.8,1.8,2.1*28,1621218807648
$GNGSA,A,3,73,79,80,,,,,,,,,,2.8,1.8,2.1*2E,1621218807648
$QZGSA,A,3,01,02,,,,,,,,,,,2.8,1.8,2.1*2D,1621218807649
$IMGSA,A,3,,,,,,,,,,,,,2.8,1.8,2.1*21,1621218807649
$BDGSA,A,3,,,,,,,,,,,,,2.8,1.8,2.1*23,1621218807650
$GAGSA,A,3,,,,,,,,,,,,,2.8,1.8,2.1*23,1621218807650
$GPRMC,023322.00,A,2218.026140,N,11410.757405,E,017.6,139.9,170521,,,A*57,1621218807651
$GPGGA,023323.00,2218.022199,N,11410.761234,E,1,13,0.8,24.3,M,-1.3,M,,*47,1621218808645
$GPGSV,5,2,16,09,29,233,30,27,24,036,22,04,20,196,18,30,18,320,21*75,1621218808652
$GPGSV,5,3,16,16,16,077,15,26,02,096,*75,1621218808652
$GPGSV,5,4,16,08,,,24,01,,,31,09,,,24,27,,,,8*6C,1621218808653
$GPGSV,5,5,16,30,,,,26,,,,8*6D,1621218808653
$GLGSV,2,1,06,80,53,067,23,73,39,349,26,82,24,026,23,79,13,118,28*6D,1621218808654
$GLGSV,2,2,06,84,41,205,,74,00,321,*6E,1621218808654
$QZGSV,2,1,04,02,62,070,26,01,11,156,20*66,1621218808656
$QZGSV,2,2,04,02,,,20,01,,,18,8*7D,1621218808656
$GPGSA,A,3,01,04,07,08,09,16,21,30,,,,,2.1,1.4,1.5*34,1621218808657
$GNGSA,A,3,01,04,07,08,09,16,21,30,,,,,2.1,1.4,1.5*2A,1621218808657
$GNGSA,A,3,73,79,80,,,,,,,,,,2.1,1.4,1.5*2C,1621218808658
$QZGSA,A,3,01,02,,,,,,,,,,,2.1,1.4,1.5*2F,1621218808659
$IMGSA,A,3,,,,,,,,,,,,,2.1,1.4,1.5*23,1621218808660
$BDGSA,A,3,,,,,,,,,,,,,2.1,1.4,1.5*21,1621218808660
$GAGSA,A,3,,,,,,,,,,,,,2.1,1.4,1.5*21,1621218808661
$GPRMC,023323.00,A,2218.022199,N,11410.761234,E,018.0,139.9,170521,,,A*5E,1621218808661
$GPGGA,023324.00,2218.017931,N,11410.765097,E,1,14,0.8,24.3,M,-1.3,M,,*44,1621218809644
$GPGSV,5,1,16,21,61,133,37,07,56,321,28,08,54,011,26,01,42,169,28*7B,1621218809647
$GPGSV,5,2,16,09,29,233,29,27,24,036,26,04,20,196,18,30,18,320,21*79,1621218809647
$GPGSV,5,3,16,16,16,077,15,26,02,096,*75,1621218809647
$GPGSV,5,4,16,08,,,23,01,,,30,09,,,23,27,,,,8*6D,1621218809647
$GPGSV,5,5,16,30,,,13,26,,,,8*6F,1621218809647
$GLGSV,2,1,06,80,53,067,27,73,39,349,25,82,24,026,22,79,13,118,27*64,1621218809647
$GLGSV,2,2,06,84,41,205,,74,00,321,*6E,1621218809647
$QZGSV,2,1,04,02,62,070,28,01,11,156,20*68,1621218809647
$QZGSV,2,2,04,02,,,23,01,,,18,8*7E,1621218809647
$GPGSA,A,3,01,04,07,08,09,16,21,27,30,,,,2.8,2.3,1.6*3F,1621218809647
$GNGSA,A,3,01,04,07,08,09,16,21,27,30,,,,2.8,2.3,1.6*21,1621218809647
$GNGSA,A,3,73,79,80,,,,,,,,,,2.8,2.3,1.6*22,1621218809647
$QZGSA,A,3,01,02,,,,,,,,,,,2.8,2.3,1.6*21,1621218809647
$IMGSA,A,3,,,,,,,,,,,,,2.8,2.3,1.6*2D,1621218809648
$BDGSA,A,3,,,,,,,,,,,,,2.8,2.3,1.6*2F,1621218809648
$GAGSA,A,3,,,,,,,,,,,,,2.8,2.3,1.6*2F,1621218809648
$GPRMC,023324.00,A,2218.017931,N,11410.765097,E,017.9,140.7,170521,,,A*5C,1621218809648
$GPGGA,023325.00,2218.013738,N,11410.769194,E,1,14,0.8,25.1,M,-1.3,M,,*4B,1621218810644
$GPGSV,5,1,16,21,61,133,37,07,56,321,28,08,54,011,25,01,42,169,27*77,1621218810648
$GPGSV,5,2,16,09,29,233,29,27,24,036,26,04,20,196,18,30,18,320,20*78,1621218810648
$GPGSV,5,3,16,16,16,077,15,26,02,096,*75,1621218810648
$GPGSV,5,4,16,08,,,23,01,,,29,09,,,,27,,,,8*64,1621218810648
$GPGSV,5,5,16,30,,,12,26,,,,8*6E,1621218810648
$GLGSV,2,1,06,80,53,067,28,73,39,349,24,82,24,026,20,79,13,118,27*68,1621218810648
$GLGSV,2,2,06,84,41,205,,74,00,321,*6E,1621218810648
$QZGSV,2,1,04,02,62,070,32,01,11,156,20*63,1621218810648
$QZGSV,2,2,04,02,,,25,01,,,17,8*77,1621218810648
$GPGSA,A,3,01,04,07,08,09,16,21,27,30,,,,3.9,2.3,3.1*3A,1621218810648
$GNGSA,A,3,01,04,07,08,09,16,21,27,30,,,,3.9,2.3,3.1*24,1621218810648
$GNGSA,A,3,73,79,80,,,,,,,,,,3.9,2.3,3.1*27,1621218810648
$QZGSA,A,3,01,02,,,,,,,,,,,3.9,2.3,3.1*24,1621218810648
$IMGSA,A,3,,,,,,,,,,,,,3.9,2.3,3.1*28,1621218810648
$BDGSA,A,3,,,,,,,,,,,,,3.9,2.3,3.1*2A,1621218810649
$GAGSA,A,3,,,,,,,,,,,,,3.9,2.3,3.1*2A,1621218810649
$GPRMC,023325.00,A,2218.013738,N,11410.769194,E,017.5,140.3,170521,,,A*58,1621218810649
$GPGGA,023326.00,2218.009669,N,11410.772947,E,1,14,0.8,27.2,M,-1.3,M,,*4B,1621218811651
$GPGSV,5,1,16,21,61,133,37,07,56,321,28,08,54,011,24,01,42,169,27*76,1621218811658
$GPGSV,5,2,16,09,29,233,28,27,24,036,25,04,20,196,18,30,18,320,20*7A,1621218811658
$GPGSV,5,3,16,16,16,077,15,26,02,096,*75,1621218811659
$GPGSV,5,4,16,08,,,22,01,,,27,09,,,,27,,,,8*6B,1621218811659
$GPGSV,5,5,16,30,,,,26,,,,8*6D,1621218811660
$GLGSV,2,1,06,80,53,067,27,73,39,349,24,82,24,026,19,79,13,118,27*6D,1621218811660
$GLGSV,2,2,06,84,41,205,,74,00,321,*6E,1621218811661
$QZGSV,2,1,04,02,62,070,32,01,11,156,20*63,1621218811661
$QZGSV,2,2,04,02,,,27,01,,,22,8*73,1621218811661
$GPGSA,A,3,01,04,07,08,09,16,21,27,30,,,,2.0,1.5,1.3*37,1621218811661
$GNGSA,A,3,01,04,07,08,09,16,21,27,30,,,,2.0,1.5,1.3*29,1621218811661
$GNGSA,A,3,73,79,80,,,,,,,,,,2.0,1.5,1.3*2A,1621218811661
$QZGSA,A,3,01,02,,,,,,,,,,,2.0,1.5,1.3*29,1621218811661
$IMGSA,A,3,,,,,,,,,,,,,2.0,1.5,1.3*25,1621218811661
$BDGSA,A,3,,,,,,,,,,,,,2.0,1.5,1.3*27,1621218811661
$GAGSA,A,3,,,,,,,,,,,,,2.0,1.5,1.3*27,1621218811661
$GPRMC,023326.00,A,2218.009669,N,11410.772947,E,017.0,140.3,170521,,,A*5C,1621218811662
$GPGGA,023327.00,2218.005915,N,11410.776549,E,1,14,0.8,26.3,M,-1.3,M,,*44,1621218812658
$GPGSV,5,1,16,21,61,133,37,07,56,321,28,08,54,011,24,01,42,169,26*77,1621218812663
$GPGSV,5,2,16,09,29,233,28,27,24,036,25,04,20,196,18,30,18,320,20*7A,1621218812663
$GPGSV,5,3,16,16,16,077,15,26,02,096,*75,1621218812663
$GPGSV,5,4,16,08,,,24,01,,,27,09,,,,27,,,,8*6D,1621218812663
$GPGSV,5,5,16,30,,,,26,,,,8*6D,1621218812663
$GLGSV,2,1,06,80,53,068,27,73,39,349,25,82,24,026,18,79,13,118,26*63,1621218812663
$GLGSV,2,2,06,84,41,205,,74,00,321,*6E,1621218812663
$QZGSV,2,1,04,02,62,070,32,01,11,156,25*66,1621218812663
$QZGSV,2,2,04,02,,,27,01,,,22,8*73,1621218812663
$GPGSA,A,3,01,04,07,08,09,16,21,27,30,,,,2.6,2.0,1.7*33,1621218812663
$GNGSA,A,3,01,04,07,08,09,16,21,27,30,,,,2.6,2.0,1.7*2D,1621218812663
$GNGSA,A,3,73,79,80,,,,,,,,,,2.6,2.0,1.7*2E,1621218812663
$QZGSA,A,3,01,02,,,,,,,,,,,2.6,2.0,1.7*2D,1621218812663
$IMGSA,A,3,,,,,,,,,,,,,2.6,2.0,1.7*21,1621218812663
$BDGSA,A,3,,,,,,,,,,,,,2.6,2.0,1.7*23,1621218812663
$GAGSA,A,3,,,,,,,,,,,,,2.6,2.0,1.7*23,1621218812663
$GPRMC,023327.00,A,2218.005915,N,11410.776549,E,014.5,141.7,170521,,,A*50,1621218812663
$GPGGA,023328.00,2218.003136,N,11410.779103,E,1,14,0.8,25.2,M,-1.3,M,,*43,1621218813642
$GPGSV,5,1,16,21,61,133,38,07,56,321,27,08,54,011,26,01,42,169,26*75,1621218813644
$GPGSV,5,2,16,09,29,233,27,27,24,036,24,04,20,196,23,30,18,320,20*7C,1621218813645
$GPGSV,5,3,16,16,16,077,15,26,02,096,*75,1621218813645
$GPGSV,5,4,16,08,,,24,01,,,27,09,,,18,27,,,,8*64,1621218813645
$GPGSV,5,5,16,30,,,11,26,,,,8*6D,1621218813645
$GLGSV,2,1,06,80,53,068,27,73,39,349,25,82,24,026,17,79,13,118,27*6D,1621218813645
$GLGSV,2,2,06,84,41,205,,74,00,321,*6E,1621218813645
$QZGSV,2,1,04,02,62,070,31,01,11,156,29*69,1621218813645
$QZGSV,2,2,04,02,,,26,01,,,27,8*77,1621218813645
$GPGSA,A,3,01,04,07,08,09,16,21,27,30,,,,1.6,1.0,1.2*36,1621218813645
$GNGSA,A,3,01,04,07,08,09,16,21,27,30,,,,1.6,1.0,1.2*28,1621218813645
$GNGSA,A,3,73,79,80,,,,,,,,,,1.6,1.0,1.2*2B,1621218813645
$QZGSA,A,3,01,02,,,,,,,,,,,1.6,1.0,1.2*28,1621218813645
$IMGSA,A,3,,,,,,,,,,,,,1.6,1.0,1.2*24,1621218813646
$BDGSA,A,3,,,,,,,,,,,,,1.6,1.0,1.2*26,1621218813646
$GAGSA,A,3,,,,,,,,,,,,,1.6,1.0,1.2*26,1621218813646
$GPRMC,023328.00,A,2218.003136,N,11410.779103,E,011.2,141.2,170521,,,A*52,1621218813646
$GPGGA,023329.00,2218.001030,N,11410.781222,E,1,14,0.8,24.2,M,-1.3,M,,*41,1621218814651
$GPGSV,5,1,16,21,61,133,38,07,56,321,28,08,54,011,25,01,42,169,26*79,1621218814656
$GPGSV,5,2,16,09,29,233,26,27,24,036,23,04,20,196,26,30,18,320,20*7F,1621218814656
$GPGSV,5,3,16,16,16,077,15,26,02,096,*75,1621218814656
$GPGSV,5,4,16,08,,,24,01,,,26,09,,,,27,,,12,8*6F,1621218814656
$GPGSV,5,5,16,30,,,,26,,,,8*6D,1621218814656
$GLGSV,2,1,06,80,53,068,26,73,39,349,25,82,24,026,17,79,13,118,28*63,1621218814656
$GLGSV,2,2,06,84,41,205,,74,00,321,*6E,1621218814656
$QZGSV,2,1,04,02,62,070,30,01,11,156,28*69,1621218814656
$QZGSV,2,2,04,02,,,26,01,,,27,8*77,1621218814657
$GPGSA,A,3,01,04,07,08,09,16,21,27,30,,,,1.5,1.0,1.2*35,1621218814657
$GNGSA,A,3,01,04,07,08,09,16,21,27,30,,,,1.5,1.0,1.2*2B,1621218814657
$GNGSA,A,3,73,79,80,,,,,,,,,,1.5,1.0,1.2*28,1621218814657
$QZGSA,A,3,01,02,,,,,,,,,,,1.5,1.0,1.2*2B,1621218814657
$IMGSA,A,3,,,,,,,,,,,,,1.5,1.0,1.2*27,1621218814657
$BDGSA,A,3,,,,,,,,,,,,,1.5,1.0,1.2*25,1621218814657
$GAGSA,A,3,,,,,,,,,,,,,1.5,1.0,1.2*25,1621218814657
$GPRMC,023329.00,A,2218.001030,N,11410.781222,E,006.2,141.0,170521,,,A*55,1621218814657
$GPGSV,5,2,16,09,29,233,26,27,24,036,23,04,20,196,30,30,18,320,20*78,1621218815648
$GPGSV,5,3,16,16,16,077,16,26,02,096,*76,1621218815648
$GPGSV,5,4,16,08,,,23,01,,,26,09,,,,27,,,,8*6B,1621218815648
$GPGSV,5,5,16,30,,,,26,,,,8*6D,1621218815648
$GLGSV,2,1,06,80,53,068,25,73,39,349,25,82,24,026,16,79,13,118,30*68,1621218815648
$GLGSV,2,2,06,84,41,205,,74,00,321,*6E,1621218815648
$QZGSV,2,1,04,02,62,070,29,01,11,156,28*61,1621218815648
$QZGSV,2,2,04,02,,,24,01,,,27,8*75,1621218815648
$GPGSA,A,3,01,04,07,08,09,16,21,27,30,,,,1.5,1.0,1.2*35,1621218815649
$GNGSA,A,3,01,04,07,08,09,16,21,27,30,,,,1.5,1.0,1.2*2B,1621218815649
$GNGSA,A,3,73,79,80,82,,,,,,,,,1.5,1.0,1.2*22,1621218815649
$QZGSA,A,3,01,02,,,,,,,,,,,1.5,1.0,1.2*2B,1621218815649
$IMGSA,A,3,,,,,,,,,,,,,1.5,1.0,1.2*27,1621218815649
$BDGSA,A,3,,,,,,,,,,,,,1.5,1.0,1.2*25,1621218815649
$GAGSA,A,3,,,,,,,,,,,,,1.5,1.0,1.2*25,1621218815649
$GPRMC,023330.00,A,2217.999592,N,11410.782589,E,001.4,141.7,170521,,,A*54,1621218815649
$GPGGA,023331.00,2217.999220,N,11410.783719,E,1,14,0.6,23.0,M,-1.3,M,,*48,1621218816652
$GPGSV,5,1,16,21,61,133,38,07,56,321,30,08,54,011,25,01,42,169,25*73,1621218816661
$GPGSV,5,2,16,09,29,233,25,27,24,036,23,04,20,196,30,30,18,320,20*7B,1621218816661
$GPGSV,5,3,16,16,16,077,21,26,02,096,*72,1621218816661
$GPGSV,5,4,16,08,,,22,01,,,26,09,,,,27,,,,8*6A,1621218816661
$GPGSV,5,5,16,30,,,10,26,,,,8*6C,1621218816661
$GLGSV,2,1,06,80,53,068,24,73,39,349,25,82,24,026,20,79,13,118,30*6C,1621218816661
$GLGSV,2,2,06,84,41,205,,74,00,321,*6E,1621218816661
$QZGSV,2,1,04,02,62,070,27,01,11,156,28*6F,1621218816661
$QZGSV,2,2,04,02,,,23,01,,,27,8*72,1621218816661
$GPGSA,A,3,01,04,07,08,09,16,21,27,30,,,,1.4,0.8,1.2*3D,1621218816661
$GNGSA,A,3,01,04,07,08,09,16,21,27,30,,,,1.4,0.8,1.2*23,1621218816661
$GNGSA,A,3,73,79,82,,,,,,,,,,1.4,0.8,1.2*22,1621218816661
$QZGSA,A,3,01,02,,,,,,,,,,,1.4,0.8,1.2*23,1621218816661
$IMGSA,A,3,,,,,,,,,,,,,1.4,0.8,1.2*2F,1621218816662
$BDGSA,A,3,,,,,,,,,,,,,1.4,0.8,1.2*2D,1621218816662
$GAGSA,A,3,,,,,,,,,,,,,1.4,0.8,1.2*2D,1621218816662
$GPRMC,023331.00,A,2217.999220,N,11410.783719,E,000.1,141.8,170521,,,A*5A,1621218816662
$GPGGA,023332.00,2217.999085,N,11410.784381,E,1,13,0.6,22.9,M,-1.3,M,,*4B,1621218817640
$GPGSV,5,2,16,09,29,233,25,27,24,036,22,04,20,196,31,30,18,320,20*7B,1621218817643
$GPGSV,5,3,16,16,16,077,23,26,02,096,*70,1621218817643
$GPGSV,5,4,16,08,,,20,01,,,26,09,,,14,27,,,,8*6D,1621218817643
$GPGSV,5,5,16,30,,,10,26,,,,8*6C,1621218817643
$GLGSV,2,1,06,80,53,068,22,73,39,349,24,82,24,026,20,79,13,118,30*6B,1621218817643
$GLGSV,2,2,06,84,41,205,,74,00,321,*6E,1621218817643
$QZGSV,2,1,04,02,62,070,26,01,11,156,27*61,1621218817643
$QZGSV,2,2,04,02,,,,01,,,27,8*73,1621218817643
$GPGSA,A,3,01,04,07,08,09,16,21,27,30,,,,1.4,0.8,1.2*3D,1621218817643
$GNGSA,A,3,01,04,07,08,09,16,21,27,30,,,,1.4,0.8,1.2*23,1621218817643
$GNGSA,A,3,73,79,82,,,,,,,,,,1.4,0.8,1.2*22,1621218817643
$QZGSA,A,3,01,,,,,,,,,,,,1.4,0.8,1.2*21,1621218817643
$IMGSA,A,3,,,,,,,,,,,,,1.4,0.8,1.2*2F,1621218817643
$BDGSA,A,3,,,,,,,,,,,,,1.4,0.8,1.2*2D,1621218817643
$GAGSA,A,3,,,,,,,,,,,,,1.4,0.8,1.2*2D,1621218817643
$GPRMC,023332.00,A,2217.999085,N,11410.784381,E,000.0,141.8,170521,,,A*57,1621218817644
$GPGGA,023333.00,2217.999069,N,11410.784699,E,1,12,0.6,23.0,M,-1.3,M,,*4D,1621218818648
$GPGSV,5,1,16,21,61,133,38,07,56,321,30,08,54,011,24,01,42,169,25*72,1621218818655
$GPGSV,5,2,16,09,29,233,24,27,24,036,21,04,20,196,31,30,18,320,20*79,1621218818656
$GPGSV,5,3,16,16,16,077,23,26,02,096,*70,1621218818656
$GPGSV,5,4,16,08,,,20,01,,,25,09,,,,27,,,,8*6B,1621218818656
$GPGSV,5,5,16,30,,,10,26,,,,8*6C,1621218818656
$GLGSV,2,1,06,80,53,068,21,73,39,349,24,82,24,026,22,79,13,118,30*6A,1621218818657
$GLGSV,2,2,06,84,41,205,,74,00,321,*6E,1621218818657
$QZGSV,2,1,04,02,62,070,25,01,11,156,27*62,1621218818657
$QZGSV,2,2,04,02,,,,01,,,28,8*7C,1621218818657
$GPGSA,A,3,01,04,07,08,09,16,21,30,,,,,1.8,1.1,1.4*3A,1621218818657
$GNGSA,A,3,01,04,07,08,09,16,21,30,,,,,1.8,1.1,1.4*24,1621218818657
$GNGSA,A,3,73,79,82,,,,,,,,,,1.8,1.1,1.4*20,1621218818657
$QZGSA,A,3,01,,,,,,,,,,,,1.8,1.1,1.4*23,1621218818657
$IMGSA,A,3,,,,,,,,,,,,,1.8,1.1,1.4*2D,1621218818657
$BDGSA,A,3,,,,,,,,,,,,,1.8,1.1,1.4*2F,1621218818657
$GAGSA,A,3,,,,,,,,,,,,,1.8,1.1,1.4*2F,1621218818657
$GPRMC,023333.00,A,2217.999069,N,11410.784699,E,000.0,141.8,170521,,,A*58,1621218818657
$GPGGA,023334.00,2217.999181,N,11410.784701,E,1,13,0.6,24.0,M,-1.3,M,,*4B,1621218819641
$GPGSV,5,1,16,21,61,133,38,07,56,321,31,08,54,011,24,01,42,169,24*72,1621218819645
$GPGSV,5,2,16,09,29,233,24,27,24,036,20,04,20,196,31,30,18,320,20*78,1621218819646
$GPGSV,5,3,16,16,16,077,25,26,02,096,*76,1621218819646
$GPGSV,5,4,16,08,,,20,01,,,25,09,,,,27,,,,8*6B,1621218819646
$GPGSV,5,5,16,30,,,10,26,,,,8*6C,1621218819646
$GLGSV,2,1,06,80,53,068,19,73,39,349,24,82,24,026,22,79,13,118,30*61,1621218819646
$GLGSV,2,2,06,84,41,205,,74,00,321,*6E,1621218819646
$QZGSV,2,1,04,02,62,070,23,01,11,156,27*64,1621218819646
$QZGSV,2,2,04,02,,,,01,,,28,8*7C,1621218819646
$GPGSA,A,3,01,04,07,08,09,16,21,27,30,,,,1.8,1.0,1.5*3F,1621218819646
$GNGSA,A,3,01,04,07,08,09,16,21,27,30,,,,1.8,1.0,1.5*21,1621218819646
$GNGSA,A,3,73,79,82,,,,,,,,,,1.8,1.0,1.5*20,1621218819646
$QZGSA,A,3,01,,,,,,,,,,,,1.8,1.0,1.5*23,1621218819646
$IMGSA,A,3,,,,,,,,,,,,,1.8,1.0,1.5*2D,1621218819646
$BDGSA,A,3,,,,,,,,,,,,,1.8,1.0,1.5*2F,1621218819646
$GAGSA,A,3,,,,,,,,,,,,,1.8,1.0,1.5*2F,1621218819646
$GPRMC,023334.00,A,2217.999181,N,11410.784701,E,000.1,141.9,170521,,,A*58,1621218819647
$GPGGA,023335.00,2217.999214,N,11410.784945,E,1,13,0.6,23.4,M,-1.3,M,,*48,1621218820662
$GPGSV,5,1,16,21,61,133,38,07,56,321,31,08,54,011,24,01,42,169,23*75,1621218820664
$GPGSV,5,2,16,09,29,233,24,27,24,036,20,04,20,196,31,30,18,320,22*7A,1621218820664
$GPGSV,5,3,16,16,16,077,25,26,02,096,*76,1621218820664
$GPGSV,5,4,16,08,,,20,01,,,25,09,,,,27,,,,8*6B,1621218820664
$GPGSV,5,5,16,30,,,,26,,,,8*6D,1621218820664
$GLGSV,2,1,06,80,53,068,18,73,39,349,24,82,24,026,23,79,13,118,30*61,1621218820664
$GLGSV,2,2,06,84,41,205,,74,00,321,*6E,1621218820664
$QZGSV,2,1,04,02,62,070,22,01,11,156,27*65,1621218820664
$QZGSV,2,2,04,02,,,,01,,,28,8*7C,1621218820664
$GPGSA,A,3,01,04,07,08,09,16,21,27,30,,,,1.9,1.0,1.6*3D,1621218820664
$GNGSA,A,3,01,04,07,08,09,16,21,27,30,,,,1.9,1.0,1.6*23,1621218820664
$GNGSA,A,3,73,79,82,,,,,,,,,,1.9,1.0,1.6*22,1621218820666
$QZGSA,A,3,01,,,,,,,,,,,,1.9,1.0,1.6*21,1621218820666
$IMGSA,A,3,,,,,,,,,,,,,1.9,1.0,1.6*2F,1621218820666
$BDGSA,A,3,,,,,,,,,,,,,1.9,1.0,1.6*2D,1621218820666
$GAGSA,A,3,,,,,,,,,,,,,1.9,1.0,1.6*2D,1621218820666
$GPRMC,023335.00,A,2217.999214,N,11410.784945,E,000.1,141.9,170521,,,A*58,1621218820666
$GPGGA,023336.00,2217.999310,N,11410.785013,E,1,13,0.6,23.3,M,-1.3,M,,*42,1621218821652
$GPGSV,5,1,16,21,61,133,38,07,56,321,32,08,54,011,24,01,42,169,22*77,1621218821659
$GPGSV,5,2,16,09,29,233,23,27,24,036,19,04,20,196,31,30,18,320,22*77,1621218821660
$GPGSV,5,3,16,16,16,077,26,26,02,096,*75,1621218821660
$GPGSV,5,4,16,08,,,19,01,,,25,09,,,,27,,,,8*61,1621218821660
$GPGSV,5,5,16,30,,,,26,,,,8*6D,1621218821660
$GLGSV,2,1,06,80,53,068,17,73,39,349,23,82,24,026,23,79,13,118,30*69,1621218821660
$GLGSV,2,2,06,84,41,205,,74,00,321,*6E,1621218821660
$QZGSV,2,1,04,02,62,070,21,01,11,156,26*67,1621218821661
$QZGSV,2,2,04,02,,,,01,,,28,8*7C,1621218821661
$GPGSA,A,3,01,04,07,08,09,16,21,27,30,,,,2.4,1.5,1.9*39,1621218821661
$GNGSA,A,3,01,04,07,08,09,16,21,27,30,,,,2.4,1.5,1.9*27,1621218821661
$GNGSA,A,3,73,79,82,,,,,,,,,,2.4,1.5,1.9*26,1621218821661
$QZGSA,A,3,01,,,,,,,,,,,,2.4,1.5,1.9*25,1621218821661
$IMGSA,A,3,,,,,,,,,,,,,2.4,1.5,1.9*2B,1621218821661
$BDGSA,A,3,,,,,,,,,,,,,2.4,1.5,1.9*29,1621218821661
$GAGSA,A,3,,,,,,,,,,,,,2.4,1.5,1.9*29,1621218821661
$GPRMC,023336.00,A,2217.999310,N,11410.785013,E,000.0,141.9,170521,,,A*54,1621218821661
$GPGGA,023337.00,2217.999350,N,11410.785199,E,1,13,1.2,23.1,M,-1.3,M,,*43,1621218822644
$GPGSV,5,1,16,21,61,133,38,07,56,321,32,08,54,011,24,01,42,169,21*74,1621218822646
$GPGSV,5,2,16,09,29,233,23,27,24,036,19,04,20,196,31,30,18,320,22*77,1621218822646
$GPGSV,5,3,16,16,16,077,26,26,02,096,*75,1621218822646
$GPGSV,5,4,16,08,,,19,01,,,25,09,,,,27,,,09,8*68,1621218822646
$GPGSV,5,5,16,30,,,,26,,,,8*6D,1621218822646
$GLGSV,2,1,06,80,53,068,17,73,39,349,23,82,24,026,23,79,13,118,30*69,1621218822646
$GLGSV,2,2,06,84,41,205,,74,00,321,*6E,1621218822646
$QZGSV,2,1,04,02,62,070,20,01,11,156,26*66,1621218822646
$QZGSV,2,2,04,02,,,,01,,,28,8*7C,1621218822646
$GPGSA,A,3,01,04,07,08,09,16,21,27,30,,,,1.6,0.9,1.3*3F,1621218822646
$GNGSA,A,3,01,04,07,08,09,16,21,27,30,,,,1.6,0.9,1.3*21,1621218822646
$GNGSA,A,3,73,79,82,,,,,,,,,,1.6,0.9,1.3*20,1621218822646
$QZGSA,A,3,01,,,,,,,,,,,,1.6,0.9,1.3*23,1621218822646
$IMGSA,A,3,,,,,,,,,,,,,1.6,0.9,1.3*2D,1621218822647
$BDGSA,A,3,,,,,,,,,,,,,1.6,0.9,1.3*2F,1621218822647
$GAGSA,A,3,,,,,,,,,,,,,1.6,0.9,1.3*2F,1621218822647
$GPRMC,023337.00,A,2217.999350,N,11410.785199,E,000.0,141.9,170521,,,A*52,1621218822647
$GPGGA,023338.00,2217.999531,N,11410.785684,E,1,14,0.6,23.2,M,-1.3,M,,*47,1621218823650
$GPGSV,5,1,16,21,61,133,38,07,56,321,32,08,54,011,24,01,42,169,21*74,1621218823654
$GPGSV,5,2,16,09,29,233,23,27,24,036,18,04,20,196,31,30,18,320,21*75,1621218823655
$GPGSV,5,3,16,16,16,077,25,26,02,096,*76,1621218823655
$GPGSV,5,4,16,08,,,19,01,,,25,09,,,11,27,,,,8*61,1621218823655
$GPGSV,5,5,16,30,,,,26,,,,8*6D,1621218823655
$GLGSV,2,1,06,80,53,068,16,73,39,349,23,82,24,026,23,79,13,118,30*68,1621218823655
$GLGSV,2,2,06,84,41,205,,74,00,321,*6E,1621218823655
$QZGSV,2,1,04,02,62,070,19,01,11,156,26*6C,1621218823655
$QZGSV,2,2,04,02,,,15,01,,,28,8*78,1621218823655
$GPGSA,A,3,01,04,07,08,09,16,21,27,30,,,,1.7,1.0,1.4*31,1621218823655
$GNGSA,A,3,01,04,07,08,09,16,21,27,30,,,,1.7,1.0,1.4*2F,1621218823655
$GNGSA,A,3,73,79,80,82,,,,,,,,,1.7,1.0,1.4*26,1621218823655
$QZGSA,A,3,01,,,,,,,,,,,,1.7,1.0,1.4*2D,1621218823655
$IMGSA,A,3,,,,,,,,,,,,,1.7,1.0,1.4*23,1621218823655
$BDGSA,A,3,,,,,,,,,,,,,1.7,1.0,1.4*21,1621218823655
$GAGSA,A,3,,,,,,,,,,,,,1.7,1.0,1.4*21,1621218823656
$GPRMC,023338.00,A,2217.999531,N,11410.785684,E,000.0,141.9,170521,,,A*57,1621218823656
$GPGGA,023339.00,2217.999663,N,11410.785784,E,1,14,0.6,23.1,M,-1.3,M,,*40,1621218824643
$GPGSV,5,1,16,21,61,133,38,07,56,321,32,08,54,011,24,01,42,169,20*75,1621218824644
$GPGSV,5,2,16,09,29,233,24,27,24,036,18,04,20,196,32,30,18,320,21*71,1621218824645
$GPGSV,5,3,16,16,16,077,25,26,02,096,*76,1621218824645
$GPGSV,5,4,16,08,,,19,01,,,25,09,,,,27,,,10,8*60,1621218824645
$GPGSV,5,5,16,30,,,,26,,,,8*6D,1621218824645
$GLGSV,2,1,06,80,53,068,16,73,39,349,22,82,24,026,23,79,13,118,30*69,1621218824645
$GLGSV,2,2,06,84,41,205,,74,00,321,*6E,1621218824645
$QZGSV,2,1,04,02,62,070,18,01,11,156,25*6E,1621218824645
$QZGSV,2,2,04,02,,,15,01,,,28,8*78,1621218824645
$GPGSA,A,3,01,04,07,08,09,16,21,27,30,,,,1.7,1.0,1.4*31,1621218824645
$GNGSA,A,3,01,04,07,08,09,16,21,27,30,,,,1.7,1.0,1.4*2F,1621218824645
$GNGSA,A,3,73,79,80,82,,,,,,,,,1.7,1.0,1.4*26,1621218824645
$QZGSA,A,3,01,,,,,,,,,,,,1.7,1.0,1.4*2D,1621218824645
$IMGSA,A,3,,,,,,,,,,,,,1.7,1.0,1.4*23,1621218824645
$BDGSA,A,3,,,,,,,,,,,,,1.7,1.0,1.4*21,1621218824645
$GAGSA,A,3,,,,,,,,,,,,,1.7,1.0,1.4*21,1621218824645
$GPRMC,023339.00,A,2217.999663,N,11410.785784,E,000.0,141.9,170521,,,A*53,1621218824646
$GPGGA,023340.00,2217.999683,N,11410.785685,E,1,14,1.2,23.5,M,-1.3,M,,*41,1621218825645
$GPGSV,5,1,16,21,61,133,38,07,56,321,32,08,54,011,24,01,42,169,19*7F,1621218825646
$GPGSV,5,2,16,09,29,233,24,27,24,036,17,04,20,196,32,30,18,320,21*7E,1621218825646
$GPGSV,5,3,16,16,16,077,25,26,02,096,*76,1621218825646
$GPGSV,5,4,16,08,,,19,01,,,25,09,,,10,27,,,10,8*61,1621218825646
$GPGSV,5,5,16,30,,,09,26,,,,8*64,1621218825646
$GLGSV,2,1,06,80,53,068,16,73,39,349,22,82,24,026,23,79,13,118,29*61,1621218825646
$GLGSV,2,2,06,84,41,205,,74,00,321,*6E,1621218825647
$QZGSV,2,1,04,02,62,070,17,01,11,156,25*61,1621218825647
$QZGSV,2,2,04,02,,,,01,,,28,8*7C,1621218825647
$GPGSA,A,3,01,04,07,08,09,16,21,27,30,,,,2.6,1.7,1.9*39,1621218825647
$GNGSA,A,3,01,04,07,08,09,16,21,27,30,,,,2.6,1.7,1.9*27,1621218825647
$GNGSA,A,3,73,79,80,82,,,,,,,,,2.6,1.7,1.9*2E,1621218825647
$QZGSA,A,3,01,,,,,,,,,,,,2.6,1.7,1.9*25,1621218825647
$IMGSA,A,3,,,,,,,,,,,,,2.6,1.7,1.9*2B,1621218825647
$BDGSA,A,3,,,,,,,,,,,,,2.6,1.7,1.9*29,1621218825647
$GAGSA,A,3,,,,,,,,,,,,,2.6,1.7,1.9*29,1621218825647
$GPRMC,023340.00,A,2217.999683,N,11410.785685,E,000.0,142.0,170521,,,A*59,1621218825649
$GPGGA,023341.00,2217.999737,N,11410.785700,E,1,14,0.8,23.7,M,-1.3,M,,*4B,1621218826642
$GPGSV,5,1,16,21,61,133,38,07,56,321,32,08,54,011,24,01,42,169,19*7F,1621218826646
$GPGSV,5,2,16,09,29,233,24,27,24,036,17,04,20,196,31,30,18,320,20*7C,1621218826646
$GPGSV,5,3,16,16,16,077,25,26,02,096,*76,1621218826646
$GPGSV,5,4,16,08,,,19,01,,,25,09,,,12,27,,,10,8*63,1621218826646
$GPGSV,5,5,16,30,,,09,26,,,,8*64,1621218826646
$GLGSV,2,1,06,80,53,068,15,73,39,349,22,82,24,026,22,79,13,118,29*63,1621218826646
$GLGSV,2,2,06,84,41,205,,74,00,321,*6E,1621218826646
$QZGSV,2,1,04,02,62,070,16,01,11,156,25*60,1621218826646
$QZGSV,2,2,04,02,,,13,01,,,28,8*7E,1621218826647
$GPGSA,A,3,01,04,07,08,09,16,21,27,30,,,,2.6,1.7,1.9*39,1621218826647
$GNGSA,A,3,01,04,07,08,09,16,21,27,30,,,,2.6,1.7,1.9*27,1621218826647
$GNGSA,A,3,73,79,80,82,,,,,,,,,2.6,1.7,1.9*2E,1621218826647
$QZGSA,A,3,01,,,,,,,,,,,,2.6,1.7,1.9*25,1621218826647
$IMGSA,A,3,,,,,,,,,,,,,2.6,1.7,1.9*2B,1621218826647
$BDGSA,A,3,,,,,,,,,,,,,2.6,1.7,1.9*29,1621218826647
$GAGSA,A,3,,,,,,,,,,,,,2.6,1.7,1.9*29,1621218826647
$GPRMC,023341.00,A,2217.999737,N,11410.785700,E,000.0,142.0,170521,,,A*5A,1621218826647
$GPGGA,023342.00,2217.999906,N,11410.785914,E,1,14,0.8,23.7,M,-1.3,M,,*4F,1621218827644
$GPGSV,5,1,16,21,61,133,38,07,56,321,32,08,54,011,25,01,42,169,18*7F,1621218827649
$GPGSV,5,2,16,09,29,233,25,27,24,036,16,04,20,196,31,30,18,320,20*7C,1621218827649
$GPGSV,5,3,16,16,16,077,24,26,02,096,*77,1621218827649
$GPGSV,5,4,16,08,,,19,01,,,25,09,,,12,27,,,,8*62,1621218827649
$GPGSV,5,5,16,30,,,09,26,,,,8*64,1621218827649
$GLGSV,2,1,06,80,53,068,15,73,39,349,22,82,24,026,22,79,13,118,29*63,1621218827649
$GLGSV,2,2,06,84,41,205,,74,00,321,*6E,1621218827650
$QZGSV,2,1,04,02,62,070,16,01,11,156,25*60,1621218827650
$QZGSV,2,2,04,02,,,13,01,,,28,8*7E,1621218827650
$GPGSA,A,3,01,04,07,08,09,16,21,27,30,,,,2.6,1.6,2.1*33,1621218827650
$GNGSA,A,3,01,04,07,08,09,16,21,27,30,,,,2.6,1.6,2.1*2D,1621218827650
$GNGSA,A,3,73,79,80,82,,,,,,,,,2.6,1.6,2.1*24,1621218827650
$QZGSA,A,3,01,,,,,,,,,,,,2.6,1.6,2.1*2F,1621218827650
$IMGSA,A,3,,,,,,,,,,,,,2.6,1.6,2.1*21,1621218827650
$BDGSA,A,3,,,,,,,,,,,,,2.6,1.6,2.1*23,1621218827650
$GAGSA,A,3,,,,,,,,,,,,,2.6,1.6,2.1*23,1621218827650
$GPRMC,023342.00,A,2217.999906,N,11410.785914,E,000.2,142.1,170521,,,A*5D,1621218827650
$GPGSV,5,2,16,09,29,233,25,27,24,036,16,04,20,196,31,30,18,320,19*76,1621218828656
$GPGSV,5,3,16,16,16,077,23,26,02,096,*70,1621218828657
$GPGSV,5,4,16,08,,,19,01,,,24,09,,,11,27,,,,8*60,1621218828657
$GPGSV,5,5,16,30,,,,26,,,,8*6D,1621218828657
$GLGSV,2,1,06,80,53,068,15,73,39,349,22,82,24,026,22,79,13,118,28*62,1621218828657
$GLGSV,2,2,06,84,41,205,,74,00,321,*6E,1621218828657
$QZGSV,2,1,04,02,62,070,15,01,11,156,24*62,1621218828657
$QZGSV,2,2,04,02,,,,01,,,28,8*7C,1621218828657
$GPGSA,A,3,01,04,07,08,09,16,21,30,,,,,2.3,1.4,1.8*3B,1621218828657
$GNGSA,A,3,01,04,07,08,09,16,21,30,,,,,2.3,1.4,1.8*25,1621218828657
$GNGSA,A,3,73,79,80,82,,,,,,,,,2.3,1.4,1.8*29,1621218828657
$QZGSA,A,3,01,,,,,,,,,,,,2.3,1.4,1.8*22,1621218828657
$IMGSA,A,3,,,,,,,,,,,,,2.3,1.4,1.8*2C,1621218828657
$BDGSA,A,3,,,,,,,,,,,,,2.3,1.4,1.8*2E,1621218828657
$GAGSA,A,3,,,,,,,,,,,,,2.3,1.4,1.8*2E,1621218828657
$GPRMC,023343.00,A,2217.999962,N,11410.786193,E,000.4,142.1,170521,,,A*5C,1621218828657
$GPGGA,023344.00,2218.000139,N,11410.786387,E,1,13,1.2,22.5,M,-1.3,M,,*47,1621218829650
$GPGSV,5,1,16,21,61,133,38,07,56,321,33,08,54,011,25,01,42,169,18*7E,1621218829653
$GPGSV,5,2,16,09,29,233,25,27,24,036,15,04,20,196,31,30,18,320,19*75,1621218829653
$GPGSV,5,3,16,16,16,077,22,26,02,096,*71,1621218829653
$GPGSV,5,4,16,08,,,19,01,,,25,09,,,,27,,,09,8*68,1621218829653
$GPGSV,5,5,16,30,,,09,26,,,,8*64,1621218829653
$GLGSV,2,1,06,80,53,068,15,73,39,349,22,82,24,026,22,79,13,118,28*62,1621218829653
$GLGSV,2,2,06,84,41,205,,74,00,321,*6E,1621218829653
$QZGSV,2,1,04,02,62,070,14,01,11,156,24*63,1621218829653
$QZGSV,2,2,04,02,,,,01,,,28,8*7C,1621218829654
$GPGSA,A,3,01,04,07,08,09,16,21,30,,,,,2.3,1.4,1.8*3B,1621218829654
$GNGSA,A,3,01,04,07,08,09,16,21,30,,,,,2.3,1.4,1.8*25,1621218829654
$GNGSA,A,3,73,79,80,82,,,,,,,,,2.3,1.4,1.8*29,1621218829654
$QZGSA,A,3,01,,,,,,,,,,,,2.3,1.4,1.8*22,1621218829654
$IMGSA,A,3,,,,,,,,,,,,,2.3,1.4,1.8*2C,1621218829654
$BDGSA,A,3,,,,,,,,,,,,,2.3,1.4,1.8*2E,1621218829654
$GAGSA,A,3,,,,,,,,,,,,,2.3,1.4,1.8*2E,1621218829654
$GPRMC,023344.00,A,2218.000139,N,11410.786387,E,000.0,142.1,170521,,,A*58,1621218829654
$GPGGA,023345.00,2218.000452,N,11410.786963,E,1,13,1.2,22.3,M,-1.3,M,,*48,1621218830644
$GPGSV,5,1,16,21,61,133,39,07,56,321,33,08,54,011,26,01,42,169,17*73,1621218830646
$GPGSV,5,2,16,09,29,233,25,27,24,036,15,04,20,196,31,30,18,320,19*75,1621218830646
$GPGSV,5,3,16,16,16,077,22,26,02,096,*71,1621218830646
$GPGSV,5,4,16,08,,,19,01,,,25,09,,,11,27,,,09,8*68,1621218830646
$GPGSV,5,5,16,30,,,,26,,,,8*6D,1621218830646
$GLGSV,2,1,06,80,53,068,15,73,39,349,24,82,24,026,22,79,13,118,27*6B,1621218830646
$GLGSV,2,2,06,84,41,205,,74,00,321,*6E,1621218830646
$QZGSV,2,1,04,02,62,070,14,01,11,156,24*63,1621218830646
$QZGSV,2,2,04,02,,,11,01,,,28,8*7C,1621218830646
$GPGSA,A,3,01,04,07,08,09,16,21,30,,,,,2.0,1.1,1.6*33,1621218830646
$GNGSA,A,3,01,04,07,08,09,16,21,30,,,,,2.0,1.1,1.6*2D,1621218830646
$GNGSA,A,3,73,79,80,82,,,,,,,,,2.0,1.1,1.6*21,1621218830647
$QZGSA,A,3,01,,,,,,,,,,,,2.0,1.1,1.6*2A,1621218830647
$IMGSA,A,3,,,,,,,,,,,,,2.0,1.1,1.6*24,1621218830647
$BDGSA,A,3,,,,,,,,,,,,,2.0,1.1,1.6*26,1621218830647
$GAGSA,A,3,,,,,,,,,,,,,2.0,1.1,1.6*26,1621218830647
$GPRMC,023345.00,A,2218.000452,N,11410.786963,E,000.0,142.1,170521,,,A*51,1621218830647
$GPGGA,023346.00,2218.000674,N,11410.787249,E,1,13,1.2,22.4,M,-1.3,M,,*48,1621218831651
$GPGSV,5,1,16,21,61,133,39,07,56,321,33,08,54,011,26,01,42,169,17*73,1621218831654
$GPGSV,5,2,16,09,29,233,25,27,24,036,14,04,20,196,31,30,18,320,18*75,1621218831654
$GPGSV,5,3,16,16,16,077,21,26,02,096,*72,1621218831655
$GPGSV,5,4,16,08,,,19,01,,,25,09,,,11,27,,,,8*61,1621218831655
$GPGSV,5,5,16,30,,,11,26,,,,8*6D,1621218831655
$GLGSV,2,1,06,80,53,068,15,73,39,349,24,82,24,026,22,79,13,118,26*6A,1621218831655
$GLGSV,2,2,06,84,41,205,,74,00,321,*6E,1621218831655
$QZGSV,2,1,04,02,62,070,13,01,11,156,24*64,1621218831655
$QZGSV,2,2,04,02,,,,01,,,28,8*7C,1621218831655
$GPGSA,A,3,01,04,07,08,09,16,21,30,,,,,2.0,1.1,1.7*32,1621218831655
$GNGSA,A,3,01,04,07,08,09,16,21,30,,,,,2.0,1.1,1.7*2C,1621218831655
$GNGSA,A,3,73,79,80,82,,,,,,,,,2.0,1.1,1.7*20,1621218831655
$QZGSA,A,3,01,,,,,,,,,,,,2.0,1.1,1.7*2B,1621218831655
$IMGSA,A,3,,,,,,,,,,,,,2.0,1.1,1.7*25,1621218831655
$BDGSA,A,3,,,,,,,,,,,,,2.0,1.1,1.7*27,1621218831655
$GAGSA,A,3,,,,,,,,,,,,,2.0,1.1,1.7*27,1621218831655
$GPRMC,023346.00,A,2218.000674,N,11410.787249,E,000.0,142.1,170521,,,A*56,1621218831656
$GPGGA,023347.00,2218.000812,N,11410.787348,E,1,13,0.8,22.5,M,-1.3,M,,*4D,1621218832649
$GPGSV,5,1,16,21,61,133,38,07,56,321,33,08,54,011,27,01,42,169,16*72,1621218832652
$GPGSV,5,2,16,09,29,233,25,27,24,036,14,04,20,196,31,30,18,320,18*75,1621218832652
$GPGSV,5,3,16,16,16,077,21,26,02,096,*72,1621218832652
$GPGSV,5,4,16,08,,,18,01,,,25,09,,,11,27,,,,8*60,1621218832652
$GPGSV,5,5,16,30,,,11,26,,,,8*6D,1621218832652
$GLGSV,2,1,06,80,53,068,15,73,39,349,24,82,24,026,22,79,13,118,25*69,1621218832652
$GLGSV,2,2,06,84,41,205,,74,00,321,*6E,1621218832652
$QZGSV,2,1,04,02,62,070,,01,11,156,24*66,1621218832652
$QZGSV,2,2,04,02,,,,01,,,28,8*7C,1621218832652
$GPGSA,A,3,01,04,07,08,09,16,21,30,,,,,2.2,1.3,1.8*3D,1621218832652
$GNGSA,A,3,01,04,07,08,09,16,21,30,,,,,2.2,1.3,1.8*23,1621218832652
$GNGSA,A,3,73,79,80,82,,,,,,,,,2.2,1.3,1.8*2F,1621218832652
$QZGSA,A,3,01,,,,,,,,,,,,2.2,1.3,1.8*24,1621218832652
$IMGSA,A,3,,,,,,,,,,,,,2.2,1.3,1.8*2A,1621218832652
$BDGSA,A,3,,,,,,,,,,,,,2.2,1.3,1.8*28,1621218832652
$GAGSA,A,3,,,,,,,,,,,,,2.2,1.3,1.8*28,1621218832653
$GPRMC,023347.00,A,2218.000812,N,11410.787348,E,000.3,142.1,170521,,,A*5A,1621218832653
$GPGGA,023348.00,2218.000836,N,11410.787471,E,1,13,0.8,23.1,M,-1.3,M,,*4C,1621218833652
$GPGSV,5,1,16,21,61,133,38,07,56,321,33,08,54,011,26,01,42,169,16*73,1621218833657
$GPGSV,5,2,16,09,29,233,24,27,24,036,13,04,20,196,31,30,18,320,18*73,1621218833658
$GPGSV,5,3,16,16,16,077,20,26,02,096,*73,1621218833658
$GPGSV,5,4,16,08,,,18,01,,,25,09,,,,27,,,,8*60,1621218833658
$GPGSV,5,5,16,30,,,,26,,,,8*6D,1621218833658
$GLGSV,2,1,06,80,53,068,14,73,39,349,24,82,24,026,22,79,13,118,24*69,1621218833658
$GLGSV,2,2,06,84,41,205,,74,00,321,*6E,1621218833658
$QZGSV,2,1,04,02,62,070,12,01,11,156,23*62,1621218833658
$QZGSV,2,2,04,02,,,,01,,,27,8*73,1621218833658
$GPGSA,A,3,01,04,07,08,09,16,21,30,,,,,1.8,1.0,1.5*3A,1621218833658
$GNGSA,A,3,01,04,07,08,09,16,21,30,,,,,1.8,1.0,1.5*24,1621218833658
$GNGSA,A,3,73,79,80,82,,,,,,,,,1.8,1.0,1.5*28,1621218833658
$QZGSA,A,3,01,,,,,,,,,,,,1.8,1.0,1.5*23,1621218833658
