$GNDTM,W84,,0.0,N,0.0,E,0.0,W84*71
$GNRMC,023255.00,A,2218.07038,N,11410.73832,E,0.503,235.36,170521,,,A*79
$GNVTG,235.36,T,,M,0.503,N,0.932,K,A*2C
$GNGNS,023255.00,2218.07038,N,11410.73832,E,AN,08,0.92,0.8,-1.6,,*78
$GNGGA,023255.00,2218.07038,N,11410.73832,E,1,08,0.92,0.8,M,-1.6,M,,*5D
$GNGSA,A,3,08,27,04,09,16,21,07,01,,,,,1.65,0.92,1.37*12
$GPGSV,4,1,14,01,42,170,29,03,00,176,,04,21,196,18,07,56,321,15*70
$GPGSV,4,2,14,08,55,011,16,09,29,233,30,14,03,291,,16,17,077,14*7E
$GPGSV,4,3,14,17,05,234,,21,61,134,29,22,07,152,,26,03,095,*7E
$GPGSV,4,4,14,27,25,036,18,30,17,320,*76
$GNGLL,2218.07038,N,11410.73832,E,023255.00,A,A*79
$GNGRS,023255.00,1,6.1,13.3,-92.1,-6.3,-26.9,1.0,-19.0,-2.9,,,,*78
$GNGST,023255.00,48,,,,3.6,3.8,6.8*46
$GNZDA,023255.00,17,05,2021,00,00*79
$GNGBS,023255.00,3.6,3.8,6.8,,,,*5C
$GNVLW,,N,,N,0.000,N,0.000,N*44
$PUBX,00,023255.00,2218.07038,N,11410.73832,E,-0.845,G3,5.3,6.8,0.932,235.36,0.236,,0.92,1.37,0.98,8,0,0*4B
$PUBX,03,32,1,U,170,42,29,012,3,-,176,00,,000,4,e,196,21,18,000,7,U,321,56,15,000,8,U,011,55,16,000,9,U,233,29,30,054,14,-,291,03,,000,16,e,077,17,14,000,17,-,234,05,,000,21,U,134,61,29,032,22,-,152,07,,000,26,-,095,03,,000,27,U,036,25,18,000,30,-,320,17,,000,159,e,123,47,,000,160,U,235,46,36,035,161,U,189,62,28,000,162,e,110,33,,000,163,-,254,23,,000,33,e,189,35,18,000,34,U,011,56,28,045,35,U,158,35,26,031,36,U,220,50,23,000,37,e,325,50,22,000,40,U,180,22,21,000,43,e,195,37,16,000,47,e,208,01,,000,50,e,126,04,,000,54,U,027,71,44,053,55,U,038,18,27,046,56,-,222,00,,000,57,U,229,50,35,051*12
$PUBX,04,023255.00,170521,95574.99,2158,18,354828,539.429,21*24
$GNRMC,023256.00,A,2218.07038,N,11410.73829,E,0.492,235.28,170521,,,A*76
$GNVTG,235.28,T,,M,0.492,N,0.912,K,A*28
$GNGNS,023256.00,2218.07038,N,11410.73829,E,AN,08,1.09,0.9,-1.6,,*73
$GNGGA,023256.00,2218.07038,N,11410.73829,E,1,08,1.09,0.9,M,-1.6,M,,*56
$GNGSA,A,3,08,27,04,09,16,21,07,01,,,,,1.76,1.09,1.38*1C
$GPGSV,4,1,14,01,42,170,29,03,00,176,,04,21,196,17,07,56,321,15*7F
$GPGSV,4,2,14,08,55,011,18,09,29,233,30,14,03,291,,16,17,077,15*71
$GPGSV,4,3,14,17,05,234,,21,61,134,29,22,07,152,,26,03,095,*7E
$GPGSV,4,4,14,27,25,036,19,30,17,320,*77
$GNGLL,2218.07038,N,11410.73829,E,023256.00,A,A*70
$GNGRS,023256.00,1,8.2,13.7,-93.4,-6.2,-28.7,-2.6,-22.2,-3.4,,,,*59
$GNGST,023256.00,41,,,,3.6,3.8,6.8*4C
$GNZDA,023256.00,17,05,2021,00,00*7A
$GNGBS,023256.00,3.6,3.8,6.8,,,,*5F
$GNVLW,,N,,N,0.000,N,0.000,N*44
$PUBX,00,023256.00,2218.07038,N,11410.73829,E,-0.737,G3,5.2,6.8,0.912,235.28,0.228,,1.09,1.38,0.98,8,0,0*47
$PUBX,03,32,1,U,170,42,29,013,3,-,176,00,,000,4,e,196,21,17,000,7,e,321,56,15,000,8,U,011,55,18,000,9,U,233,29,30,055,14,-,291,03,,000,16,e,077,17,15,000,17,-,234,05,,000,21,U,134,61,29,033,22,-,152,07,,000,26,-,095,03,,000,27,U,036,25,19,000,30,-,320,17,,000,159,e,123,47,,000,160,U,235,46,35,036,161,U,189,62,28,000,162,e,110,33,,000,163,-,254,23,,000,33,e,189,35,19,000,34,U,011,56,28,046,35,e,158,35,25,000,36,U,220,50,23,000,37,e,325,50,22,000,40,U,180,22,22,000,43,e,195,37,15,000,47,e,208,01,,000,50,e,126,04,,000,54,U,027,71,44,054,55,U,038,18,27,047,56,-,222,00,,000,57,U,229,50,35,052*14
$PUBX,04,023256.00,170521,95575.99,2158,18,355368,539.321,21*27
$GNRMC,023257.00,A,2218.07039,N,11410.73827,E,0.480,235.15,170521,,,A*75
$GNVTG,235.15,T,,M,0.480,N,0.889,K,A*26
$GNGNS,023257.00,2218.07039,N,11410.73827,E,AN,08,1.09,1.0,-1.6,,*75
$GNGGA,023257.00,2218.07039,N,11410.73827,E,1,08,1.09,1.0,M,-1.6,M,,*50
$GNGSA,A,3,08,27,04,09,16,21,07,01,,,,,1.76,1.09,1.38*1C
$GPGSV,4,1,14,01,42,170,29,03,00,176,,04,21,196,15,07,56,321,14*7C
$GPGSV,4,2,14,08,55,011,18,09,29,233,30,14,03,291,,16,17,077,14*70
$GPGSV,4,3,14,17,05,234,,21,61,134,30,22,07,152,,26,03,095,*76
$GPGSV,4,4,14,27,25,036,20,30,17,320,*7D
$GNGLL,2218.07039,N,11410.73827,E,023257.00,A,A*7E
$GNGRS,023257.00,1,8.3,14.4,-93.0,-7.6,-29.3,-6.1,-24.5,-3.1,,,,*5E
$GNGST,023257.00,41,,,,3.6,3.8,6.7*42
$GNZDA,023257.00,17,05,2021,00,00*7B
$GNGBS,023257.00,3.6,3.8,6.7,,,,*51
$GNVLW,,N,,N,0.000,N,0.000,N*44
$PUBX,00,023257.00,2218.07039,N,11410.73827,E,-0.608,G3,5.2,6.7,0.889,235.15,0.221,,1.09,1.38,0.98,8,0,0*4F
$PUBX,03,32,1,U,170,42,29,014,3,-,176,00,,000,4,e,196,21,15,000,7,e,321,56,14,000,8,U,011,55,18,000,9,U,233,29,30,056,14,-,291,03,,000,16,e,077,17,14,000,17,-,234,05,,000,21,U,134,61,30,034,22,-,152,07,,000,26,-,095,03,,000,27,U,036,25,20,000,30,-,320,17,,000,159,e,123,47,,000,160,U,235,46,36,037,161,U,189,62,28,000,162,e,110,33,,000,163,-,254,23,,000,33,e,189,35,19,000,34,U,011,56,28,047,35,e,158,35,,000,36,U,220,50,23,000,37,e,325,50,22,000,40,U,180,22,22,000,43,e,195,37,15,000,47,e,208,01,,000,50,e,126,04,,000,54,U,027,71,44,055,55,U,038,18,27,048,56,-,222,00,,000,57,U,229,50,35,053*1C
$PUBX,04,023257.00,170521,95576.99,2158,18,355909,539.711,21*2F
$GNRMC,023258.00,A,2218.07039,N,11410.73825,E,0.469,235.17,170521,,,A*7D
$GNVTG,235.17,T,,M,0.469,N,0.869,K,A*2D
$GNGNS,023258.00,2218.07039,N,11410.73825,E,AN,08,1.09,1.2,-1.6,,*7A
$GNGGA,023258.00,2218.07039,N,11410.73825,E,1,08,1.09,1.2,M,-1.6,M,,*5F
$GNGSA,A,3,08,27,04,09,16,21,07,01,,,,,1.76,1.09,1.38*1C
$GPGSV,4,1,14,01,42,170,29,03,00,176,,04,21,196,13,07,56,321,13*7D
$GPGSV,4,2,14,08,55,011,19,09,29,233,30,14,03,291,,16,17,077,14*71
$GPGSV,4,3,14,17,05,234,,21,61,134,29,22,07,152,,26,03,095,*7E
$GPGSV,4,4,14,27,25,036,20,30,17,320,*7D
$GNGLL,2218.07039,N,11410.73825,E,023258.00,A,A*73
$GNGRS,023258.00,1,7.7,16.0,-91.5,-9.1,-30.5,0.6,-26.6,-6.2,,,,*77
$GNGST,023258.00,40,,,,3.6,3.8,6.7*4C
$GNZDA,023258.00,17,05,2021,00,00*74
$GNGBS,023258.00,3.6,3.8,6.7,,,,*5E
$GNVLW,,N,,N,0.000,N,0.000,N*44
$PUBX,00,023258.00,2218.07039,N,11410.73825,E,-0.381,G3,5.2,6.7,0.869,235.17,0.214,,1.09,1.38,0.98,8,0,0*4C
$PUBX,03,32,1,U,170,42,29,015,3,-,176,00,,000,4,e,196,21,13,000,7,e,321,56,13,000,8,U,011,55,19,000,9,U,233,29,30,057,14,-,291,03,,000,16,e,077,17,14,000,17,-,234,05,,000,21,U,134,61,29,035,22,-,152,07,,000,26,-,095,03,,000,27,U,036,25,20,000,30,-,320,17,,000,159,e,123,47,,000,160,U,235,46,36,038,161,U,189,62,28,000,162,e,110,33,,000,163,-,254,23,,000,33,e,189,35,19,000,34,U,011,56,28,048,35,e,158,36,26,000,36,U,220,50,23,000,37,e,325,50,21,000,40,U,180,22,23,000,43,e,195,37,15,000,47,e,208,01,,000,50,e,126,04,,000,54,U,027,71,44,056,55,U,038,18,27,049,56,-,222,00,,000,57,U,229,50,35,054*15
$PUBX,04,023258.00,170521,95577.99,2158,18,356450,540.040,21*2E
$GNRMC,023259.00,A,2218.07038,N,11410.73825,E,0.458,235.28,170521,,,A*73
$GNVTG,235.28,T,,M,0.458,N,0.848,K,A*20
$GNGNS,023259.00,2218.07038,N,11410.73825,E,AN,07,0.98,1.5,-1.6,,*7B
$GNGGA,023259.00,2218.07038,N,11410.73825,E,1,07,0.98,1.5,M,-1.6,M,,*5E
$GNGSA,A,3,08,27,09,16,21,07,01,,,,,,1.69,0.98,1.38*1F
$GPGSV,4,1,14,01,42,170,29,03,00,176,,04,21,196,10,07,56,321,13*7E
$GPGSV,4,2,14,08,55,011,19,09,29,233,30,14,03,291,,16,17,077,13*76
$GPGSV,4,3,14,17,05,234,,21,61,134,29,22,07,152,,26,03,095,*7E
$GPGSV,4,4,14,27,25,036,21,30,17,320,*7C
$GNGLL,2218.07038,N,11410.73825,E,023259.00,A,A*73
$GNGRS,023259.00,1,6.7,11.8,-9.9,-32.1,-2.3,-26.6,-3.6,,,,,*63
$GNGST,023259.00,40,,,,3.5,3.8,6.6*4F
$GNZDA,023259.00,17,05,2021,00,00*75
$GNGBS,023259.00,3.5,3.8,6.6,,,,*5D
$GNVLW,,N,,N,0.000,N,0.000,N*44
$PUBX,00,023259.00,2218.07038,N,11410.73825,E,-0.142,G3,5.2,6.6,0.848,235.28,0.207,,0.98,1.38,0.98,7,0,0*4B
$PUBX,03,32,1,U,170,42,29,016,3,-,176,00,,000,4,e,196,21,10,000,7,e,321,56,13,000,8,U,011,55,19,000,9,U,233,29,30,058,14,-,291,03,,000,16,e,077,17,13,000,17,-,234,05,,000,21,U,134,61,29,036,22,-,152,07,,000,26,-,095,03,,000,27,U,036,25,21,000,30,-,320,17,,000,159,e,123,47,,000,160,U,235,46,36,039,161,U,189,62,28,000,162,e,110,33,,000,163,-,254,23,,000,33,e,189,35,18,000,34,U,011,56,29,049,35,U,158,36,26,000,36,U,220,50,23,000,37,e,325,50,21,000,40,U,180,22,22,000,43,e,195,37,15,000,47,e,208,01,,000,50,e,126,04,,000,54,U,027,71,44,057,55,U,038,18,27,050,56,-,222,00,,000,57,U,229,50,35,055*26
$PUBX,04,023259.00,170521,95578.99,2158,18,356991,539.960,21*25
$GNRMC,023300.00,A,2218.07034,N,11410.73825,E,0.448,235.17,170521,,,A*7F
$GNVTG,235.17,T,,M,0.448,N,0.829,K,A*2A
$GNGNS,023300.00,2218.07034,N,11410.73825,E,AN,07,0.98,1.7,-1.6,,*78
$GNGGA,023300.00,2218.07034,N,11410.73825,E,1,07,0.98,1.7,M,-1.6,M,,*5D
$GNGSA,A,3,08,27,09,16,21,07,01,,,,,,1.69,0.98,1.38*1F
$GPGSV,4,1,14,01,42,170,30,03,00,176,,04,21,196,08,07,56,321,12*7E
$GPGSV,4,2,14,08,55,011,21,09,29,233,30,14,03,291,,16,17,077,13*7D
$GPGSV,4,3,14,17,05,234,,21,61,134,29,22,07,152,,26,03,095,*7E
$GPGSV,4,4,14,27,25,036,21,30,17,320,*7C
$GNGLL,2218.07034,N,11410.73825,E,023300.00,A,A*72
$GNGRS,023300.00,1,6.2,12.8,-5.7,-32.9,-4.3,-26.7,-0.6,,,,,*66
$GNGST,023300.00,42,,,,3.5,3.7,6.6*4F
$GNZDA,023300.00,17,05,2021,00,00*78
$GNGBS,023300.00,3.5,3.7,6.6,,,,*5F
$GNVLW,,N,,N,0.000,N,0.000,N*44
$PUBX,00,023300.00,2218.07034,N,11410.73825,E,0.094,G3,5.1,6.6,0.829,235.17,0.200,,0.98,1.38,0.98,7,0,0*62
$PUBX,03,32,1,U,170,42,30,017,3,-,176,00,,000,4,e,196,21,08,000,7,e,321,56,12,000,8,U,011,55,21,000,9,U,233,29,30,059,14,-,291,03,,000,16,e,077,17,13,000,17,-,234,05,,000,21,U,134,61,29,037,22,-,152,07,,000,26,-,095,03,,000,27,U,036,25,21,000,30,-,320,17,,000,159,e,123,47,,000,160,U,235,46,36,040,161,U,189,62,28,000,162,e,110,33,,000,163,-,254,23,,000,33,e,189,35,19,000,34,U,011,56,29,050,35,U,158,36,26,000,36,U,220,50,23,000,37,e,325,50,21,000,40,U,180,22,21,000,43,e,195,37,15,000,47,e,208,01,,000,50,e,126,04,,000,54,U,027,71,44,058,55,U,038,18,27,051,56,-,222,00,,000,57,U,229,50,35,056*25
$PUBX,04,023300.00,170521,95579.99,2158,18,357532,539.844,21*2A
$GNRMC,023301.00,A,2218.07029,N,11410.73825,E,0.440,234.65,170521,,,A*7E
$GNVTG,234.65,T,,M,0.440,N,0.814,K,A*28
$GNGNS,023301.00,2218.07029,N,11410.73825,E,AN,06,0.98,2.1,-1.6,,*71
$GNGGA,023301.00,2218.07029,N,11410.73825,E,1,06,0.98,2.1,M,-1.6,M,,*54
$GNGSA,A,3,08,27,09,16,21,01,,,,,,,1.69,0.98,1.38*18
$GPGSV,4,1,14,01,42,170,30,03,00,176,,04,21,196,10,07,56,321,10*75
$GPGSV,4,2,14,08,55,011,21,09,29,233,29,14,03,291,,16,17,077,12*74
$GPGSV,4,3,14,17,05,234,,21,61,134,29,22,07,152,,26,03,095,*7E
$GPGSV,4,4,14,27,25,036,21,30,17,320,*7C
$GNGLL,2218.07029,N,11410.73825,E,023301.00,A,A*7F
$GNGRS,023301.00,1,2.0,13.3,-4.1,-33.5,-2.8,-2.9,,,,,,*51
$GNGST,023301.00,40,,,,3.5,3.7,6.6*4C
$GNZDA,023301.00,17,05,2021,00,00*79
$GNGBS,023301.00,3.5,3.7,6.6,,,,*5E
$GNVLW,,N,,N,0.000,N,0.000,N*44
$PUBX,00,023301.00,2218.07029,N,11410.73825,E,0.456,G3,5.1,6.6,0.814,234.65,0.189,,0.98,1.38,0.98,6,0,0*6C
$PUBX,03,32,1,U,170,42,30,018,3,-,176,00,,000,4,e,196,21,10,000,7,e,321,56,10,000,8,U,011,55,21,000,9,U,233,29,29,060,14,-,291,03,,000,16,e,077,17,12,000,17,-,234,05,,000,21,U,134,61,29,038,22,-,152,07,,000,26,-,095,03,,000,27,U,036,25,21,000,30,-,320,17,,000,159,e,123,47,,000,160,U,235,46,35,041,161,U,189,62,27,000,162,e,110,33,,000,163,-,254,23,,000,33,e,189,35,20,000,34,U,011,56,29,051,35,U,158,36,26,000,36,U,220,50,23,000,37,e,325,50,21,000,40,U,180,22,22,000,43,e,195,37,14,000,47,e,208,01,,000,50,e,126,04,,000,54,U,027,71,44,059,55,U,038,18,28,052,56,-,222,00,,000,57,U,229,50,36,057*26
$PUBX,04,023301.00,170521,95580.99,2158,18,358073,539.835,21*24
$GNRMC,023302.00,A,2218.07032,N,11410.73822,E,0.429,234.84,170521,,,A*70
$GNVTG,234.84,T,,M,0.429,N,0.795,K,A*2E
$GNGNS,023302.00,2218.07032,N,11410.73822,E,AN,07,1.09,2.2,-1.6,,*74
$GNGGA,023302.00,2218.07032,N,11410.73822,E,1,07,1.09,2.2,M,-1.6,M,,*51
$GNGSA,A,3,08,27,04,09,16,21,01,,,,,,1.76,1.09,1.38*1B
$GPGSV,4,1,14,01,42,170,30,03,00,176,,04,21,196,13,07,56,321,09*7E
$GPGSV,4,2,14,08,55,011,22,09,29,233,29,14,03,291,,16,17,077,10*75
$GPGSV,4,3,14,17,05,234,,21,61,134,29,22,07,152,,26,03,095,*7E
$GPGSV,4,4,14,27,25,036,21,30,17,320,*7C
$GNGLL,2218.07032,N,11410.73822,E,023302.00,A,A*71
$GNGRS,023302.00,1,0.5,12.2,-92.4,1.4,-32.6,0.2,-0.5,,,,,*6D
$GNGST,023302.00,37,,,,3.5,3.7,6.5*4C
$GNZDA,023302.00,17,05,2021,00,00*7A
$GNGBS,023302.00,3.5,3.7,6.5,,,,*5E
$GNVLW,,N,,N,0.000,N,0.000,N*44
$PUBX,00,023302.00,2218.07032,N,11410.73822,E,0.541,G3,5.1,6.5,0.795,234.84,0.186,,1.09,1.38,0.98,7,0,0*68
$PUBX,03,32,1,U,170,42,30,019,3,-,176,00,,000,4,e,196,21,13,000,7,e,321,56,09,000,8,U,011,55,22,000,9,U,233,29,29,061,14,-,291,03,,000,16,e,077,17,10,000,17,-,234,05,,000,21,U,134,61,29,039,22,-,152,07,,000,26,-,095,03,,000,27,U,036,25,21,000,30,-,320,17,,000,159,e,123,47,,000,160,U,235,46,36,042,161,U,189,62,28,000,162,e,110,33,,000,163,-,254,23,,000,33,e,189,35,21,000,34,U,011,56,28,052,35,e,158,36,,000,36,U,220,50,22,000,37,e,325,50,20,000,40,U,180,22,22,000,43,e,195,37,15,000,47,e,208,01,,000,50,e,126,04,,000,54,U,027,71,44,060,55,U,038,18,27,053,56,-,222,00,,000,57,U,229,50,36,058*1F
$PUBX,04,023302.00,170521,95581.99,2158,18,358614,540.024,21*27
$GNRMC,023303.00,A,2218.07026,N,11410.73822,E,0.425,234.54,170521,,,A*75
$GNVTG,234.54,T,,M,0.425,N,0.787,K,A*2C
$GNGNS,023303.00,2218.07026,N,11410.73822,E,AN,08,1.09,2.2,-1.6,,*7F
$GNGGA,023303.00,2218.07026,N,11410.73822,E,1,08,1.09,2.2,M,-1.6,M,,*5A
$GNGSA,A,3,08,27,04,09,16,21,07,01,,,,,1.76,1.09,1.38*1C
$GPGSV,4,1,14,01,42,170,28,03,00,176,,04,21,196,14,07,56,321,11*79
$GPGSV,4,2,14,08,55,011,21,09,29,233,28,14,03,291,,16,17,077,12*75
$GPGSV,4,3,14,17,05,234,,21,61,134,29,22,07,152,,26,03,095,*7E
$GPGSV,4,4,14,27,25,036,21,30,17,320,*7C
$GNGLL,2218.07026,N,11410.73822,E,023303.00,A,A*75
$GNGRS,023303.00,1,-1.3,12.6,-94.2,4.2,-29.0,0.1,-23.2,0.9,,,,*5F
$GNGST,023303.00,35,,,,3.4,3.7,6.5*4E
$GNZDA,023303.00,17,05,2021,00,00*7B
$GNGBS,023303.00,3.4,3.7,6.5,,,,*5E
$GNVLW,,N,,N,0.000,N,0.000,N*44
$PUBX,00,023303.00,2218.07026,N,11410.73822,E,0.618,G3,5.0,6.5,0.787,234.54,0.181,,1.09,1.38,0.98,8,0,0*64
$PUBX,03,32,1,U,170,42,28,020,3,-,176,00,,000,4,e,196,21,14,000,7,e,321,56,11,000,8,U,011,55,21,000,9,U,233,29,28,062,14,-,291,03,,000,16,e,077,17,12,000,17,-,234,05,,000,21,U,134,61,29,040,22,-,152,07,,000,26,-,095,03,,000,27,U,036,25,21,000,30,-,320,17,,000,159,e,123,47,,000,160,U,235,46,36,043,161,U,189,62,27,000,162,e,110,33,,000,163,-,254,23,,000,33,e,189,35,21,000,34,U,011,56,29,053,35,e,158,36,,000,36,U,220,50,24,000,37,e,325,50,21,000,40,U,180,22,22,000,43,e,195,37,14,000,47,e,208,01,,000,50,e,126,04,,000,54,U,027,71,43,061,55,U,038,18,26,000,56,-,222,00,,000,57,U,229,50,36,059*17
$PUBX,04,023303.00,170521,95582.99,2158,18,359155,539.897,21*28
$GNRMC,023304.00,A,2218.07015,N,11410.73812,E,0.433,234.37,170521,,,A*73
$GNVTG,234.37,T,,M,0.433,N,0.803,K,A*2D
$GNGNS,023304.00,2218.07015,N,11410.73812,E,AN,08,1.21,2.1,-1.6,,*72
$GNGGA,023304.00,2218.07015,N,11410.73812,E,1,08,1.21,2.1,M,-1.6,M,,*57
$GNGSA,A,3,08,27,04,09,16,21,07,01,,,,,1.98,1.21,1.56*1E
$GPGSV,4,1,14,01,42,170,26,03,00,176,,04,21,196,14,07,56,321,13*75
$GPGSV,4,2,14,08,55,011,20,09,29,233,29,14,03,291,,16,17,077,15*72
$GPGSV,4,3,14,17,05,234,,21,61,134,21,22,07,152,,26,03,095,*76
$GPGSV,4,4,14,27,25,036,20,30,17,320,*7D
$GNGLL,2218.07015,N,11410.73812,E,023304.00,A,A*71
$GNGRS,023304.00,1,-6.5,11.2,-92.7,-8.6,-30.5,3.0,-23.3,-1.4,,,,*57
$GNGST,023304.00,44,,,,3.4,3.7,6.5*4F
$GNZDA,023304.00,17,05,2021,00,00*7C
$GNGBS,023304.00,3.4,3.7,6.5,,,,*59
$GNVLW,,N,,N,0.000,N,0.000,N*44
$PUBX,00,023304.00,2218.07015,N,11410.73812,E,0.526,G3,5.0,6.5,0.803,234.37,0.182,,1.21,1.56,1.14,8,0,0*6C
$PUBX,03,32,1,U,170,42,26,000,3,-,176,00,,000,4,e,196,21,14,000,7,e,321,56,13,000,8,U,011,55,20,000,9,U,233,29,29,063,14,-,291,03,,000,16,e,077,17,15,000,17,-,234,05,,000,21,U,134,61,21,000,22,-,152,07,,000,26,-,095,03,,000,27,U,036,25,20,000,30,-,320,17,,000,159,e,123,47,,000,160,U,235,46,35,000,161,U,189,62,29,000,162,e,110,33,,000,163,-,254,23,,000,33,e,189,35,20,000,34,U,011,56,27,054,35,e,158,36,,000,36,U,220,50,26,000,37,e,325,50,21,000,40,e,180,22,22,000,43,e,195,37,15,000,47,e,208,01,,000,50,e,126,04,,000,54,U,027,71,44,062,55,U,038,18,26,000,56,-,222,00,,000,57,U,229,50,36,060*2D
$PUBX,04,023304.00,170521,95583.99,2158,18,359695,539.733,21*24
$GNRMC,023305.00,A,2218.07001,N,11410.73781,E,0.460,234.80,170521,,,A*78
$GNVTG,234.80,T,,M,0.460,N,0.852,K,A*23
$GNGNS,023305.00,2218.07001,N,11410.73781,E,AN,08,1.02,1.6,-1.6,,*76
$GNGGA,023305.00,2218.07001,N,11410.73781,E,1,08,1.02,1.6,M,-1.6,M,,*53
$GNGSA,A,3,08,27,04,09,16,21,07,01,,,,,1.83,1.02,1.52*11
$GPGSV,4,1,14,01,42,170,25,03,00,176,,04,21,196,14,07,56,321,12*77
$GPGSV,4,2,14,08,55,011,19,09,29,233,30,14,03,291,,16,17,077,15*70
$GPGSV,4,3,14,17,05,234,,21,61,134,29,22,07,152,,26,03,095,*7E
$GPGSV,4,4,14,27,25,036,19,30,17,320,*77
$GNGLL,2218.07001,N,11410.73781,E,023305.00,A,A*70
$GNGRS,023305.00,1,-6.0,9.6,-93.6,-7.7,-30.0,-4.6,-27.6,-6.0,,,,*4B
$GNGST,023305.00,41,,,,3.4,3.7,6.5*4B
$GNZDA,023305.00,17,05,2021,00,00*7D
$GNRMC,023306.00,A,2218.06974,N,11410.73731,E,0.508,235.24,170521,,,A*7A
$GNVTG,235.24,T,,M,0.508,N,0.941,K,A*20
$GNGNS,023306.00,2218.06974,N,11410.73731,E,AN,08,0.95,1.4,-1.6,,*79
$GNGGA,023306.00,2218.06974,N,11410.73731,E,1,08,0.95,1.4,M,-1.6,M,,*5C
$GNGSA,A,3,08,27,04,09,16,21,07,01,,,,,1.70,0.95,1.41*10
$GPGSV,4,1,14,01,42,170,24,03,00,176,,04,21,196,13,07,56,321,12*71
$GPGSV,4,2,14,08,55,011,17,09,29,233,30,14,03,291,,16,17,077,23*7B
$GPGSV,4,3,14,17,05,234,,21,61,134,29,22,07,152,,26,03,095,*7E
$GPGSV,4,4,14,27,25,036,18,30,17,320,*76
$GNGLL,2218.06974,N,11410.73731,E,023306.00,A,A*72
$GNGRS,023306.00,1,-6.2,7.8,-94.7,-4.0,-24.1,-4.9,-29.8,-1.6,,,,*42
$GNRMC,023307.00,A,2218.06962,N,11410.73628,E,0.593,237.59,170521,,,A*7F
$GNVTG,237.59,T,,M,0.593,N,1.098,K,A*26
$GNGNS,023307.00,2218.06962,N,11410.73628,E,AN,08,1.06,0.6,-1.6,,*7E
$GNGGA,023307.00,2218.06962,N,11410.73628,E,1,08,1.06,0.6,M,-1.6,M,,*5B
$GNGSA,A,3,08,27,04,09,16,21,07,01,,,,,1.77,1.06,1.42*1F
$GPGSV,4,1,14,01,42,170,23,03,00,176,,04,21,196,14,07,56,321,12*71
$GPGSV,4,2,14,08,55,011,17,09,29,233,31,14,03,291,,16,17,077,25*7C
$GPGSV,4,3,14,17,05,234,,21,61,134,28,22,07,152,,26,03,095,*7F
$GPGSV,4,4,14,27,25,036,17,30,17,320,*79
$GNGLL,2218.06962,N,11410.73628,E,023307.00,A,A*7D
$GNGRS,023307.00,1,-6.8,5.5,-95.1,-1.6,-19.1,0.3,-33.6,1.8,,,,*49
$GNRMC,023308.00,A,2218.06943,N,11410.73546,E,0.658,240.32,170521,,,A*71
$GNVTG,240.32,T,,M,0.658,N,1.218,K,A*25
$GNGNS,023308.00,2218.06943,N,11410.73546,E,AN,08,1.08,0.1,-1.6,,*70
$GNGGA,023308.00,2218.06943,N,11410.73546,E,1,08,1.08,0.1,M,-1.6,M,,*55
$GNGSA,A,3,08,27,04,09,16,21,07,01,,,,,1.82,1.08,1.47*1E
$GPGSV,4,1,14,01,42,170,22,03,00,176,,04,21,196,12,07,56,321,13*77
$GPGSV,4,2,14,08,55,011,16,09,29,233,31,14,03,291,,16,17,077,26*7E
$GPGSV,4,3,14,17,05,234,,21,61,134,26,22,07,152,,26,03,095,*71
$GPGSV,4,4,14,27,25,036,15,30,17,320,*7B
$GNGLL,2218.06943,N,11410.73546,E,023308.00,A,A*7A
$GNGRS,023308.00,1,-5.9,2.7,-96.0,-1.2,-14.8,-2.9,-36.1,0.5,,,,*68
$GNGST,023308.00,48,,,,3.4,3.6,6.4*4F
$GNRMC,023309.00,A,2218.06914,N,11410.73471,E,0.718,241.90,170521,,,A*7B
$GNVTG,241.90,T,,M,0.718,N,1.330,K,A*22
$GNGNS,023309.00,2218.06914,N,11410.73471,E,AN,08,0.97,-0.7,-1.6,,*5A
$GNGGA,023309.00,2218.06914,N,11410.73471,E,1,08,0.97,-0.7,M,-1.6,M,,*7F
$GNGSA,A,3,08,27,04,09,16,21,07,01,,,,,1.65,0.97,1.33*13
$GPGSV,4,1,14,01,42,170,23,03,00,176,,04,21,196,11,07,56,321,13*75
$GPGSV,4,2,14,08,55,011,16,09,29,233,25,14,03,291,,16,17,077,23*7E
$GPGSV,4,3,14,17,05,234,,21,61,134,26,22,07,152,,26,03,095,*71
$GPGSV,4,4,14,27,25,036,14,30,17,320,*7A
$GNGLL,2218.06914,N,11410.73471,E,023309.00,A,A*7C
$GNGRS,023309.00,1,-6.5,-1.2,-98.2,1.1,-16.3,-5.7,-36.5,0.3,,,,*6D
$GNGST,023309.00,61,,,,3.4,3.6,6.4*45
$GNZDA,023309.00,17,05,2021,00,00*71
$GNRMC,023310.00,A,2218.06863,N,11410.73479,E,0.717,241.39,170521,,,A*76
$GNVTG,241.39,T,,M,0.717,N,1.328,K,A*27
$GNGNS,023310.00,2218.06863,N,11410.73479,E,AN,08,0.88,0.0,-1.6,,*7F
$GNGGA,023310.00,2218.06863,N,11410.73479,E,1,08,0.88,0.0,M,-1.6,M,,*5A
$GNGSA,A,3,08,27,04,09,16,21,07,01,,,,,1.59,0.88,1.32*13
$GPGSV,4,1,14,01,42,170,21,03,00,176,,04,21,196,11,07,56,321,36*70
$GPGSV,4,2,14,08,55,011,17,09,29,233,21,14,03,291,,16,17,077,22*7A
$GPGSV,4,3,14,17,05,234,,21,61,134,24,22,07,152,,26,03,095,*73
$GPGSV,4,4,14,27,25,036,14,30,17,320,*7A
$GNGLL,2218.06863,N,11410.73479,E,023310.00,A,A*7D
$GNGRS,023310.00,1,-6.4,-6.4,-97.0,-5.0,-21.8,-5.2,-14.8,-1.0,,,,*68
$GNGST,023310.00,51,,,,3.4,3.6,6.4*4E
$GNZDA,023310.00,17,05,2021,00,00*79
$PUBX,00,023310.00,2218.06863,N,11410.73479,E,-1.613,G3,4.9,6.4,1.328,241.39,0.254,,0.88,1.32,0.91,8,0,0*4B
$PUBX,04,023310.00,170521,95589.99,2158,18,362917,538.079,21*2E
$GNRMC,023311.00,A,2218.06825,N,11410.73484,E,0.712,239.97,170521,,,A*79
$GNVTG,239.97,T,,M,0.712,N,1.318,K,A*2A
$GNGNS,023311.00,2218.06825,N,11410.73484,E,AN,07,0.89,0.1,-1.6,,*71
$GNGGA,023311.00,2218.06825,N,11410.73484,E,1,07,0.89,0.1,M,-1.6,M,,*54
$GNGSA,A,3,08,27,09,16,21,07,01,,,,,,1.68,0.89,1.42*13
$GPGSV,4,1,14,01,42,170,21,03,00,176,,04,21,196,10,07,56,321,26*70
$GPGSV,4,2,14,08,55,011,18,09,29,233,28,14,03,291,,16,17,077,19*74
$GPGSV,4,3,14,17,05,234,,21,61,134,34,22,07,152,,26,03,095,*72
$GPGSV,4,4,14,27,25,036,15,30,17,320,*7B
$GNGLL,2218.06825,N,11410.73484,E,023311.00,A,A*7C
$GNGRS,023311.00,1,-9.9,-10.8,-9.3,-22.1,-0.8,-9.4,-0.8,,,,,*5E
$GNGST,023311.00,46,,,,3.4,3.5,6.4*4A
$GNRMC,023312.00,A,2218.06723,N,11410.73559,E,0.693,234.94,170521,,,A*74
$GNVTG,234.94,T,,M,0.693,N,1.283,K,A*2F
$GNGNS,023312.00,2218.06723,N,11410.73559,E,AN,08,0.85,-0.4,-1.6,,*51
$GNGGA,023312.00,2218.06723,N,11410.73559,E,1,08,0.85,-0.4,M,-1.6,M,,*74
$GNGSA,A,3,08,27,04,09,16,21,07,01,,,,,1.49,0.85,1.23*1F
$GPGSV,4,1,14,01,42,170,23,03,00,176,,04,21,196,11,07,56,321,25*70
$GPGSV,4,2,14,08,55,011,21,09,29,233,21,14,03,291,,16,17,077,20*7D
$GPGSV,4,3,14,17,05,234,,21,61,134,35,22,07,152,,26,03,095,*73
$GPGSV,4,4,14,27,25,036,14,30,17,320,*7A
$GNGLL,2218.06723,N,11410.73559,E,023312.00,A,A*77
$GNGRS,023312.00,1,-12.9,-15.7,-100,1.3,-21.2,3.9,-15.9,-0.2,,,,*41
$GNGST,023312.00,51,,,,3.3,3.4,6.4*49
$GNRMC,023313.00,A,2218.06424,N,11410.73832,E,0.753,219.24,170521,,,A*78
$GNVTG,219.24,T,,M,0.753,N,1.395,K,A*20
$GNGNS,023313.00,2218.06424,N,11410.73832,E,AN,07,1.31,-0.8,-1.6,,*59
$GNGGA,023313.00,2218.06424,N,11410.73832,E,1,07,1.31,-0.8,M,-1.6,M,,*7C
$GNGSA,A,3,08,27,09,16,21,07,01,,,,,,3.43,1.31,3.17*18
$GPGSV,4,1,14,01,42,170,37,03,00,176,,04,21,196,,07,56,321,35*74
$GPGSV,4,2,14,08,55,011,37,09,29,233,18,14,03,291,,16,17,077,19*7A
$GPGSV,4,3,14,17,05,234,,21,61,134,37,22,07,152,,26,03,095,*71
$GPGSV,4,4,14,27,25,036,31,30,17,320,*7D
$GNGLL,2218.06424,N,11410.73832,E,023313.00,A,A*72
$GNGRS,023313.00,1,-17.9,-14.4,-7.3,-24.7,1.9,-9.4,4.7,,,,,*6E
$GNRMC,023314.00,A,2218.06241,N,11410.73955,E,0.879,201.81,170521,,,A*7B
$GNVTG,201.81,T,,M,0.879,N,1.627,K,A*2D
$GNGNS,023314.00,2218.06241,N,11410.73955,E,AN,07,1.21,-0.5,-1.6,,*57
$GNGGA,023314.00,2218.06241,N,11410.73955,E,1,07,1.21,-0.5,M,-1.6,M,,*72
$GNGSA,A,3,08,27,09,16,21,07,01,,,,,,2.32,1.21,1.98*1B
$GPGSV,4,1,14,01,42,170,36,03,00,176,,04,21,196,19,07,56,321,34*7C
$GPGSV,4,2,14,08,55,011,37,09,29,233,17,14,03,291,,16,17,077,17*7B
$GPGSV,4,3,14,17,05,234,,21,61,134,37,22,07,152,,26,03,095,*71
$GPGSV,4,4,14,27,25,036,30,30,17,320,*7C
$GNGLL,2218.06241,N,11410.73955,E,023314.00,A,A*70
$GNGRS,023314.00,1,-13.1,-18.4,-12.5,-25.7,-2.2,-12.3,6.1,,,,,*46
$GNGST,023314.00,40,,,,2.8,3.0,6.4*41
$GNZDA,023314.00,17,05,2021,00,00*7D
$GNGBS,023314.00,2.8,3.0,6.4,07,,14.6,14.6*54
$GNVLW,,N,,N,0.000,N,0.000,N*44
$GNRMC,023315.00,A,2218.06038,N,11410.74063,E,1.026,189.59,170521,,,A*78
$GNVTG,189.59,T,,M,1.026,N,1.900,K,A*22
$GNGNS,023315.00,2218.06038,N,11410.74063,E,AN,07,1.68,2.6,-1.6,,*70
$GNGGA,023315.00,2218.06038,N,11410.74063,E,1,07,1.68,2.6,M,-1.6,M,,*55
$GNGSA,A,3,08,27,09,16,21,07,01,,,,,,3.21,1.68,2.73*13
$GPGSV,4,1,14,01,42,170,33,03,00,176,,04,21,196,22,07,56,321,34*71
$GPGSV,4,2,14,08,55,011,37,09,29,233,17,14,03,291,,16,17,077,13*7F
$GPGSV,4,3,14,17,05,234,,21,61,134,37,22,07,152,,26,03,095,*71
$GPGSV,4,4,14,27,25,036,34,30,17,320,*78
$GNGLL,2218.06038,N,11410.74063,E,023315.00,A,A*76
$GNGRS,023315.00,1,-12.3,-16.0,-24.0,-25.6,4.2,-10.8,5.4,,,,,*6B
$GNGST,023315.00,26,,,,2.8,3.0,6.2*46
$GNGBS,023315.00,2.8,3.0,6.2,01,,-5.0,16.9*43
$GNVLW,,N,,N,0.000,N,0.000,N*44
$PUBX,00,023315.00,2218.06038,N,11410.74063,E,1.033,G3,4.0,6.2,1.900,189.59,0.211,,1.68,2.73,2.21,7,0,0*69
$PUBX,04,023315.00,170521,95594.99,2158,18,365616,543.654,21*2B
$GNRMC,023316.00,A,2218.05910,N,11410.74142,E,1.118,182.34,170521,,,A*75
$GNVTG,182.34,T,,M,1.118,N,2.070,K,A*23
$GNGNS,023316.00,2218.05910,N,11410.74142,E,AN,08,1.48,4.5,-1.6,,*79
$GNGGA,023316.00,2218.05910,N,11410.74142,E,1,08,1.48,4.5,M,-1.6,M,,*5C
$GNGSA,A,3,08,27,04,09,16,21,07,01,,,,,2.67,1.48,2.22*12
$GPGSV,4,1,14,01,42,170,26,03,00,176,,04,21,196,20,07,56,321,33*70
$GPGSV,4,2,14,08,55,011,35,09,29,233,16,14,03,291,,16,17,077,14*7B
$GPGSV,4,3,14,17,05,234,,21,61,134,35,22,07,152,,26,03,095,*73
$GPGSV,4,4,14,27,25,036,30,30,17,320,*7C
$GNGLL,2218.05910,N,11410.74142,E,023316.00,A,A*77
$GNGRS,023316.00,1,-11.7,-7.1,-159,-31.3,-28.4,7.8,-12.3,11.0,,,,*77
$GNRMC,023317.00,A,2218.05810,N,11410.74213,E,1.182,177.59,170521,,,A*70
$GNVTG,177.59,T,,M,1.182,N,2.190,K,A*2E
$GNGNS,023317.00,2218.05810,N,11410.74213,E,AN,08,1.48,5.1,-1.6,,*7B
$GNGGA,023317.00,2218.05810,N,11410.74213,E,1,08,1.48,5.1,M,-1.6,M,,*5E
$GNGSA,A,3,08,27,04,09,16,21,07,01,,,,,2.67,1.48,2.22*12
$GPGSV,4,1,14,01,42,170,16,03,00,176,,04,21,196,18,07,56,321,33*78
$GPGSV,4,2,14,08,55,011,34,09,29,233,19,14,03,291,,16,17,077,11*70
$GPGSV,4,3,14,17,05,234,,21,61,134,34,22,07,152,,26,03,095,*72
$GPGSV,4,4,14,27,25,036,30,30,17,320,*7C
$GNRMC,023318.00,A,2218.05715,N,11410.74273,E,1.229,174.44,170521,,,A*7E
$GNVTG,174.44,T,,M,1.229,N,2.277,K,A*29
$GNGNS,023318.00,2218.05715,N,11410.74273,E,AN,07,1.42,5.8,-1.6,,*74
$GNGGA,023318.00,2218.05715,N,11410.74273,E,1,07,1.42,5.8,M,-1.6,M,,*51
$GNGSA,A,3,08,27,04,09,21,07,01,,,,,,2.70,1.42,2.29*12
$GPGSV,4,1,14,01,42,169,18,03,00,176,,04,21,196,15,07,56,321,33*73
$GPGSV,4,2,14,08,55,011,37,09,29,233,20,14,03,291,,16,17,077,09*70
$GPGSV,4,3,14,17,05,234,,21,61,134,34,22,07,152,,26,03,095,*72
$GPGSV,4,4,14,27,25,036,29,30,17,320,*74
$GNGLL,2218.05715,N,11410.74273,E,023318.00,A,A*73
$GNGRS,023318.00,1,-11.7,-7.0,-146,-39.4,16.6,-12.3,14.9,,,,,*76
$GNGST,023318.00,35,,,,2.7,3.0,6.0*44
$GNRMC,023319.00,A,2218.05591,N,11410.74352,E,1.320,171.72,170521,,,A*7B
$GNVTG,171.72,T,,M,1.320,N,2.445,K,A*26
$GNGNS,023319.00,2218.05591,N,11410.74352,E,AN,07,1.08,6.9,-1.6,,*75
$GNGGA,023319.00,2218.05591,N,11410.74352,E,1,07,1.08,6.9,M,-1.6,M,,*50
$GNGSA,A,3,08,27,04,09,21,07,01,,,,,,1.85,1.08,1.50*18
$GPGSV,4,1,14,01,42,169,18,03,00,176,,04,21,196,13,07,56,321,33*75
$GPGSV,4,2,14,08,55,011,34,09,29,233,30,14,03,291,,16,17,077,07*7C
$GPGSV,4,3,14,17,05,234,,21,61,134,35,22,07,152,,26,03,095,*73
$GPGSV,4,4,14,27,25,036,20,30,17,320,*7D
$GNGLL,2218.05591,N,11410.74352,E,023319.00,A,A*7E
$GNGRS,023319.00,1,-9.5,-3.6,-147,-17.7,22.4,-12.4,13.7,,,,,*4B
$GNGST,023319.00,34,,,,2.6,3.0,6.0*45
$GNZDA,023319.00,17,05,2021,00,00*70
$GNRMC,023320.00,A,2218.05518,N,11410.74386,E,1.363,170.12,170521,,,A*79
$GNVTG,170.12,T,,M,1.363,N,2.524,K,A*20
$GNGNS,023320.00,2218.05518,N,11410.74386,E,AN,06,1.35,6.7,-1.6,,*76
$GNGGA,023320.00,2218.05518,N,11410.74386,E,1,06,1.35,6.7,M,-1.6,M,,*53
$GNGSA,A,3,08,27,04,09,07,01,,,,,,,2.20,1.35,1.74*1F
$GPGSV,4,1,14,01,42,169,20,03,00,176,,04,21,196,12,07,56,321,32*7E
$GPGSV,4,2,14,08,55,011,24,09,29,233,31,14,03,291,,16,17,077,09*72
$GPGSV,4,3,14,17,05,234,,21,61,134,,22,07,152,,26,03,095,*75
$GPGSV,4,4,14,27,25,036,17,30,17,320,*79
$GNGLL,2218.05518,N,11410.74386,E,023320.00,A,A*7C
$GNRMC,023321.00,A,2218.05419,N,11410.74449,E,1.429,168.66,170521,,,A*7F
$GNVTG,168.66,T,,M,1.429,N,2.646,K,A*24
$GNGNS,023321.00,2218.05419,N,11410.74449,E,AN,05,1.04,7.1,-1.6,,*75
$GNGGA,023321.00,2218.05419,N,11410.74449,E,1,05,1.04,7.1,M,-1.6,M,,*50
$GNGSA,A,3,08,27,09,21,07,,,,,,,,1.78,1.04,1.45*17
$GPGSV,4,1,14,01,42,169,26,03,00,176,,04,20,196,10,07,56,321,32*7B
$GPGSV,4,2,14,08,55,011,34,09,29,233,25,14,03,291,,16,17,077,10*7E
$GPGSV,4,3,14,17,05,234,,21,61,134,33,22,07,152,,26,03,095,*75
$GPGSV,4,4,14,27,25,036,13,30,17,320,*7D
$GNGLL,2218.05419,N,11410.74449,E,023321.00,A,A*79
$GNRMC,023322.00,A,2218.05325,N,11410.74536,E,1.481,167.15,170521,,,A*74
$GNVTG,167.15,T,,M,1.481,N,2.742,K,A*28
$GNGNS,023322.00,2218.05325,N,11410.74536,E,AN,04,1.14,7.2,-1.6,,*74
$GNGGA,023322.00,2218.05325,N,11410.74536,E,1,04,1.14,7.2,M,-1.6,M,,*51
$GNGSA,A,3,08,09,21,07,,,,,,,,,2.13,1.14,1.80*14
$GPGSV,4,1,14,01,42,169,25,03,00,176,,04,20,196,10,07,56,321,32*78
$GPGSV,4,2,14,08,55,011,21,09,29,233,30,14,03,291,,16,17,077,08*77
$GPGSV,4,3,14,17,05,234,,21,61,134,34,22,07,152,,26,03,095,*72
$GPGSV,4,4,14,27,25,036,08,30,17,320,*77
$GNGLL,2218.05325,N,11410.74536,E,023322.00,A,A*7B
$GNGRS,023322.00,1,-5.5,-46.9,41.9,-20.3,,,,,,,,*49
$GNRMC,023323.00,A,2218.05244,N,11410.74588,E,1.522,166.08,170521,,,A*73
$GNVTG,166.08,T,,M,1.522,N,2.818,K,A*2D
$GNGNS,023323.00,2218.05244,N,11410.74588,E,AN,05,1.46,7.4,-1.6,,*76
$GNGGA,023323.00,2218.05244,N,11410.74588,E,1,05,1.46,7.4,M,-1.6,M,,*53
$GNGSA,A,3,08,04,09,07,01,,,,,,,,2.76,1.46,2.35*1B
$GPGSV,4,1,14,01,42,169,24,03,00,176,,04,20,196,13,07,56,321,32*7A
$GPGSV,4,2,14,08,55,011,18,09,29,233,29,14,03,291,,16,17,077,08*75
$GPGSV,4,3,14,17,05,234,,21,61,134,,22,07,152,,26,03,095,*75
$GPGSV,4,4,14,27,25,036,08,30,17,320,*77
$GNGLL,2218.05244,N,11410.74588,E,023323.00,A,A*79
$GNGRS,023323.00,1,-4.9,-121,-65.0,-19.4,9.4,,,,,,,*6E
$GNRMC,023324.00,A,2218.05171,N,11410.74644,E,1.548,165.16,170521,,,A*72
$GNVTG,165.16,T,,M,1.548,N,2.867,K,A*25
$GNGNS,023324.00,2218.05171,N,11410.74644,E,AN,07,1.07,7.8,-1.6,,*7C
$GNGGA,023324.00,2218.05171,N,11410.74644,E,1,07,1.07,7.8,M,-1.6,M,,*59
$GNGSA,A,3,08,27,04,09,21,07,01,,,,,,1.84,1.07,1.50*16
$GPGSV,4,1,14,01,42,169,23,03,00,176,,04,20,196,13,07,56,321,32*7D
$GPGSV,4,2,14,08,55,011,15,09,29,233,22,14,03,291,,16,17,077,08*73
$GPGSV,4,3,14,17,05,234,,21,61,134,33,22,07,152,,26,03,095,*75
$GPGSV,4,4,14,27,25,036,14,30,17,320,*7A
$GNGLL,2218.05171,N,11410.74644,E,023324.00,A,A*78
$GNRMC,023325.00,A,2218.05101,N,11410.74696,E,1.578,164.33,170521,,,A*7E
$GNVTG,164.33,T,,M,1.578,N,2.922,K,A*20
$GNGNS,023325.00,2218.05101,N,11410.74696,E,AN,07,1.55,8.2,-1.6,,*77
$GNGGA,023325.00,2218.05101,N,11410.74696,E,1,07,1.55,8.2,M,-1.6,M,,*52
$GNGSA,A,3,08,27,04,09,21,07,01,,,,,,3.63,1.55,3.28*17
$GPGSV,4,1,14,01,42,169,22,03,00,176,,04,20,196,13,07,56,321,32*7C
$GPGSV,4,2,14,08,54,011,13,09,29,233,22,14,03,291,,16,17,077,08*74
$GPGSV,4,3,14,17,05,234,,21,61,134,32,22,07,152,,26,03,095,*74
$GPGSV,4,4,14,27,25,036,19,30,17,320,*77
$GNRMC,023326.00,A,2218.04995,N,11410.74806,E,1.657,162.95,170521,,,A*7A
$GNVTG,162.95,T,,M,1.657,N,3.069,K,A*23
$GNGNS,023326.00,2218.04995,N,11410.74806,E,AN,05,1.48,9.8,-1.6,,*72
$GNGGA,023326.00,2218.04995,N,11410.74806,E,1,05,1.48,9.8,M,-1.6,M,,*57
$GNGSA,A,3,08,04,09,07,01,,,,,,,,3.29,1.48,2.94*15
$GPGSV,4,1,14,01,42,169,20,03,00,176,,04,20,196,14,07,56,321,33*78
$GPGSV,4,2,14,08,54,011,12,09,29,233,34,14,03,291,,16,17,077,08*72
$GPGSV,4,3,14,17,05,234,,21,61,134,,22,07,152,,26,03,095,*75
$GPGSV,4,4,14,27,25,036,,30,17,320,*7F
$GNRMC,023327.00,A,2218.04876,N,11410.74924,E,1.739,161.38,170521,,,A*7B
$GNVTG,161.38,T,,M,1.739,N,3.221,K,A*20
$GNGNS,023327.00,2218.04876,N,11410.74924,E,AN,07,1.15,11.2,-1.6,,*47
$GNGGA,023327.00,2218.04876,N,11410.74924,E,1,07,1.15,11.2,M,-1.6,M,,*62
$GNGSA,A,3,08,04,09,16,21,07,01,,,,,,2.37,1.15,2.08*12
$GPGSV,4,1,14,01,42,169,20,03,00,176,,04,20,196,16,07,56,321,34*7D
$GPGSV,4,2,14,08,54,011,16,09,29,233,23,14,03,291,,16,17,077,12*7B
$GPGSV,4,3,14,17,05,234,,21,61,134,34,22,07,152,,26,03,095,*72
$GPGSV,4,4,14,27,25,036,,30,17,320,*7F
$GNGLL,2218.04876,N,11410.74924,E,023327.00,A,A*7D
$GNRMC,023328.00,A,2218.04710,N,11410.75077,E,1.850,159.81,170521,,,A*7C
$GNVTG,159.81,T,,M,1.850,N,3.426,K,A*28
$GNGNS,023328.00,2218.04710,N,11410.75077,E,AN,06,1.31,12.6,-1.6,,*49
$GNGGA,023328.00,2218.04710,N,11410.75077,E,1,06,1.31,12.6,M,-1.6,M,,*6C
$GNGSA,A,3,08,04,09,16,07,01,,,,,,,4.11,1.31,3.90*15
$GPGSV,4,1,14,01,42,169,22,03,00,176,,04,20,196,19,07,56,321,34*70
$GPGSV,4,2,14,08,54,011,21,09,29,233,22,14,03,291,,16,17,077,12*7E
$GPGSV,4,3,14,17,05,234,,21,61,134,,22,07,152,,26,03,095,*75
$GPGSV,4,4,14,27,25,036,,30,17,320,17*79
$GNGLL,2218.04710,N,11410.75077,E,023328.00,A,A*73
$GNGRS,023328.00,1,4.5,-98.0,-61.1,-57.0,-22.2,56.2,,,,,,*6F
$GNGST,023328.00,37,,,,2.8,3.3,6.7*4E
$w?ÿÿÉÕÿÿX?3h
$GNRMC,023329.00,A,2218.04482,N,11410.75217,E,1.962,158.56,170521,,,A*7A
$GNVTG,158.56,T,,M,1.962,N,3.634,K,A*22
$GNGNS,023329.00,2218.04482,N,11410.75217,E,AN,06,1.53,16.2,-1.6,,*40
$GNGGA,023329.00,2218.04482,N,11410.75217,E,1,06,1.53,16.2,M,-1.6,M,,*65
$GNGSA,A,3,08,04,09,21,07,01,,,,,,,3.02,1.53,2.61*1F
$GPGSV,4,1,14,01,42,169,21,03,00,176,,04,20,196,20,07,56,321,34*79
$GPGSV,4,2,14,08,54,011,27,09,29,233,22,14,03,291,,16,17,077,*7B
$GPGSV,4,3,14,17,05,234,,21,61,134,35,22,07,152,,26,03,095,*73
$GPGSV,4,4,14,27,25,036,18,30,17,320,17*70
$GNGLL,2218.04482,N,11410.75217,E,023329.00,A,A*7E
$GNGRS,023329.00,1,-0.5,-93.6,-58.1,70.2,-22.3,61.2,,,,,,*6F
$GNGST,023329.00,41,,,,3.8,4.4,9.2*45
$GNZDA,023329.00,17,05,2021,00,00*73
$}?ÿÿÝÉÿÿ???
$GNRMC,023330.00,A,2218.04251,N,11410.75336,E,2.049,157.86,170521,,,A*79
$GNVTG,157.86,T,,M,2.049,N,3.795,K,A*29
$GNGNS,023330.00,2218.04251,N,11410.75336,E,AN,06,1.63,19.8,-1.6,,*44
$GNGGA,023330.00,2218.04251,N,11410.75336,E,1,06,1.63,19.8,M,-1.6,M,,*61
$GNGSA,A,3,08,04,09,21,07,01,,,,,,,3.20,1.63,2.75*19
$GPGSV,4,1,14,01,42,169,20,03,00,176,,04,20,196,22,07,56,321,33*7D
$GPGSV,4,2,14,08,54,011,36,09,29,233,22,14,03,292,,16,17,077,*78
$GPGSV,4,3,14,17,05,234,,21,61,134,35,22,07,152,,26,03,095,*73
$GPGSV,4,4,14,27,25,036,18,30,17,320,14*73
$GNGLL,2218.04251,N,11410.75336,E,023330.00,A,A*7C
$GNGRS,023330.00,1,-1.4,-81.9,-55.6,74.7,-21.9,61.3,,,,,,*68
$GNGST,023330.00,27,,,,4.5,5.4,11*63
$}?ÿÿÜÉÿÿ??
$GNRMC,023331.00,A,2218.04137,N,11410.75416,E,2.072,157.43,170521,,,A*7F
$GNVTG,157.43,T,,M,2.072,N,3.838,K,A*20
$GNGNS,023331.00,2218.04137,N,11410.75416,E,AN,07,1.40,20.4,-1.6,,*45
$GNGGA,023331.00,2218.04137,N,11410.75416,E,1,07,1.40,20.4,M,-1.6,M,,*60
$GNGSA,A,3,08,27,04,09,21,07,01,,,,,,3.21,1.40,2.89*1F
$GPGSV,4,1,14,01,42,169,20,03,00,176,,04,20,196,19,07,56,321,32*74
$GPGSV,4,2,14,08,54,011,36,09,29,233,20,14,03,292,,16,17,077,*7A
$GPGSV,4,3,14,17,05,234,,21,61,134,36,22,07,152,,26,03,095,*70
$GPGSV,4,4,14,27,25,036,20,30,17,320,14*78
$GNGLL,2218.04137,N,11410.75416,E,023331.00,A,A*7B
$GNGRS,023331.00,1,-3.2,-106,-84.1,-55.3,77.9,-21.2,61.8,,,,,*72
$GNRMC,023332.00,A,2218.03814,N,11410.75619,E,2.182,156.92,170521,,,A*7D
$GNVTG,156.92,T,,M,2.182,N,4.040,K,A*23
$GNGNS,023332.00,2218.03814,N,11410.75619,E,AN,07,1.36,26.0,-1.6,,*47
$GNGGA,023332.00,2218.03814,N,11410.75619,E,1,07,1.36,26.0,M,-1.6,M,,*62
$GNGSA,A,3,08,27,04,09,21,07,01,,,,,,2.88,1.36,2.54*1C
$GPGSV,4,1,14,01,42,169,20,03,00,176,,04,20,196,16,07,56,321,32*7B
$GPGSV,4,2,14,08,54,011,37,09,29,233,18,14,03,292,,16,16,077,23*70
$GPGSV,4,3,14,17,05,234,,21,61,134,36,22,07,152,,26,03,095,*70
$GPGSV,4,4,14,27,25,036,21,30,17,320,16*7B
$GNGLL,2218.03814,N,11410.75619,E,023332.00,A,A*7A
$GNRMC,023333.00,A,2218.03499,N,11410.75847,E,2.283,156.31,170521,,,A*7B
$GNVTG,156.31,T,,M,2.283,N,4.229,K,A*25
$GNGNS,023333.00,2218.03499,N,11410.75847,E,AN,07,1.36,31.8,-1.6,,*44
$GNGGA,023333.00,2218.03499,N,11410.75847,E,1,07,1.36,31.8,M,-1.6,M,,*61
$GNGSA,A,3,08,27,04,09,21,07,01,,,,,,2.88,1.36,2.54*1C
$GPGSV,4,1,14,01,42,169,20,03,00,176,,04,20,196,13,07,56,321,32*7E
$GPGSV,4,2,14,08,54,011,37,09,29,233,18,14,03,292,,16,16,077,21*72
$GPGSV,4,3,14,17,05,235,,21,61,134,36,22,07,152,,26,03,095,*71
$GPGSV,4,4,14,27,25,036,21,30,17,320,15*78
$GNRMC,023334.00,A,2218.03237,N,11410.76032,E,2.353,155.82,170521,,,A*70
$GNVTG,155.82,T,,M,2.353,N,4.358,K,A*25
$GNGNS,023334.00,2218.03237,N,11410.76032,E,AN,07,1.36,36.4,-1.6,,*43
$GNGGA,023334.00,2218.03237,N,11410.76032,E,1,07,1.36,36.4,M,-1.6,M,,*66
$GNGSA,A,3,08,27,04,09,21,07,01,,,,,,2.88,1.36,2.54*1C
$GPGSV,4,1,14,01,42,169,19,03,00,176,,04,20,196,10,07,56,321,32*77
$GPGSV,4,2,14,08,54,011,37,09,29,233,17,14,03,292,,16,16,077,20*7C
$GPGSV,4,3,14,17,05,235,,21,61,134,36,22,07,152,,26,03,095,*71
$GPGSV,4,4,14,27,25,036,22,30,17,320,16*78
$GNGLL,2218.03237,N,11410.76032,E,023334.00,A,A*7B
$GNGRS,023334.00,1,-5.8,-117,-103,-60.4,51.7,-19.3,54.6,,,,,*53
$GNRMC,023335.00,A,2218.03008,N,11410.76191,E,2.404,155.45,170521,,,A*79
$GNVTG,155.45,T,,M,2.404,N,4.453,K,A*27
$GNGNS,023335.00,2218.03008,N,11410.76191,E,AN,07,1.13,40.1,-1.6,,*47
$GNGGA,023335.00,2218.03008,N,11410.76191,E,1,07,1.13,40.1,M,-1.6,M,,*62
$GNGSA,A,3,08,27,09,16,21,07,01,,,,,,2.35,1.13,2.06*19
$GPGSV,4,1,14,01,42,169,19,03,00,176,,04,20,196,09,07,56,321,32*7F
$GPGSV,4,2,14,08,54,011,37,09,29,233,18,14,03,292,,16,16,077,21*72
$GPGSV,4,3,14,17,05,235,,21,61,134,36,22,07,152,,26,03,095,*71
$GPGSV,4,4,14,27,25,036,22,30,17,320,16*78
$GNGLL,2218.03008,N,11410.76191,E,023335.00,A,A*7C
$GNGRS,023335.00,1,-6.9,-112,-62.4,-4.9,47.7,-18.1,56.4,,,,,*42
$GNGST,023335.00,23,,,,5.6,7.4,16*65
$GNZDA,023335.00,17,05,2021,00,00*7E
$GNRMC,023336.00,A,2218.02791,N,11410.76361,E,2.453,155.07,170521,,,A*75
$GNVTG,155.07,T,,M,2.453,N,4.543,K,A*23
$GNGNS,023336.00,2218.02791,N,11410.76361,E,AN,08,1.18,42.8,-1.6,,*40
$GNGGA,023336.00,2218.02791,N,11410.76361,E,1,08,1.18,42.8,M,-1.6,M,,*65
$GNGSA,A,3,08,27,04,09,16,21,07,01,,,,,4.19,1.18,4.02*1C
$GPGSV,4,1,14,01,42,169,21,03,00,176,,04,20,196,11,07,56,321,32*7D
$GPGSV,4,2,14,08,54,011,37,09,29,233,18,14,03,292,,16,16,077,22*71
$GPGSV,4,3,14,17,05,235,,21,61,134,36,22,07,152,,26,03,095,*71
$GPGSV,4,4,14,27,25,036,21,30,17,320,17*7A
$GNGLL,2218.02791,N,11410.76361,E,023336.00,A,A*74
$GNGRS,023336.00,1,-6.6,-114,-110,-66.2,-25.5,43.7,-16.9,56.1,,,,*6F
$GNRMC,023337.00,A,2218.02615,N,11410.76480,E,2.477,154.83,170521,,,A*7A
$GNVTG,154.83,T,,M,2.477,N,4.587,K,A*20
$GNGNS,023337.00,2218.02615,N,11410.76480,E,AN,08,1.52,45.3,-1.6,,*46
$GNGGA,023337.00,2218.02615,N,11410.76480,E,1,08,1.52,45.3,M,-1.6,M,,*63
$GNGSA,A,3,08,27,04,09,16,21,07,01,,,,,4.76,1.52,4.51*1D
$GPGSV,4,1,14,01,42,169,21,03,00,176,,04,20,196,10,07,56,321,32*7C
$GPGSV,4,2,14,08,54,011,37,09,29,233,17,14,03,292,,16,16,077,24*78
$GPGSV,4,3,14,17,05,235,,21,61,133,36,22,07,152,,26,03,095,*76
$GPGSV,4,4,14,27,25,036,20,30,17,320,16*7A
$GNGLL,2218.02615,N,11410.76480,E,023337.00,A,A*70
$DwA…È?žAl?
$GNDTM,W84,,0.0,N,0.0,E,0.0,W84*71
$GNRMC,023338.00,A,2218.02441,N,11410.76620,E,2.497,154.61,170521,,,A*7C
$GNVTG,154.61,T,,M,2.497,N,4.624,K,A*28
$GNGNS,023338.00,2218.02441,N,11410.76620,E,AN,07,1.12,46.6,-1.6,,*4F
$GNGGA,023338.00,2218.02441,N,11410.76620,E,1,07,1.12,46.6,M,-1.6,M,,*6A
$GNGSA,A,3,08,27,09,16,21,07,01,,,,,,3.57,1.12,3.39*10
$GPGSV,4,1,14,01,42,169,23,03,00,176,,04,20,196,08,07,56,321,32*77
$GPGSV,4,2,14,08,54,011,37,09,29,233,17,14,03,292,,16,16,077,24*78
$GPGSV,4,3,14,17,05,235,,21,61,133,36,22,07,151,,26,03,095,*75
$GPGSV,4,4,14,27,25,036,21,30,17,320,18*75
$GNGLL,2218.02441,N,11410.76620,E,023338.00,A,A*74
$GNRMC,023339.00,A,2218.02275,N,11410.76751,E,2.512,154.42,170521,,,A*76
$GNVTG,154.42,T,,M,2.512,N,4.653,K,A*25
$GNGNS,023339.00,2218.02275,N,11410.76751,E,AN,07,1.26,48.3,-1.6,,*44
$GNGGA,023339.00,2218.02275,N,11410.76751,E,1,07,1.26,48.3,M,-1.6,M,,*61
$GNGSA,A,3,08,27,09,16,21,07,01,,,,,,3.65,1.26,3.42*1A
$GPGSV,4,1,14,01,42,169,24,03,00,176,,04,20,196,09,07,56,321,32*71
$GPGSV,4,2,14,08,54,011,37,09,29,233,17,14,03,292,,16,16,077,24*78
$GNRMC,023340.00,A,2218.02120,N,11410.76887,E,2.533,154.17,170521,,,A*7C
$GNVTG,154.17,T,,M,2.533,N,4.690,K,A*29
$GNGNS,023340.00,2218.02120,N,11410.76887,E,AN,07,1.18,49.4,-1.6,,*46
$GNGGA,023340.00,2218.02120,N,11410.76887,E,1,07,1.18,49.4,M,-1.6,M,,*63
$GNGSA,A,3,08,27,09,16,21,07,01,,,,,,4.18,1.18,4.01*1A
$GPGSV,4,1,14,01,42,169,25,03,00,176,,04,20,196,09,07,56,321,32*70
$GPGSV,4,2,14,08,54,011,37,09,29,233,16,14,03,292,,16,16,077,25*78
$GPGSV,4,3,14,17,05,235,,21,61,133,37,22,07,151,,26,03,095,*74
$GPGSV,4,4,14,27,25,036,20,30,17,320,18*74
$GNRMC,023341.00,A,2218.01987,N,11410.76991,E,2.533,154.01,170521,,,A*7A
$GNVTG,154.01,T,,M,2.533,N,4.691,K,A*2F
$GNGNS,023341.00,2218.01987,N,11410.76991,E,AN,07,1.26,50.5,-1.6,,*43
$GNGGA,023341.00,2218.01987,N,11410.76991,E,1,07,1.26,50.5,M,-1.6,M,,*66
$GNGSA,A,3,08,27,09,16,21,07,01,,,,,,3.65,1.26,3.42*1A
$GPGSV,4,1,14,01,42,169,26,03,00,176,,04,20,196,10,07,56,321,32*7B
$GPGSV,4,2,14,08,54,011,37,09,29,233,13,14,03,292,,16,16,077,26*7E
$GPGSV,4,3,14,17,05,235,,21,61,133,37,22,07,151,,26,03,095,*74
$GPGSV,4,4,14,27,25,036,21,30,17,320,19*74
$GNRMC,023342.00,A,2218.01857,N,11410.77107,E,2.535,153.84,170521,,,A*7F
$GNVTG,153.84,T,,M,2.535,N,4.696,K,A*24
$GNGNS,023342.00,2218.01857,N,11410.77107,E,AN,07,1.12,51.1,-1.6,,*48
$GNGGA,023342.00,2218.01857,N,11410.77107,E,1,07,1.12,51.1,M,-1.6,M,,*6D
$GNGSA,A,3,08,27,09,16,21,07,01,,,,,,3.57,1.12,3.39*10
$GPGSV,4,1,14,01,42,169,26,03,00,176,,04,20,196,10,07,56,321,33*7A
$GPGSV,4,2,14,08,54,011,37,09,29,233,14,14,03,292,,16,16,077,26*79
$p?ÿÿÏÉÿÿ??ˆâ
$GNRMC,023344.00,A,2218.01643,N,11410.77292,E,2.515,153.60,170521,,,A*75
$GNVTG,153.60,T,,M,2.515,N,4.658,K,A*2E
$GNGNS,023344.00,2218.01643,N,11410.77292,E,AN,08,1.24,51.8,-1.6,,*49
$GNGGA,023344.00,2218.01643,N,11410.77292,E,1,08,1.24,51.8,M,-1.6,M,,*6C
$GNGSA,A,3,08,27,04,09,16,21,07,01,,,,,3.60,1.24,3.38*14
$GPGSV,4,1,14,01,42,169,26,03,00,176,,04,20,196,10,07,56,321,33*7A
$GPGSV,4,2,14,08,54,011,36,09,29,233,19,14,03,292,,16,16,077,25*76
$GPGSV,4,3,14,17,05,235,,21,61,133,37,22,07,151,,26,03,096,*77
$GPGSV,4,4,14,27,24,036,22,30,17,320,18*77
$GNGLL,2218.01643,N,11410.77292,E,023344.00,A,A*70
$GNGRS,023344.00,1,-1.9,-109,-136,-70.1,-28.3,23.7,-9.4,23.1,,,,*52
$GNGST,023344.00,20,,,,3.3,5.1,12*60
$GNZDA,023344.00,17,05,2021,00,00*78
$GNGBS,023344.00,3.3,5.1,11.6,27,,108.5,69.3*5A
$GNVLW,,N,,N,0.000,N,0.000,N*44
$PUBX,00,023344.00,2218.01643,N,11410.77292,E,50.214,G3,6.1,12,4.658,153.60,-0.277,,1.24,3.38,2.71,8,0,0*5D
$PUBX,04,023344.00,170521,95623.99,2158,18,381464,540.895,21*2D
$k?ÿÿÊÉÿÿ??ôð
$GNRMC,023345.00,A,2218.01543,N,11410.77375,E,2.501,153.55,170521,,,A*7C
$GNVTG,153.55,T,,M,2.501,N,4.633,K,A*20
$GNGNS,023345.00,2218.01543,N,11410.77375,E,AN,07,1.21,52.1,-1.6,,*43
$GNGGA,023345.00,2218.01543,N,11410.77375,E,1,07,1.21,52.1,M,-1.6,M,,*66
$GNGSA,A,3,08,27,09,16,21,07,01,,,,,,3.62,1.21,3.41*19
$GPGSV,4,1,14,01,42,169,26,03,00,176,,04,20,196,09,07,56,321,33*72
$GPGSV,4,2,14,08,54,011,36,09,29,233,21,14,03,292,,16,16,077,25*7D
$GPGSV,4,3,14,17,05,235,,21,61,133,37,22,07,151,,26,03,096,*77
$GPGSV,4,4,14,27,24,036,22,30,17,320,19*76
$GNGLL,2218.01543,N,11410.77375,E,023345.00,A,A*7A
$GNGRS,023345.00,1,-1.2,-107,-72.0,-28.1,22.2,-8.9,20.9,,,,,*4D
$GNGST,023345.00,19,,,,3.1,4.8,11*62
$GNZDA,023345.00,17,05,2021,00,00*79
$GNGBS,023345.00,3.1,4.8,11.0,27,,106.3,68.5*58
$GNVLW,,N,,N,0.000,N,0.000,N*44
$PUBX,00,023345.00,2218.01543,N,11410.77375,E,50.448,G3,5.7,11,4.633,153.55,-0.272,,1.21,3.41,2.71,7,0,0*54
$PUBX,04,023345.00,170521,95624.99,2158,18,382003,540.847,21*22
$n?ÿÿÌÉÿÿ?aÿ
$GNRMC,023346.00,A,2218.01445,N,11410.77470,E,2.495,153.44,170521,,,A*76
$GNVTG,153.44,T,,M,2.495,N,4.620,K,A*2E
$GNGNS,023346.00,2218.01445,N,11410.77470,E,AN,07,1.21,51.8,-1.6,,*4F
$GNGGA,023346.00,2218.01445,N,11410.77470,E,1,07,1.21,51.8,M,-1.6,M,,*6A
$GNGSA,A,3,08,27,09,16,21,07,01,,,,,,3.62,1.21,3.41*19
$GPGSV,4,1,14,01,42,169,25,03,00,176,,04,20,196,08,07,56,321,33*70
$GPGSV,4,2,14,08,54,011,36,09,29,233,23,14,03,292,,16,16,077,25*7F
$GPGSV,4,3,14,17,05,235,,21,61,133,37,22,07,151,,26,03,096,*77
$GPGSV,4,4,14,27,24,036,22,30,18,320,19*79
$GNGLL,2218.01445,N,11410.77470,E,023346.00,A,A*7C
$GNGRS,023346.00,1,-0.6,-109,-71.4,-28.6,20.6,-8.2,23.5,,,,,*47
$GNGST,023346.00,22,,,,2.9,4.5,10*6C
$GNZDA,023346.00,17,05,2021,00,00*7A
$GNGBS,023346.00,2.9,4.5,10.4,27,,107.8,68.5*50
$GNVLW,,N,,N,0.000,N,0.000,N*44
$PUBX,00,023346.00,2218.01445,N,11410.77470,E,50.189,G3,5.4,10,4.620,153.44,-0.261,,1.21,3.41,2.71,7,0,0*58
$PUBX,03,32,1,U,169,42,25,003,3,-,176,00,,000,4,e,196,20,08,000,7,U,321,56,33,033,8,U,011,54,36,017,9,e,233,29,23,000,14,-,292,03,,000,16,e,077,16,25,000,17,-,235,05,,000,21,U,133,61,37,017,22,-,151,07,,000,26,-,096,03,,000,27,e,036,24,22,000,30,-,320,18,19,000,159,U,123,47,35,000,160,e,235,46,,000,161,U,189,62,38,004,162,e,110,33,,000,163,-,254,23,29,000,33,e,189,35,15,000,34,U,011,56,36,018,35,U,158,36,28,012,36,U,220,50,34,017,37,U,325,50,31,033,40,e,180,22,21,000,43,U,195,37,29,016,47,e,208,01,,000,50,e,127,04,,000,54,U,026,71,40,021,55,e,038,18,27,006,56,-,222,00,,000,57,e,229,51,23,000*26
$PUBX,04,023346.00,170521,95625.99,2158,18,382541,540.632,21*2F
$GNRMC,023347.00,A,2218.01347,N,11410.77576,E,2.492,153.26,170521,,,A*76
$GNVTG,153.26,T,,M,2.492,N,4.616,K,A*28
$GNGNS,023347.00,2218.01347,N,11410.77576,E,AN,07,1.22,51.0,-1.6,,*47
$GNGGA,023347.00,2218.01347,N,11410.77576,E,1,07,1.22,51.0,M,-1.6,M,,*62
$GNGSA,A,3,08,27,09,16,21,07,01,,,,,,3.64,1.22,3.43*1E
$GPGSV,4,1,14,01,42,169,25,03,00,176,,04,20,196,10,07,56,321,33*79
$GPGSV,4,2,14,08,54,011,35,09,29,233,24,14,03,292,,16,16,077,24*7A
$GPGSV,4,3,14,17,05,235,,21,61,133,37,22,07,151,,26,03,096,*77
$GPGSV,4,4,14,27,24,036,22,30,18,320,19*79
$GNGLL,2218.01347,N,11410.77576,E,023347.00,A,A*7F
$GNGRS,023347.00,1,0.1,-110,-68.3,-31.5,19.0,-7.6,24.9,,,,,*6C
$GNGST,023347.00,19,,,,2.7,4.3,10*6D
$GNRMC,023348.00,A,2218.01258,N,11410.77664,E,2.481,153.12,170521,,,A*73
$GNVTG,153.12,T,,M,2.481,N,4.595,K,A*25
$GNGNS,023348.00,2218.01258,N,11410.77664,E,AN,08,1.22,50.4,-1.6,,*4D
$GNGGA,023348.00,2218.01258,N,11410.77664,E,1,08,1.22,50.4,M,-1.6,M,,*68
$GNGSA,A,3,08,27,04,09,16,21,07,01,,,,,3.64,1.22,3.43*1A
$GPGSV,4,1,14,01,42,169,25,03,00,176,,04,20,196,12,07,56,321,33*7B
$GPGSV,4,2,14,08,54,011,35,09,29,233,25,14,03,292,,16,16,077,23*7C
$GPGSV,4,3,14,17,05,235,,21,61,133,37,22,07,151,,26,03,096,*77
$GPGSV,4,4,14,27,24,036,21,30,18,320,19*7A
$GNGLL,2218.01258,N,11410.77664,E,023348.00,A,A*7F
$GNDTM,W84,,0.0,N,0.0,E,0.0,W84*71
$GNRMC,023349.00,A,2218.01175,N,11410.77752,E,2.472,152.96,170521,,,A*7B
$GNVTG,152.96,T,,M,2.472,N,4.578,K,A*27
$GPGSV,4,1,14,01,42,169,26,03,00,176,,04,20,196,11,07,56,321,33*7B
$GPGSV,4,2,14,08,54,011,35,09,29,233,26,14,03,292,,16,16,077,23*7F
$GPGSV,4,3,14,17,05,235,,21,61,133,37,22,07,151,23,26,03,096,*76
$GNRMC,023350.00,A,2218.01098,N,11410.77827,E,2.456,152.85,170521,,,A*78
$GNVTG,152.85,T,,M,2.456,N,4.549,K,A*21
$GNGNS,023350.00,2218.01098,N,11410.77827,E,AN,08,1.22,49.0,-1.6,,*4F
$GNGGA,023350.00,2218.01098,N,11410.77827,E,1,08,1.22,49.0,M,-1.6,M,,*6A
$GNGSA,A,3,08,27,04,09,16,21,07,01,,,,,3.64,1.22,3.43*1A
$GPGSV,4,1,14,01,42,169,26,03,00,176,,04,20,196,14,07,56,321,34*79
$GPGSV,4,2,14,08,54,011,34,09,29,233,26,14,03,292,,16,16,077,22*7F
$GPGSV,4,3,14,17,05,235,,21,61,133,37,22,07,151,22,26,03,096,*77
$GNRMC,023351.00,A,2218.01026,N,11410.77899,E,2.439,152.75,170521,,,A*7F
$GNVTG,152.75,T,,M,2.439,N,4.518,K,A*23
$GNGNS,023351.00,2218.01026,N,11410.77899,E,AN,08,1.10,48.5,-1.6,,*4B
$GNGGA,023351.00,2218.01026,N,11410.77899,E,1,08,1.10,48.5,M,-1.6,M,,*6E
$GNGSA,A,3,08,27,04,09,16,21,07,01,,,,,3.58,1.10,3.41*16
$GPGSV,4,1,14,01,42,169,26,03,00,176,,04,20,196,15,07,56,321,33*7F
$GPGSV,4,2,14,08,54,011,34,09,29,233,26,14,03,292,,16,16,077,21*7C
$GNRMC,023352.00,A,2218.00960,N,11410.77962,E,2.418,152.70,170521,,,A*75
$GNVTG,152.70,T,,M,2.418,N,4.478,K,A*22
$GNGNS,023352.00,2218.00960,N,11410.77962,E,AN,08,1.10,48.0,-1.6,,*42
$GNGGA,023352.00,2218.00960,N,11410.77962,E,1,08,1.10,48.0,M,-1.6,M,,*67
$GNGSA,A,3,08,27,04,09,16,21,07,01,,,,,3.58,1.10,3.41*16
$GPGSV,4,1,14,01,42,169,27,03,00,176,,04,20,196,15,07,56,321,34*79
$GPGSV,4,2,14,08,54,011,34,09,29,233,25,14,03,292,,16,16,077,21*7F
$GNRMC,023353.00,A,2218.00896,N,11410.78022,E,2.401,152.65,170521,,,A*72
$GNVTG,152.65,T,,M,2.401,N,4.448,K,A*2D
$GNGNS,023353.00,2218.00896,N,11410.78022,E,AN,08,1.26,47.5,-1.6,,*46
$GNGGA,023353.00,2218.00896,N,11410.78022,E,1,08,1.26,47.5,M,-1.6,M,,*63
$GPGSV,4,1,14,01,42,169,27,03,00,176,,04,20,196,15,07,56,321,33*7E
$GNRMC,023354.00,A,2218.00836,N,11410.78076,E,2.380,152.63,170521,,,A*76
$GNVTG,152.63,T,,M,2.380,N,4.408,K,A*21
$GNGNS,023354.00,2218.00836,N,11410.78076,E,AN,08,1.21,47.1,-1.6,,*49
$GNGGA,023354.00,2218.00836,N,11410.78076,E,1,08,1.21,47.1,M,-1.6,M,,*6C
$GNGSA,A,3,08,27,04,09,16,21,07,01,,,,,3.62,1.21,3.41*1D
$GPGSV,4,1,14,01,42,169,27,03,00,176,,04,20,196,16,07,56,321,33*7D
$GPGSV,4,2,14,08,54,011,33,09,29,233,24,14,03,292,,16,16,077,20*78
$GPGSV,4,3,14,17,05,235,,21,61,133,37,22,07,151,23,26,03,096,*76
$GPGSV,4,4,14,27,24,036,22,30,18,320,16*76
$GNGLL,2218.00836,N,11410.78076,E,023354.00,A,A*7B
$GNGRS,023354.00,1,5.0,-116,-153,-51.1,-39.2,9.9,-3.9,4.1,,,,*78
$GNRMC,023355.00,A,2218.00783,N,11410.78122,E,2.356,152.63,170521,,,A*7D
$GNGNS,023355.00,2218.00783,N,11410.78122,E,AN,08,1.21,46.6,-1.6,,*4F
$GNGGA,023355.00,2218.00783,N,11410.78122,E,1,08,1.21,46.6,M,-1.6,M,,*6A
$GNGSA,A,3,08,27,04,09,16,21,07,01,,,,,3.62,1.21,3.41*1D
$GPGSV,4,1,14,01,42,169,26,03,00,176,,04,20,196,17,07,56,321,33*7D
$GNRMC,023356.00,A,2218.00731,N,11410.78168,E,2.333,152.64,170521,,,A*7D
$GNVTG,152.64,T,,M,2.333,N,4.320,K,A*23
$GNGNS,023356.00,2218.00731,N,11410.78168,E,AN,08,1.21,46.2,-1.6,,*4F
$GNGGA,023356.00,2218.00731,N,11410.78168,E,1,08,1.21,46.2,M,-1.6,M,,*6A
$GNGSA,A,3,08,27,04,09,16,21,07,01,,,,,3.62,1.21,3.41*1D
$GPGSV,4,1,14,01,42,169,26,03,00,176,,04,20,196,18,07,56,321,34*75
$GPGSV,4,2,14,08,54,011,33,09,29,233,23,14,03,292,,16,16,077,19*75
$GPGSV,4,3,14,17,05,235,,21,61,133,36,22,07,151,24,26,03,096,*70
$GPGSV,4,4,14,27,24,036,22,30,18,320,15*75
$GNGLL,2218.00731,N,11410.78168,E,023356.00,A,A*7F
$GNGRS,023356.00,1,6.3,-121,-143,-44.5,-37.3,8.6,-3.0,6.4,,,,*70
$GNGST,023356.00,19,,,,1.6,2.6,6.5*40
$GNZDA,023356.00,17,05,2021,00,00*7B
$GNGBS,023356.00,1.6,2.6,6.5,04,,142.4,76.6*6E
$GNVLW,,N,,N,0.000,N,0.000,N*44
$PUBX,04,023356.00,170521,95635.99,2158,18,387914,540.221,21*20
$GNRMC,023357.00,A,2218.00683,N,11410.78211,E,2.309,152.67,170521,,,A*73
$GNVTG,152.67,T,,M,2.309,N,4.275,K,A*28
$GNGNS,023357.00,2218.00683,N,11410.78211,E,AN,08,1.10,45.7,-1.6,,*4F
$GNGGA,023357.00,2218.00683,N,11410.78211,E,1,08,1.10,45.7,M,-1.6,M,,*6A
$GNGSA,A,3,08,27,04,09,16,21,07,01,,,,,3.58,1.10,3.41*16
$GPGSV,4,1,14,01,42,169,25,03,00,176,,04,20,196,19,07,56,321,34*77
$GPGSV,4,2,14,08,54,011,33,09,29,233,23,14,03,292,,16,16,077,18*74
$GPGSV,4,3,14,17,05,235,,21,61,133,36,22,07,151,24,26,03,096,*70
$GPGSV,4,4,14,27,24,036,21,30,18,320,16*75
$GNGLL,2218.00683,N,11410.78211,E,023357.00,A,A*7B
$GNGRS,023357.00,1,7.1,-121,-138,-43.6,-33.8,8.1,-2.5,7.2,,,,*71
$GNGST,023357.00,21,,,,1.6,2.6,6.5*4A
$GNZDA,023357.00,17,05,2021,00,00*7A
$GNGBS,023357.00,1.6,2.6,6.5,04,,137.4,73.7*69
$GNVLW,,N,,N,0.000,N,0.000,N*44
$PUBX,00,023357.00,2218.00683,N,11410.78211,E,44.086,G3,3.0,6.5,4.275,152.67,-0.138,,1.10,3.41,2.71,8,0,0*7C
$PUBX,04,023357.00,170521,95636.99,2158,18,388452,540.321,21*23
$GNRMC,023358.00,A,2218.00638,N,11410.78244,E,2.284,152.72,170521,,,A*7C
$GNVTG,152.72,T,,M,2.284,N,4.229,K,A*21
$GNGNS,023358.00,2218.00638,N,11410.78244,E,AN,08,1.21,45.4,-1.6,,*41
$GNGGA,023358.00,2218.00638,N,11410.78244,E,1,08,1.21,45.4,M,-1.6,M,,*64
$GNGSA,A,3,08,27,04,09,16,21,07,01,,,,,3.62,1.21,3.41*1D
$GPGSV,4,1,14,01,42,169,25,03,00,176,,04,20,196,20,07,56,321,33*7A
$GPGSV,4,2,14,08,54,011,33,09,29,233,23,14,03,292,,16,16,077,18*74
$GPGSV,4,3,14,17,05,235,,21,61,133,36,22,07,151,25,26,03,096,*71
$GPGSV,4,4,14,27,24,036,20,30,18,320,16*74
$GNRMC,023359.00,A,2218.00593,N,11410.78293,E,2.265,152.71,170521,,,A*79
$GNVTG,152.71,T,,M,2.265,N,4.195,K,A*29
$GNGNS,023359.00,2218.00593,N,11410.78293,E,AN,08,1.11,44.7,-1.6,,*49
$GNGGA,023359.00,2218.00593,N,11410.78293,E,1,08,1.11,44.7,M,-1.6,M,,*6C
$GNGSA,A,3,08,27,04,09,16,21,07,01,,,,,3.54,1.11,3.37*1A
$GNRMC,023400.00,A,2218.00548,N,11410.78339,E,2.249,152.66,170521,,,A*7D
$GNVTG,152.66,T,,M,2.249,N,4.165,K,A*2E
$GNGNS,023400.00,2218.00548,N,11410.78339,E,AN,08,1.11,44.0,-1.6,,*42
$GNGGA,023400.00,2218.00548,N,11410.78339,E,1,08,1.11,44.0,M,-1.6,M,,*67
$GNGSA,A,3,08,27,04,09,16,21,07,01,,,,,3.54,1.11,3.37*1A
$GPGSV,4,1,14,01,42,169,24,03,00,176,,04,20,196,20,07,56,321,32*7A
$GPGSV,4,2,14,08,54,011,32,09,29,233,20,14,03,292,,16,16,077,17*79
$GPGSV,4,3,14,17,05,235,,21,61,133,35,22,07,151,24,26,03,096,*73
$GNRMC,023401.00,A,2218.00504,N,11410.78380,E,2.234,152.61,170521,,,A*7B
$GNVTG,152.61,T,,M,2.234,N,4.137,K,A*24
$GNGNS,023401.00,2218.00504,N,11410.78380,E,AN,08,1.11,43.4,-1.6,,*4A
$GNGGA,023401.00,2218.00504,N,11410.78380,E,1,08,1.11,43.4,M,-1.6,M,,*6F
$GNGSA,A,3,08,27,04,09,16,21,07,01,,,,,3.54,1.11,3.37*1A
$GNRMC,023402.00,A,2218.00464,N,11410.78419,E,2.216,152.56,170521,,,A*7C
$GNVTG,152.56,T,,M,2.216,N,4.104,K,A*20
$GNGNS,023402.00,2218.00464,N,11410.78419,E,AN,08,1.11,42.8,-1.6,,*44
$GNGGA,023402.00,2218.00464,N,11410.78419,E,1,08,1.11,42.8,M,-1.6,M,,*61
$GNGSA,A,3,08,27,04,09,16,21,07,01,,,,,3.54,1.11,3.37*1A
$GPGSV,4,1,14,01,42,169,24,03,00,176,,04,20,196,20,07,56,321,32*7A
$GPGSV,4,2,14,08,54,011,33,09,29,233,16,14,03,292,,16,16,077,11*7B
$GPGSV,4,3,14,17,05,235,,21,61,133,35,22,07,151,25,26,03,096,*72
$GNRMC,023403.00,A,2218.00427,N,11410.78448,E,2.193,152.56,170521,,,A*70
$GNVTG,152.56,T,,M,2.193,N,4.061,K,A*2C
$GNGNS,023403.00,2218.00427,N,11410.78448,E,AN,07,1.11,42.4,-1.6,,*45
$GNGGA,023403.00,2218.00427,N,11410.78448,E,1,07,1.11,42.4,M,-1.6,M,,*60
$GNGSA,A,3,08,27,04,09,21,07,01,,,,,,3.54,1.11,3.37*1D
$GPGSV,4,1,14,01,42,169,24,03,00,176,,04,20,196,19,07,56,321,31*73
$GPGSV,4,2,14,08,54,011,33,09,29,233,13,14,03,292,,16,16,077,09*77
$GNRMC,023404.00,A,2218.00391,N,11410.78476,E,2.169,152.60,170521,,,A*70
$GNVTG,152.60,T,,M,2.169,N,4.018,K,A*22
$GNGNS,023404.00,2218.00391,N,11410.78476,E,AN,06,1.11,42.0,-1.6,,*40
$GNGGA,023404.00,2218.00391,N,11410.78476,E,1,06,1.11,42.0,M,-1.6,M,,*65
$GNGSA,A,3,08,27,04,21,07,01,,,,,,,3.54,1.11,3.37*14
$GPGSV,4,1,14,01,42,169,25,03,00,176,,04,20,196,19,07,56,321,31*72
$GPGSV,4,2,14,08,54,011,33,09,29,233,09,14,03,292,,16,16,077,08*7D
$GNRMC,023405.00,A,2218.00356,N,11410.78502,E,2.147,152.65,170521,,,A*71
$GNVTG,152.65,T,,M,2.147,N,3.976,K,A*2D
$GNGNS,023405.00,2218.00356,N,11410.78502,E,AN,08,1.11,41.5,-1.6,,*40
$GNGGA,023405.00,2218.00356,N,11410.78502,E,1,08,1.11,41.5,M,-1.6,M,,*65
$GNGSA,A,3,08,27,04,09,16,21,07,01,,,,,3.54,1.11,3.37*1A
$GPGSV,4,1,14,01,42,169,25,03,00,176,,04,20,196,19,07,56,321,31*72
$GPGSV,4,2,14,08,54,011,34,09,29,233,11,14,03,292,,16,16,077,10*7A
$GPGSV,4,3,14,17,05,235,,21,61,133,35,22,07,151,25,26,03,096,*72
$GNRMC,023406.00,A,2218.00312,N,11410.78532,E,2.136,152.68,170521,,,A*7A
$GNVTG,152.68,T,,M,2.136,N,3.955,K,A*27
$GNGNS,023406.00,2218.00312,N,11410.78532,E,AN,08,1.11,41.2,-1.6,,*47
$GNGGA,023406.00,2218.00312,N,11410.78532,E,1,08,1.11,41.2,M,-1.6,M,,*62
$GNGSA,A,3,08,27,04,09,16,21,07,01,,,,,3.54,1.11,3.37*1A
$GPGSV,4,1,14,01,42,169,24,03,00,176,,04,20,196,19,07,56,321,32*70
$GPGSV,4,2,14,08,54,011,33,09,29,233,18,14,03,292,,16,16,077,16*72
$GPGSV,4,3,14,17,05,235,,21,61,133,32,22,07,151,26,26,03,096,*76
$GNRMC,023408.00,A,2218.00208,N,11410.78612,E,2.141,152.59,170521,,,A*7D
$GNVTG,152.59,T,,M,2.141,N,3.965,K,A*26
$GNGNS,023408.00,2218.00208,N,11410.78612,E,AN,08,1.11,40.5,-1.6,,*44
$GNGGA,023408.00,2218.00208,N,11410.78612,E,1,08,1.11,40.5,M,-1.6,M,,*61
$GNGSA,A,3,08,27,04,09,16,21,07,01,,,,,3.54,1.11,3.37*1A
$GPGSV,4,1,14,01,42,169,20,03,00,176,,04,20,196,20,07,56,321,32*7E
$GPGSV,4,2,14,08,54,011,35,09,29,233,20,14,03,292,,16,16,077,16*7F
$GPGSV,4,3,14,17,05,235,,21,61,133,34,22,07,151,26,26,03,096,*70
$GPGSV,4,4,14,27,24,036,19,30,18,320,14*7C
$GNGLL,2218.00208,N,11410.78612,E,023408.00,A,A*76
$GNGRS,023408.00,1,7.4,-118,-78.5,-53.2,-47.6,3.3,3.2,-7.1,,,,*59
$GNRMC,023409.00,A,2218.00148,N,11410.78667,E,2.155,152.43,170521,,,A*77
$GNVTG,152.43,T,,M,2.155,N,3.991,K,A*23
$GNGNS,023409.00,2218.00148,N,11410.78667,E,AN,08,1.11,40.0,-1.6,,*45
$GNGGA,023409.00,2218.00148,N,11410.78667,E,1,08,1.11,40.0,M,-1.6,M,,*60
$GNGSA,A,3,08,27,04,09,16,21,07,01,,,,,3.54,1.11,3.37*1A
$GPGSV,4,1,14,01,42,169,21,03,00,176,,04,20,196,22,07,56,321,33*7C
$GPGSV,4,2,14,08,54,011,31,09,29,233,23,14,03,292,,16,16,077,15*7B
$GPGSV,4,3,14,17,05,235,,21,61,133,34,22,07,151,25,26,03,096,*73
$GPGSV,4,4,14,27,24,036,19,30,18,320,14*7C
$GNGLL,2218.00148,N,11410.78667,E,023409.00,A,A*72
$GNGRS,023409.00,1,7.4,-115,-86.0,-46.8,-46.4,3.3,5.6,-8.7,,,,*57
$GNGST,023409.00,30,,,,1.6,2.6,6.8*4B
$GNZDA,023409.00,17,05,2021,00,00*76
$GNGBS,023409.00,1.6,2.6,6.8,27,,114.3,71.9*63
$GNVLW,,N,,N,0.000,N,0.000,N*44
$PUBX,00,023409.00,2218.00148,N,11410.78667,E,38.420,G3,3.0,6.8,3.991,152.43,-0.054,,1.11,3.37,2.69,8,0,0*79
$PUBX,04,023409.00,170521,95648.99,2158,18,394908,539.789,21*21
$GNRMC,023410.00,A,2218.00090,N,11410.78722,E,2.165,152.23,170521,,,A*7E
$GNVTG,152.23,T,,M,2.165,N,4.010,K,A*21
$GNGNS,023410.00,2218.00090,N,11410.78722,E,AN,08,1.00,39.7,-1.6,,*40
$GNGGA,023410.00,2218.00090,N,11410.78722,E,1,08,1.00,39.7,M,-1.6,M,,*65
$GNGSA,A,3,08,27,04,09,16,21,07,01,,,,,2.97,1.00,2.80*19
$GPGSV,4,1,14,01,42,169,23,03,00,176,,04,20,196,22,07,56,321,33*7E
$GPGSV,4,2,14,08,54,011,23,09,29,233,28,14,03,292,,16,16,077,18*7E
$GPGSV,4,3,14,17,05,235,,21,61,133,35,22,07,151,23,26,03,096,*74
$GPGSV,4,4,14,27,24,036,18,30,18,320,13*7A
$GNGLL,2218.00090,N,11410.78722,E,023410.00,A,A*7E
$GNGRS,023410.00,1,11.9,-111,-88.4,-9.1,-43.0,3.1,2.3,-6.8,,,,*59
$GNGST,023410.00,34,,,,1.6,2.5,6.8*44
$GNZDA,023410.00,17,05,2021,00,00*7E
$GNGBS,023410.00,1.6,2.5,6.8,27,,111.0,75.2*61
$GNVLW,,N,,N,0.000,N,0.000,N*44
$PUBX,00,023410.00,2218.00090,N,11410.78722,E,38.044,G3,3.0,6.8,4.010,152.23,-0.050,,1.00,2.80,2.22,8,0,0*74
$PUBX,03,32,1,U,169,42,23,000,3,-,176,00,,000,4,e,196,20,22,000,7,U,321,56,33,004,8,U,011,54,23,000,9,U,233,29,28,000,14,-,292,03,,000,16,e,077,16,18,000,17,-,235,05,,000,21,U,133,61,35,041,22,-,151,07,23,000,26,-,096,03,,000,27,e,036,24,18,000,30,-,320,18,13,000,159,U,123,47,32,003,160,U,235,46,32,000,161,U,189,62,33,001,162,e,110,33,,000,163,-,254,23,,000,33,e,189,34,16,000,34,U,011,56,26,000,35,U,158,36,32,036,36,U,220,50,23,000,37,U,325,50,30,057,40,e,180,22,17,000,43,U,195,37,20,000,47,e,208,01,,000,50,e,127,04,,000,54,U,026,71,21,000,55,e,038,18,16,000,56,-,222,00,,000,57,U,229,51,37,002*13
$PUBX,04,023410.00,170521,95649.99,2158,18,395447,539.909,21*29
$GNRMC,023411.00,A,2218.00037,N,11410.78757,E,2.164,152.13,170521,,,A*72
$GNVTG,152.13,T,,M,2.164,N,4.008,K,A*2A
$GNGNS,023411.00,2218.00037,N,11410.78757,E,AN,08,1.00,39.0,-1.6,,*49
$GNGGA,023411.00,2218.00037,N,11410.78757,E,1,08,1.00,39.0,M,-1.6,M,,*6C
$GNGSA,A,3,08,27,04,09,16,21,07,01,,,,,2.97,1.00,2.80*19
$GPGSV,4,1,14,01,42,169,24,03,00,176,,04,20,196,23,07,56,321,34*7F
$GPGSV,4,2,14,08,54,011,22,09,29,233,35,14,03,292,,16,16,077,24*7C
$GPGSV,4,3,14,17,05,235,,21,61,133,36,22,07,151,24,26,03,096,*70
$GPGSV,4,4,14,27,24,036,18,30,18,320,13*7A
$GNGLL,2218.00037,N,11410.78757,E,023411.00,A,A*70
$GNGRS,023411.00,1,-1.1,-110,-96.4,6.6,-36.3,3.1,3.5,-10.7,,,,*59
$‡ÊÿÿÌÇÿÿ?
$GNRMC,023412.00,A,2217.99985,N,11410.78773,E,2.153,152.18,170521,,,A*77
$GNVTG,152.18,T,,M,2.153,N,3.987,K,A*2C
$GNGNS,023412.00,2217.99985,N,11410.78773,E,AN,08,0.79,38.7,-1.6,,*4A
$GNGGA,023412.00,2217.99985,N,11410.78773,E,1,08,0.79,38.7,M,-1.6,M,,*6F
$GNGSA,A,3,08,27,04,09,16,21,07,01,,,,,1.82,0.79,1.64*18
$GPGSV,4,1,14,01,42,169,26,03,00,176,,04,20,196,24,07,56,321,33*7D
$GPGSV,4,2,14,08,54,011,19,09,29,233,36,14,03,292,,16,16,077,29*7A
$GPGSV,4,3,14,17,05,235,,21,61,133,36,22,07,151,25,26,03,096,*71
$GPGSV,4,4,14,27,24,036,17,30,18,320,16*70
$‡ÊÿÿÍÇÿÿ?
$GNRMC,023413.00,A,2217.99939,N,11410.78778,E,2.134,152.34,170521,,,A*75
$GNVTG,152.34,T,,M,2.134,N,3.953,K,A*2A
$GNGNS,023413.00,2217.99939,N,11410.78778,E,AN,08,0.79,38.3,-1.6,,*43
$GNGGA,023413.00,2217.99939,N,11410.78778,E,1,08,0.79,38.3,M,-1.6,M,,*66
$GNGSA,A,3,08,27,04,09,16,21,07,01,,,,,1.82,0.79,1.64*18
$GPGSV,4,1,14,01,42,169,27,03,00,176,,04,20,196,24,07,56,321,33*7C
$GPGSV,4,2,14,08,54,011,19,09,29,233,36,14,03,292,,16,16,077,29*7A
$]?ÿÿ­Õÿÿ??„g
$GNRMC,023414.00,A,2217.99888,N,11410.78805,E,2.126,152.50,170521,,,A*7D
$GNVTG,152.50,T,,M,2.126,N,3.938,K,A*26
