$GNRMC,023256.00,A,2218.05953,N,11410.74052,E,1.696,160.67,170521,,,A*7C
$GNVTG,160.67,T,,M,1.696,N,3.141,K,A*2A
$GNGGA,023256.00,2218.05953,N,11410.74052,E,1,12,1.00,65.3,M,-1.6,M,,*68
$GNGSA,A,3,08,27,16,04,07,09,01,21,,,,,1.90,1.00,1.62*12
$GNGSA,A,3,80,83,73,79,82,,,,,,,,1.90,1.00,1.62*13
$GPGSV,4,1,14,01,42,170,30,03,00,176,,04,21,196,26,07,56,321,16*76
$GPGSV,4,2,14,08,55,011,33,09,29,233,39,14,03,291,,16,17,077,15*71
$GPGSV,4,3,14,17,05,234,,21,60,134,20,22,07,152,11,26,02,096,*74
$GPGSV,4,4,14,27,25,036,24,30,17,320,*79
$GLGSV,2,1,08,71,02,267,,73,38,348,25,74,00,321,,79,13,117,33*66
$GLGSV,2,2,08,80,53,066,20,82,25,026,26,83,74,029,28,84,40,204,10*6A
$GNGLL,2218.05953,N,11410.74052,E,023256.00,A,A*75
$GNZDA,023256.00,17,05,2021,00,00*7A
$GNVTG,160.64,T,,M,1.682,N,3.114,K,A*2C
$GNGGA,023257.00,2218.05926,N,11410.74064,E,1,12,1.02,66.0,M,-1.6,M,,*6C
$GNGSA,A,3,08,27,16,04,07,09,01,21,,,,,1.88,1.02,1.58*10
$GNGSA,A,3,80,83,73,79,82,,,,,,,,1.88,1.02,1.58*11
$GPGSV,4,1,14,01,42,170,30,03,00,176,,04,21,196,25,07,56,321,15*76
$GPGSV,4,2,14,08,55,011,33,09,29,233,39,14,03,291,,16,17,077,16*72
$GPGSV,4,3,14,17,05,234,,21,60,134,20,22,07,152,11,26,02,096,*74
$GPGSV,4,4,14,27,25,036,25,30,17,320,*78
$GLGSV,2,1,08,71,02,267,,73,38,348,24,74,00,321,,79,13,117,32*66
$GLGSV,2,2,08,80,53,066,21,82,25,026,26,83,74,029,27,84,40,204,08*6D
$GNGLL,2218.05926,N,11410.74064,E,023257.00,A,A*73
$GNZDA,023257.00,17,05,2021,00,00*7B
$GNVTG,160.60,T,,M,1.668,N,3.088,K,A*28
$GNGGA,023258.00,2218.05899,N,11410.74077,E,1,12,1.02,66.8,M,-1.6,M,,*6C
$GNGSA,A,3,08,27,16,04,07,09,01,21,,,,,1.88,1.02,1.58*10
$GNGSA,A,3,80,83,73,79,82,84,,,,,,,1.88,1.02,1.58*1D
$GPGSV,4,1,14,01,42,170,30,03,00,176,,04,21,196,24,07,56,321,14*76
$GPGSV,4,2,14,08,55,011,33,09,29,233,39,14,03,291,,16,17,077,17*73
$GPGSV,4,3,14,17,05,234,,21,60,134,19,22,07,152,12,26,02,096,*7D
$GPGSV,4,4,14,27,25,036,24,30,17,320,*79
$GLGSV,2,1,08,71,02,267,,73,38,348,23,74,00,321,,79,13,117,32*61
$GLGSV,2,2,08,80,53,067,21,82,25,026,25,83,74,029,27,84,40,204,12*64
$GNGLL,2218.05899,N,11410.74077,E,023258.00,A,A*7B
$GNZDA,023258.00,17,05,2021,00,00*74
$GNVTG,160.55,T,,M,1.657,N,3.068,K,A*2C
$GNGGA,023259.00,2218.05877,N,11410.74090,E,1,12,1.13,67.4,M,-1.6,M,,*69
$GNGSA,A,3,08,27,16,04,07,09,01,21,,,,,1.96,1.13,1.60*14
$GNGSA,A,3,80,83,73,79,82,84,,,,,,,1.96,1.13,1.60*19
$GPGSV,4,1,14,01,42,170,30,03,00,176,,04,21,196,23,07,56,321,14*71
$GPGSV,4,2,14,08,55,011,33,09,29,233,39,14,03,291,,16,17,077,18*7C
$GPGSV,4,3,14,17,05,234,,21,60,134,18,22,07,152,12,26,02,096,*7C
$GPGSV,4,4,14,27,25,036,25,30,17,320,*78
$GLGSV,2,1,08,71,02,267,,73,38,348,21,74,00,321,,79,13,117,31*60
$GLGSV,2,2,08,80,53,067,22,82,25,026,24,83,74,029,27,84,40,204,10*64
$GNGLL,2218.05877,N,11410.74090,E,023259.00,A,A*73
$GNZDA,023259.00,17,05,2021,00,00*75
$GNVTG,160.50,T,,M,1.646,N,3.048,K,A*2B
$GNGGA,023300.00,2218.05856,N,11410.74105,E,1,12,1.13,67.9,M,-1.6,M,,*67
$GNGSA,A,3,08,27,16,04,07,09,01,21,,,,,1.96,1.13,1.60*14
$GNGSA,A,3,80,83,73,79,82,84,,,,,,,1.96,1.13,1.60*19
$GPGSV,4,1,14,01,42,170,30,03,00,176,,04,21,196,22,07,56,321,14*70
$GPGSV,4,2,14,08,55,011,34,09,29,233,39,14,03,291,,16,17,077,18*7B
$GPGSV,4,3,14,17,05,234,,21,60,134,18,22,07,152,12,26,02,096,*7C
$GPGSV,4,4,14,27,25,036,25,30,17,320,*78
$GLGSV,2,1,08,71,02,267,,73,38,348,21,74,00,321,,79,13,117,31*60
$GLGSV,2,2,08,80,53,067,22,82,25,026,23,83,74,029,27,84,40,204,10*63
$GNGLL,2218.05856,N,11410.74105,E,023300.00,A,A*70
$GNZDA,023300.00,17,05,2021,00,00*78
$GNVTG,160.44,T,,M,1.639,N,3.035,K,A*2C
$GNGGA,023301.00,2218.05829,N,11410.74121,E,1,12,0.81,68.6,M,-1.6,M,,*62
$GNGSA,A,3,08,27,16,04,07,09,01,21,,,,,1.50,0.81,1.27*17
$GNGSA,A,3,80,83,73,79,82,84,,,,,,,1.50,0.81,1.27*1A
$GPGSV,4,1,14,01,42,170,30,03,00,176,,04,21,196,21,07,56,321,14*73
$GPGSV,4,2,14,08,55,011,34,09,29,233,39,14,03,291,,16,17,077,19*7A
$GPGSV,4,3,14,17,05,234,,21,60,134,18,22,07,152,13,26,02,096,*7D
$GPGSV,4,4,14,27,25,036,25,30,17,320,*78
$GLGSV,2,1,08,71,02,267,,73,38,348,21,74,00,321,,79,13,117,31*60
$GLGSV,2,2,08,80,53,067,22,82,25,026,22,83,74,029,27,84,40,204,13*61
$GNGLL,2218.05829,N,11410.74121,E,023301.00,A,A*7F
$GNZDA,023301.00,17,05,2021,00,00*79
$GNVTG,160.38,T,,M,1.630,N,3.020,K,A*2A
$GNGGA,023302.00,2218.05806,N,11410.74132,E,1,12,0.81,69.3,M,-1.6,M,,*6A
$GNGSA,A,3,08,27,16,04,07,09,01,21,,,,,1.50,0.81,1.27*17
$GNGSA,A,3,80,83,73,79,82,84,,,,,,,1.50,0.81,1.27*1A
$GPGSV,4,1,14,01,42,170,30,03,00,176,,04,21,196,19,07,56,321,13*7F
$GPGSV,4,2,14,08,55,011,34,09,29,233,38,14,03,291,,16,17,077,20*71
$GPGSV,4,3,14,17,05,234,,21,60,134,19,22,07,152,12,26,02,096,*7D
$GPGSV,4,4,14,27,25,036,26,30,17,320,*7B
$GLGSV,2,1,08,71,02,267,,73,38,348,21,74,00,321,,79,13,117,32*63
$GLGSV,2,2,08,80,53,067,22,82,25,026,22,83,74,029,27,84,40,205,09*6B
$GNGLL,2218.05806,N,11410.74132,E,023302.00,A,A*73
$GNZDA,023302.00,17,05,2021,00,00*7A
$GNVTG,160.41,T,,M,1.619,N,2.998,K,A*24
$GNGGA,023303.00,2218.05791,N,11410.74133,E,1,12,1.07,69.3,M,-1.6,M,,*64
$GNGSA,A,3,08,27,16,04,07,09,01,21,,,,,1.79,1.07,1.44*16
$GNGSA,A,3,80,83,73,79,82,84,,,,,,,1.79,1.07,1.44*1B
$GPGSV,4,1,14,01,42,170,30,03,00,176,,04,21,196,18,07,56,321,14*79
$GPGSV,4,2,14,08,55,011,30,09,29,233,36,14,03,291,,16,17,077,20*7B
$GPGSV,4,3,14,17,05,234,,21,60,134,29,22,07,152,15,26,02,096,*79
$GPGSV,4,4,14,27,25,036,26,30,17,320,*7B
$GLGSV,2,1,08,71,02,267,,73,38,348,23,74,00,321,,79,13,117,27*65
$GLGSV,2,2,08,80,53,067,20,82,25,026,21,83,74,029,27,84,40,205,16*64
$GNGLL,2218.05791,N,11410.74133,E,023303.00,A,A*72
$GNZDA,023303.00,17,05,2021,00,00*7B
$GNVTG,160.62,T,,M,1.610,N,2.982,K,A*27
$GNGGA,023304.00,2218.05771,N,11410.74127,E,1,12,0.88,68.9,M,-1.6,M,,*65
$GNGSA,A,3,08,27,16,04,07,09,01,21,,,,,1.62,0.88,1.36*1F
$GNGSA,A,3,80,83,73,79,82,84,,,,,,,1.62,0.88,1.36*12
$GPGSV,4,1,14,01,42,170,30,03,00,176,,04,21,196,21,07,56,321,16*71
$GPGSV,4,2,14,08,55,011,30,09,29,233,37,14,03,291,,16,17,077,22*78
$GPGSV,4,3,14,17,05,234,,21,60,134,30,22,07,152,18,26,02,096,*7C
$GPGSV,4,4,14,27,25,036,27,30,17,320,*7A
$GLGSV,2,1,08,71,02,267,,73,38,348,23,74,00,321,,79,13,117,29*6B
$GLGSV,2,2,08,80,53,067,20,82,25,026,20,83,74,029,28,84,40,205,17*6B
$GNGLL,2218.05771,N,11410.74127,E,023304.00,A,A*7E
$GNZDA,023304.00,17,05,2021,00,00*7C
$GNVTG,161.19,T,,M,1.607,N,2.975,K,A*24
$GNGGA,023305.00,2218.05732,N,11410.74116,E,1,12,0.81,68.6,M,-1.6,M,,*67
$GNGSA,A,3,08,27,16,04,07,09,01,21,,,,,1.50,0.81,1.27*17
$GNGSA,A,3,80,83,73,79,82,84,,,,,,,1.50,0.81,1.27*1A
$GPGSV,4,1,14,01,42,170,25,03,00,176,,04,21,196,20,07,56,321,17*75
$GPGSV,4,2,14,08,55,011,31,09,29,233,38,14,03,291,,16,17,077,22*76
$GPGSV,4,3,14,17,05,234,,21,60,134,25,22,07,152,19,26,02,096,*79
$GPGSV,4,4,14,27,25,036,26,30,17,320,*7B
$GLGSV,2,1,08,71,02,267,,73,38,348,23,74,00,321,,79,13,117,27*65
$GLGSV,2,2,08,80,53,067,20,82,25,026,20,83,74,029,28,84,40,205,13*6F
$GNGLL,2218.05732,N,11410.74116,E,023305.00,A,A*7A
$GNZDA,023305.00,17,05,2021,00,00*7D
$GNVTG,161.79,T,,M,1.597,N,2.958,K,A*27
$GNGGA,023306.00,2218.05705,N,11410.74090,E,1,12,1.11,67.9,M,-1.6,M,,*67
$GNGSA,A,3,08,27,16,04,07,09,01,21,,,,,1.83,1.11,1.46*16
$GNGSA,A,3,80,83,73,79,82,84,,,,,,,1.83,1.11,1.46*1B
$GPGSV,4,1,14,01,42,170,31,03,00,176,,04,21,196,19,07,56,321,18*75
$GPGSV,4,2,14,08,55,011,29,09,29,233,36,14,03,291,,16,17,077,29*7A
$GPGSV,4,3,14,17,05,234,,21,60,134,24,22,07,152,18,26,02,096,*79
$GPGSV,4,4,14,27,25,036,26,30,17,320,*7B
$GLGSV,2,1,08,71,02,267,,73,38,348,23,74,00,321,,79,13,117,25*67
$GLGSV,2,2,08,80,53,067,21,82,25,026,19,83,74,029,28,84,40,205,13*64
$GNGLL,2218.05705,N,11410.74090,E,023306.00,A,A*72
$GNZDA,023306.00,17,05,2021,00,00*7E
$GNVTG,162.75,T,,M,1.593,N,2.950,K,A*24
$GNGGA,023307.00,2218.05658,N,11410.74068,E,1,12,0.84,67.3,M,-1.6,M,,*6F
$GNGSA,A,3,08,27,16,04,07,09,01,21,,,,,1.57,0.84,1.33*10
$GNGSA,A,3,80,83,73,79,82,84,,,,,,,1.57,0.84,1.33*1D
$GPGSV,4,1,14,01,42,170,25,03,00,176,,04,21,196,18,07,56,321,17*7E
$GPGSV,4,2,14,08,55,011,21,09,29,233,35,14,03,291,,16,17,077,28*70
$GPGSV,4,3,14,17,05,234,,21,60,134,25,22,07,152,16,26,02,096,*76
$GPGSV,4,4,14,27,25,036,24,30,17,320,*79
$GLGSV,2,1,08,71,02,267,,73,38,348,26,74,00,321,,79,13,117,23*64
$GLGSV,2,2,08,80,53,067,21,82,25,026,21,83,74,029,28,84,40,205,13*6F
$GNGLL,2218.05658,N,11410.74068,E,023307.00,A,A*7D
$GNZDA,023307.00,17,05,2021,00,00*7F
$GNVTG,163.93,T,,M,1.589,N,2.942,K,A*25
$GNGGA,023308.00,2218.05614,N,11410.74051,E,1,12,0.84,66.8,M,-1.6,M,,*68
$GNGSA,A,3,08,27,16,04,07,09,01,21,,,,,1.57,0.84,1.33*10
$GNGSA,A,3,80,83,73,79,82,84,,,,,,,1.57,0.84,1.33*1D
$GPGSV,4,1,14,01,42,170,24,03,00,176,,04,21,196,17,07,56,321,16*71
$GPGSV,4,2,14,08,55,011,20,09,29,233,33,14,03,291,,16,17,077,28*77
$GPGSV,4,3,14,17,05,234,,21,60,134,25,22,07,152,17,26,02,096,*77
$GPGSV,4,4,14,27,25,036,22,30,17,320,*7F
$GLGSV,2,1,08,71,02,267,,73,38,348,25,74,00,321,,79,13,117,21*65
$GLGSV,2,2,08,80,53,067,23,82,25,026,22,83,74,029,28,84,40,205,13*6E
$GNGLL,2218.05614,N,11410.74051,E,023308.00,A,A*70
$GNZDA,023308.00,17,05,2021,00,00*70
$GNVTG,165.00,T,,M,1.585,N,2.935,K,A*25
$GNGGA,023309.00,2218.05573,N,11410.74039,E,1,12,0.86,66.3,M,-1.6,M,,*6C
$GNGSA,A,3,08,27,16,04,07,09,01,21,,,,,1.59,0.86,1.33*1C
$GNGSA,A,3,80,83,73,79,82,,,,,,,,1.59,0.86,1.33*1D
$GPGSV,4,1,14,01,42,170,26,03,00,176,,04,21,196,18,07,56,321,17*7D
$GPGSV,4,2,14,08,55,011,21,09,29,233,28,14,03,291,,16,17,077,26*72
$GPGSV,4,3,14,17,05,234,,21,60,134,24,22,07,152,17,26,02,096,*76
$GPGSV,4,4,14,27,25,036,20,30,17,320,*7D
$GLGSV,2,1,08,71,02,267,,73,38,348,23,74,00,321,,79,13,117,19*68
$GLGSV,2,2,08,80,53,067,23,82,25,026,21,83,74,029,26,84,40,205,07*66
$GNGLL,2218.05573,N,11410.74039,E,023309.00,A,A*7D
$GNZDA,023309.00,17,05,2021,00,00*71
$GNVTG,165.58,T,,M,1.591,N,2.946,K,A*29
$GNGGA,023310.00,2218.05526,N,11410.74051,E,1,12,0.96,66.3,M,-1.6,M,,*6B
$GNGSA,A,3,08,27,16,04,07,09,01,21,,,,,1.68,0.96,1.38*14
$GNGSA,A,3,80,83,73,79,82,,,,,,,,1.68,0.96,1.38*15
$GPGSV,4,1,14,01,42,170,24,03,00,176,,04,21,196,18,07,56,321,38*72
$GPGSV,4,2,14,08,55,011,21,09,29,233,18,14,03,291,,16,17,077,25*72
$GPGSV,4,3,14,17,05,234,,21,60,134,25,22,07,152,17,26,02,096,*77
$GPGSV,4,4,14,27,25,036,22,30,17,320,14*7A
$GLGSV,2,1,08,71,02,267,,73,38,348,30,74,00,321,,79,13,117,17*64
$GLGSV,2,2,08,80,53,067,22,82,25,026,20,83,74,029,22,84,40,205,08*6D
$GNGLL,2218.05526,N,11410.74051,E,023310.00,A,A*7B
$GNZDA,023310.00,17,05,2021,00,00*79
$GNVTG,165.98,T,,M,1.586,N,2.937,K,A*25
$GNGGA,023311.00,2218.05513,N,11410.74032,E,1,12,0.96,65.1,M,-1.6,M,,*68
$GNGSA,A,3,08,27,16,04,07,09,01,21,,,,,1.68,0.96,1.38*14
$GNGSA,A,3,80,83,73,79,82,,,,,,,,1.68,0.96,1.38*15
$GPGSV,4,1,14,01,42,170,24,03,00,176,,04,21,196,16,07,56,321,20*75
$GPGSV,4,2,14,08,55,011,22,09,29,233,32,14,03,291,,16,17,077,25*79
$GPGSV,4,3,14,17,05,234,,21,60,134,37,22,07,152,16,26,02,096,*75
$GPGSV,4,4,14,27,25,036,23,30,17,320,17*78
$GLGSV,2,1,08,71,02,267,,73,38,348,23,74,00,321,,79,13,117,14*65
$GLGSV,2,2,08,80,53,067,21,82,25,026,15,83,74,029,18,84,40,205,07*6E
$GNGLL,2218.05513,N,11410.74032,E,023311.00,A,A*79
$GNZDA,023311.00,17,05,2021,00,00*78
$GNVTG,166.25,T,,M,1.576,N,2.918,K,A*22
$GNGGA,023312.00,2218.05541,N,11410.73990,E,1,12,1.03,62.6,M,-1.6,M,,*67
$GNGSA,A,3,08,27,16,04,07,09,01,21,,,,,1.78,1.03,1.44*13
$GNGSA,A,3,80,83,73,82,,,,,,,,,1.78,1.03,1.44*1C
$GPGSV,4,1,14,01,42,170,38,03,00,176,,04,21,196,16,07,56,321,29*71
$GPGSV,4,2,14,08,55,011,30,09,29,233,29,14,03,291,,16,17,077,25*70
$GPGSV,4,3,14,17,05,234,,21,60,134,36,22,07,152,13,26,02,096,*71
$GPGSV,4,4,14,27,25,036,22,30,17,320,17*79
$GLGSV,2,1,08,71,02,267,,73,38,348,20,74,00,321,,79,13,117,10*62
$GLGSV,2,2,08,80,53,067,28,82,25,026,14,83,74,029,12,84,40,205,09*62
$GNGLL,2218.05541,N,11410.73990,E,023312.00,A,A*7B
$GNZDA,023312.00,17,05,2021,00,00*7B
$GNVTG,166.59,T,,M,1.600,N,2.963,K,A*27
$GNGGA,023313.00,2218.05560,N,11410.73928,E,1,11,1.24,58.0,M,-1.6,M,,*6F
$GNGSA,A,3,08,27,16,07,09,01,21,,,,,,2.01,1.24,1.59*13
$GNGSA,A,3,80,83,73,82,,,,,,,,,2.01,1.24,1.59*18
$GPGSV,4,1,14,01,42,170,40,03,00,176,,04,21,196,,07,56,321,42*74
$GPGSV,4,2,14,08,55,011,43,09,29,233,26,14,03,291,,16,17,077,23*7D
$GPGSV,4,3,14,17,05,234,,21,60,134,39,22,07,152,14,26,02,096,*79
$GPGSV,4,4,14,27,25,036,39,30,17,320,15*71
$GLGSV,2,1,08,71,02,267,,73,38,348,20,74,00,321,,79,13,117,08*6B
$GLGSV,2,2,08,80,53,067,28,82,25,026,18,83,74,029,15,84,40,205,09*69
$GNGLL,2218.05560,N,11410.73928,E,023313.00,A,A*7A
$GNZDA,023313.00,17,05,2021,00,00*7A
$GNVTG,166.21,T,,M,1.633,N,3.023,K,A*24
$GNGGA,023314.00,2218.05457,N,11410.74005,E,1,11,1.42,57.0,M,-1.6,M,,*63
$GNGSA,A,3,08,27,16,07,09,01,21,,,,,,2.17,1.42,1.64*1A
$GNGSA,A,3,80,83,73,82,,,,,,,,,2.17,1.42,1.64*11
$GPGSV,4,1,14,01,42,170,38,03,00,176,,04,21,196,25,07,56,321,40*7E
$GPGSV,4,2,14,08,54,011,41,09,29,233,23,14,03,291,,16,17,077,20*78
$GPGSV,4,3,14,17,05,234,,21,60,134,39,22,07,152,16,26,02,096,*7B
$GPGSV,4,4,14,27,25,036,33,30,17,320,18*76
$GLGSV,2,1,08,71,02,267,,73,38,348,21,74,00,321,,79,13,117,09*6B
$GLGSV,2,2,08,80,53,067,28,82,25,026,29,83,74,029,18,84,40,205,11*6F
$GNGLL,2218.05457,N,11410.74005,E,023314.00,A,A*79
$GNZDA,023314.00,17,05,2021,00,00*7D
$GNVTG,166.14,T,,M,1.696,N,3.140,K,A*29
$GNGGA,023315.00,2218.05403,N,11410.73997,E,1,12,0.95,56.9,M,-1.6,M,,*66
$GNGSA,A,3,08,27,16,04,07,09,01,21,,,,,1.70,0.95,1.41*10
$GNGSA,A,3,80,83,73,79,82,84,,,,,,,1.70,0.95,1.41*1D
$GPGSV,4,1,14,01,42,170,37,03,00,176,,04,21,196,31,07,56,321,40*74
$GPGSV,4,2,14,08,54,011,39,09,29,233,20,14,03,291,,16,17,077,20*74
$GPGSV,4,3,14,17,05,234,,21,60,134,40,22,07,152,19,26,02,096,*7A
$GPGSV,4,4,14,27,25,036,39,30,17,320,20*77
$GLGSV,2,1,08,71,02,267,,73,38,348,20,74,00,321,,79,13,117,11*63
$GLGSV,2,2,08,80,53,067,28,82,25,026,33,83,74,029,19,84,40,205,10*64
$GNGLL,2218.05403,N,11410.73997,E,023315.00,A,A*7C
$GNZDA,023315.00,17,05,2021,00,00*7C
$GNVTG,165.82,T,,M,1.718,N,3.182,K,A*2C
$GNGGA,023316.00,2218.05359,N,11410.74037,E,1,12,1.20,55.6,M,-1.6,M,,*6A
$GNGSA,A,3,08,27,16,04,07,01,21,,,,,,2.16,1.20,1.79*1E
$GNGSA,A,3,80,83,73,79,82,84,,,,,,,2.16,1.20,1.79*1A
$GPGSV,4,1,14,01,42,170,34,03,00,176,,04,21,196,25,07,56,321,40*72
$GPGSV,4,2,14,08,54,011,40,09,29,233,25,14,03,291,20,16,17,077,21*7C
$GPGSV,4,3,14,17,05,234,,21,60,134,40,22,07,152,20,26,02,096,*70
$GPGSV,4,4,14,27,25,036,40,30,17,320,21*78
$GLGSV,2,1,08,71,02,267,,73,38,348,18,74,00,321,,79,13,117,11*68
$GLGSV,2,2,08,80,53,067,27,82,25,026,27,83,74,029,19,84,40,205,13*6D
$GNGLL,2218.05359,N,11410.74037,E,023316.00,A,A*73
$GNZDA,023316.00,17,05,2021,00,00*7F
$GNVTG,165.43,T,,M,1.789,N,3.313,K,A*23
$GNGGA,023317.00,2218.05271,N,11410.74086,E,1,12,1.06,57.2,M,-1.6,M,,*68
$GNGSA,A,3,08,27,16,07,09,01,21,,,,,,1.90,1.06,1.58*19
$GNGSA,A,3,80,83,73,79,82,84,,,,,,,1.90,1.06,1.58*10
$GPGSV,4,1,14,01,42,170,27,03,00,176,,04,21,196,24,07,56,321,39*7F
$GPGSV,4,2,14,08,54,011,37,09,29,233,25,14,03,291,,16,17,077,19*75
$GPGSV,4,3,14,17,05,234,,21,60,134,40,22,07,152,20,26,02,096,*70
$GPGSV,4,4,14,27,25,036,38,30,17,320,18*7D
$GLGSV,2,1,08,71,02,267,,73,38,348,17,74,00,321,,79,13,117,12*64
$GLGSV,2,2,08,80,53,067,10,82,25,026,28,83,74,029,18,84,40,205,16*62
$GNGLL,2218.05271,N,11410.74086,E,023317.00,A,A*73
$GNZDA,023317.00,17,05,2021,00,00*7E
$GNVTG,164.99,T,,M,1.792,N,3.320,K,A*2F
$GNGGA,023318.00,2218.05227,N,11410.74119,E,1,12,0.97,56.8,M,-1.6,M,,*61
$GNGSA,A,3,08,27,16,07,09,01,21,,,,,,1.96,0.97,1.71*1D
$GNGSA,A,3,83,73,79,82,84,,,,,,,,1.96,0.97,1.71*1C
$GPGSV,4,1,14,01,42,170,25,03,00,176,,04,21,196,22,07,56,321,35*77
$GPGSV,4,2,14,08,54,011,34,09,29,233,26,14,03,291,,16,17,077,18*74
$GPGSV,4,3,14,17,05,234,,21,60,134,36,22,07,152,25,26,02,096,*74
$GPGSV,4,4,14,27,25,036,35,30,17,320,16*7E
$GLGSV,2,1,08,71,02,267,,73,38,348,22,74,00,321,,79,13,117,13*63
$GLGSV,2,2,08,80,53,067,09,82,25,026,33,83,74,029,17,84,40,205,25*6F
$GNGLL,2218.05227,N,11410.74119,E,023318.00,A,A*78
$GNZDA,023318.00,17,05,2021,00,00*71
$GNVTG,164.53,T,,M,1.806,N,3.346,K,A*2B
$GNGGA,023319.00,2218.05155,N,11410.74167,E,1,12,0.93,56.7,M,-1.6,M,,*64
$GNGSA,A,3,08,27,16,04,07,09,01,21,,,,,1.85,0.93,1.60*1F
$GNGSA,A,3,83,73,79,82,84,,,,,,,,1.85,0.93,1.60*1A
$GPGSV,4,1,14,01,42,170,23,03,00,176,,04,21,196,20,07,56,321,36*70
$GPGSV,4,2,14,08,54,011,35,09,29,233,31,14,03,292,,16,17,077,15*7D
$GPGSV,4,3,14,17,05,234,,21,60,134,36,22,07,152,31,26,02,096,*71
$GPGSV,4,4,14,27,25,036,24,30,17,320,15*7D
$GLGSV,2,1,08,71,02,267,,73,38,348,30,74,00,321,,79,13,117,15*66
$GLGSV,2,2,08,80,53,067,08,82,25,026,34,83,74,029,18,84,40,205,22*61
$GNGLL,2218.05155,N,11410.74167,E,023319.00,A,A*76
$GNZDA,023319.00,17,05,2021,00,00*70
$GNVTG,164.19,T,,M,1.813,N,3.357,K,A*21
$GNGGA,023320.00,2218.05098,N,11410.74196,E,1,12,0.93,57.1,M,-1.6,M,,*67
$GNGSA,A,3,08,27,16,04,07,09,01,21,,,,,1.78,0.93,1.51*1F
$GNGSA,A,3,80,83,73,79,82,84,,,,,,,1.78,0.93,1.51*12
$GPGSV,4,1,14,01,42,170,30,03,00,176,,04,21,196,19,07,56,321,33*7D
$GPGSV,4,2,14,08,54,011,20,09,29,233,28,14,03,292,,16,17,077,15*71
$GPGSV,4,3,14,17,05,234,,21,60,134,34,22,07,152,24,26,02,096,*77
$GPGSV,4,4,14,27,25,036,21,30,17,320,17*7A
$GLGSV,2,1,08,71,02,267,,73,38,348,28,74,00,321,,79,13,117,15*6F
$GLGSV,2,2,08,80,53,067,12,82,25,026,22,83,74,029,19,84,40,205,20*6E
$GNGLL,2218.05098,N,11410.74196,E,023320.00,A,A*72
$GNZDA,023320.00,17,05,2021,00,00*7A
$GNVTG,163.94,T,,M,1.817,N,3.366,K,A*25
$GNGGA,023321.00,2218.05042,N,11410.74223,E,1,12,1.09,57.5,M,-1.6,M,,*6A
$GNGSA,A,3,08,27,16,04,07,09,,,,,,,1.90,1.09,1.56*1E
$GNGSA,A,3,80,83,73,79,82,84,,,,,,,1.90,1.09,1.56*11
$GPGSV,4,1,14,01,42,170,,03,00,176,,04,21,196,17,07,56,321,33*70
$GPGSV,4,2,14,08,54,011,33,09,29,233,27,14,03,292,,16,16,077,13*7B
$GPGSV,4,3,14,17,05,234,,21,60,134,,22,07,152,20,26,02,096,*74
$GPGSV,4,4,14,27,25,036,16,30,17,320,17*7E
$GLGSV,2,1,08,71,02,267,,73,38,348,26,74,00,321,,79,13,117,17*63
$GLGSV,2,2,08,80,53,067,14,82,25,026,19,83,74,029,18,84,40,205,15*67
$GNGLL,2218.05042,N,11410.74223,E,023321.00,A,A*79
$GNZDA,023321.00,17,05,2021,00,00*7B
$GNVTG,163.68,T,,M,1.825,N,3.380,K,A*2F
$GNGGA,023322.00,2218.04980,N,11410.74261,E,1,12,1.00,57.9,M,-1.6,M,,*6C
$GNGSA,A,3,08,27,16,04,07,09,21,,,,,,1.75,1.00,1.44*1C
$GNGSA,A,3,80,83,73,82,84,,,,,,,,1.75,1.00,1.44*1E
$GPGSV,4,1,14,01,42,170,25,03,00,176,,04,21,196,17,07,56,321,35*71
$GPGSV,4,2,14,08,54,011,22,09,29,233,26,14,03,292,,16,16,077,14*7D
$GPGSV,4,3,14,17,05,235,,21,60,134,34,22,07,152,16,26,02,096,*77
$GPGSV,4,4,14,27,25,036,16,30,17,320,16*7F
$GLGSV,2,1,08,71,02,267,,73,38,348,22,74,00,321,,79,13,117,*61
$GLGSV,2,2,08,80,53,067,16,82,25,026,13,83,74,029,16,84,40,205,12*66
$GNGLL,2218.04980,N,11410.74261,E,023322.00,A,A*7A
$GNZDA,023322.00,17,05,2021,00,00*78
$GNVTG,163.44,T,,M,1.831,N,3.392,K,A*27
$GNGGA,023323.00,2218.04920,N,11410.74296,E,1,12,1.13,58.3,M,-1.6,M,,*68
$GNGSA,A,3,08,27,16,04,07,09,01,21,,,,,1.99,1.13,1.64*1F
$GNGSA,A,3,80,83,73,82,,,,,,,,,1.99,1.13,1.64*10
$GPGSV,4,1,14,01,42,170,25,03,00,176,,04,21,196,20,07,56,321,35*75
$GPGSV,4,2,14,08,54,011,22,09,29,233,35,14,03,292,,16,16,077,12*79
$GPGSV,4,3,14,17,05,235,,21,60,134,34,22,07,152,13,26,02,096,*72
$GPGSV,4,4,14,27,25,036,14,30,17,320,15*7E
$GLGSV,2,1,08,71,02,267,,73,38,348,18,74,00,321,,79,13,117,*68
$GLGSV,2,2,08,80,53,067,16,82,25,026,13,83,74,029,16,84,40,205,09*6C
$GNGLL,2218.04920,N,11410.74296,E,023323.00,A,A*79
$GNZDA,023323.00,17,05,2021,00,00*79
$GNVTG,163.17,T,,M,1.838,N,3.405,K,A*21
$GNGGA,023324.00,2218.04855,N,11410.74336,E,1,09,1.13,58.6,M,-1.6,M,,*68
$GNGSA,A,3,08,16,04,07,01,,,,,,,,1.99,1.13,1.64*10
$GNGSA,A,3,80,83,73,82,,,,,,,,,1.99,1.13,1.64*10
$GPGSV,4,1,14,01,42,170,25,03,00,176,,04,21,196,20,07,56,321,36*76
$GPGSV,4,2,14,08,54,011,23,09,29,233,,14,03,292,,16,16,077,13*7F
$GPGSV,4,3,14,17,05,235,,21,60,134,,22,07,152,17,26,02,096,*71
$GPGSV,4,4,14,27,25,036,29,30,17,320,16*73
$GLGSV,2,1,08,71,02,267,,73,38,348,17,74,00,321,,79,13,117,*67
$GLGSV,2,2,08,80,53,067,18,82,25,026,13,83,74,029,15,84,40,205,09*61
$GNGLL,2218.04855,N,11410.74336,E,023324.00,A,A*76
$GNZDA,023324.00,17,05,2021,00,00*7E
$GNVTG,162.96,T,,M,1.844,N,3.414,K,A*22
$GNGGA,023325.00,2218.04795,N,11410.74369,E,1,10,1.31,59.0,M,-1.6,M,,*6F
$GNGSA,A,3,08,16,04,07,01,21,,,,,,,2.41,1.31,2.02*16
$GNGSA,A,3,80,83,73,82,,,,,,,,,2.41,1.31,2.02*15
$GPGSV,4,1,14,01,42,170,24,03,00,176,,04,21,196,18,07,56,321,35*7F
$GPGSV,4,2,14,08,54,011,21,09,29,233,25,14,03,292,,16,16,077,13*7A
$GPGSV,4,3,14,17,05,235,,21,60,134,37,22,07,152,18,26,02,096,*7A
$GPGSV,4,4,14,27,25,036,21,30,17,320,14*79
$GLGSV,2,1,08,71,02,267,,73,38,348,19,74,00,321,,79,13,117,*69
$GLGSV,2,2,08,80,53,067,29,82,25,026,14,83,74,029,16,84,40,205,08*66
$GNGLL,2218.04795,N,11410.74369,E,023325.00,A,A*7E
$GNZDA,023325.00,17,05,2021,00,00*7F
$GNVTG,162.71,T,,M,1.849,N,3.424,K,A*25
$GNGGA,023326.00,2218.04737,N,11410.74409,E,1,09,1.08,59.5,M,-1.6,M,,*62
$GNGSA,A,3,08,27,16,04,07,09,01,,,,,,2.04,1.08,1.73*17
$GNGSA,A,3,83,73,,,,,,,,,,,2.04,1.08,1.73*19
$GPGSV,4,1,14,01,42,170,22,03,00,176,,04,21,196,20,07,56,321,35*72
$GPGSV,4,2,14,08,54,011,20,09,29,233,34,14,03,292,,16,16,077,16*7E
$GPGSV,4,3,14,17,05,235,,21,61,133,,22,07,152,23,26,02,096,*70
$GPGSV,4,4,14,27,25,036,20,30,17,320,13*7F
$GLGSV,2,1,08,71,02,267,,73,38,348,19,74,00,321,,79,13,117,*69
$GLGSV,2,2,08,80,53,067,,82,25,026,,83,74,029,17,84,40,205,09*68
$GNGLL,2218.04737,N,11410.74409,E,023326.00,A,A*74
$GNZDA,023326.00,17,05,2021,00,00*7C
$GNVTG,162.30,T,,M,1.876,N,3.474,K,A*29
$GNGGA,023327.00,2218.04623,N,11410.74500,E,1,10,1.11,58.9,M,-1.6,M,,*62
$GNGSA,A,3,08,16,04,07,09,01,21,,,,,,2.19,1.11,1.89*10
$GNGSA,A,3,83,73,84,,,,,,,,,,2.19,1.11,1.89*14
$GPGSV,4,1,14,01,42,170,33,03,00,176,,04,21,196,22,07,56,321,39*7C
$GPGSV,4,2,14,08,54,011,23,09,29,233,26,14,03,292,,16,16,077,18*70
$GPGSV,4,3,14,17,05,235,,21,61,133,38,22,07,151,29,26,02,096,*72
$GPGSV,4,4,14,27,25,036,21,30,17,320,16*7B
$GLGSV,2,1,08,71,02,267,,73,38,348,22,74,00,321,,79,13,117,*61
$GLGSV,2,2,08,80,53,067,,82,25,026,,83,74,029,18,84,40,205,24*68
$GNGLL,2218.04623,N,11410.74500,E,023327.00,A,A*79
$GNZDA,023327.00,17,05,2021,00,00*7D
$GNVTG,161.91,T,,M,1.890,N,3.500,K,A*2B
$GNGGA,023328.00,2218.04544,N,11410.74557,E,1,09,1.24,58.9,M,-1.6,M,,*63
$GNGSA,A,3,27,16,04,07,09,01,,,,,,,2.33,1.24,1.97*1F
$GNGSA,A,3,83,73,84,,,,,,,,,,2.33,1.24,1.97*15
$GPGSV,4,1,14,01,42,170,29,03,00,176,,04,21,196,30,07,56,321,38*75
$GPGSV,4,2,14,08,54,011,,09,29,233,25,14,03,292,,16,16,077,19*73
$GPGSV,4,3,14,17,05,235,,21,61,133,,22,07,151,31,26,02,096,*70
$GPGSV,4,4,14,27,25,036,22,30,17,320,18*76
$GLGSV,2,1,08,71,02,267,,73,38,348,21,74,00,321,,79,13,117,*62
$GLGSV,2,2,08,80,53,067,,82,25,026,,83,74,029,18,84,40,205,27*6B
$GNGLL,2218.04544,N,11410.74557,E,023328.00,A,A*76
$GNZDA,023328.00,17,05,2021,00,00*72
$GNVTG,161.41,T,,M,1.914,N,3.545,K,A*2A
$GNGGA,023329.00,2218.04441,N,11410.74640,E,1,10,1.01,59.8,M,-1.6,M,,*6C
$GNGSA,A,3,08,27,16,04,07,09,21,,,,,,1.81,1.01,1.50*13
$GNGSA,A,3,83,73,84,,,,,,,,,,1.81,1.01,1.50*13
$GPGSV,4,1,14,01,42,170,25,03,00,176,,04,21,196,28,07,56,321,38*70
$GPGSV,4,2,14,08,54,011,29,09,29,233,24,14,03,292,,16,16,077,20*73
$GPGSV,4,3,14,17,05,235,,21,61,133,39,22,07,151,35,26,02,096,*7E
$GPGSV,4,4,14,27,25,036,29,30,17,320,19*7C
$GLGSV,2,1,08,71,02,267,,73,38,348,20,74,00,321,,79,13,117,21*60
$GLGSV,2,2,08,80,53,067,,82,25,026,,83,74,029,18,84,40,205,27*6B
$GNGLL,2218.04441,N,11410.74640,E,023329.00,A,A*76
$GNZDA,023329.00,17,05,2021,00,00*73
$GNVTG,161.06,T,,M,1.923,N,3.562,K,A*28
$GNGGA,023330.00,2218.04368,N,11410.74684,E,1,11,1.06,60.2,M,-1.6,M,,*66
$GNGSA,A,3,08,27,16,04,07,09,01,21,,,,,2.01,1.06,1.71*1D
$GNGSA,A,3,83,73,84,,,,,,,,,,2.01,1.06,1.71*1C
$GPGSV,4,1,14,01,42,170,31,03,00,176,,04,21,196,36,07,56,321,37*75
$GPGSV,4,2,14,08,54,011,38,09,29,233,31,14,03,292,,16,16,077,20*77
$GPGSV,4,3,14,17,05,235,,21,61,133,39,22,07,151,34,26,02,096,*7F
$GPGSV,4,4,14,27,25,036,28,30,17,320,20*77
$GLGSV,2,1,08,71,02,267,,73,38,348,19,74,00,321,,79,13,117,21*6A
$GLGSV,2,2,08,80,53,067,,82,25,026,,83,74,029,17,84,40,205,27*64
$GNGLL,2218.04368,N,11410.74684,E,023330.00,A,A*7A
$GNZDA,023330.00,17,05,2021,00,00*7B
$GNVTG,160.80,T,,M,1.923,N,3.562,K,A*27
$GNGGA,023331.00,2218.04318,N,11410.74722,E,1,11,1.79,60.5,M,-1.6,M,,*62
$GNGSA,A,3,08,27,16,04,07,09,01,21,,,,,3.53,1.79,3.05*12
$GNGSA,A,3,83,73,84,,,,,,,,,,3.53,1.79,3.05*13
$GPGSV,4,1,14,01,42,170,33,03,00,176,,04,21,196,29,07,56,321,36*78
$GPGSV,4,2,14,08,54,011,38,09,29,233,30,14,03,292,,16,16,077,23*75
$GPGSV,4,3,14,17,05,235,,21,61,133,39,22,07,151,35,26,02,096,*7E
$GPGSV,4,4,14,27,25,036,28,30,17,320,21*76
$GLGSV,2,1,08,71,02,267,,73,38,348,19,74,00,321,,79,13,117,18*60
$GLGSV,2,2,08,80,53,067,,82,25,026,,83,74,029,16,84,40,205,27*65
$GNGLL,2218.04318,N,11410.74722,E,023331.00,A,A*71
$GNZDA,023331.00,17,05,2021,00,00*7A
$GNVTG,160.49,T,,M,1.925,N,3.565,K,A*23
$GNGGA,023332.00,2218.04268,N,11410.74769,E,1,11,1.29,61.5,M,-1.6,M,,*6C
$GNGSA,A,3,08,27,16,04,07,09,01,21,,,,,2.80,1.29,2.48*10
$GNGSA,A,3,83,73,84,,,,,,,,,,2.80,1.29,2.48*11
$GPGSV,4,1,14,01,42,170,32,03,00,176,,04,21,196,31,07,56,321,36*70
$GPGSV,4,2,14,08,54,011,39,09,29,233,30,14,03,292,,16,16,077,25*72
$GPGSV,4,3,14,17,05,235,,21,61,133,40,22,07,151,35,26,02,096,*70
$GPGSV,4,4,14,27,24,036,29,30,17,320,21*76
$GLGSV,2,1,08,71,02,267,,73,38,348,19,74,00,321,,79,13,117,15*6D
$GLGSV,2,2,08,80,53,067,,82,25,026,,83,74,029,17,84,40,205,27*64
$GNGLL,2218.04268,N,11410.74769,E,023332.00,A,A*7B
$GNZDA,023332.00,17,05,2021,00,00*79
$GNVTG,160.22,T,,M,1.926,N,3.568,K,A*20
$GNGGA,023333.00,2218.04216,N,11410.74808,E,1,11,1.28,61.6,M,-1.6,M,,*6E
$GNGSA,A,3,08,27,16,04,07,09,01,21,,,,,2.43,1.28,2.06*14
$GNGSA,A,3,83,73,84,,,,,,,,,,2.43,1.28,2.06*15
$GPGSV,4,1,14,01,42,170,32,03,00,176,,04,21,196,31,07,56,321,36*70
$GPGSV,4,2,14,08,54,011,39,09,29,233,29,14,03,292,19,16,16,077,26*71
$GPGSV,4,3,14,17,05,235,,21,61,133,40,22,07,151,36,26,02,096,*73
$GPGSV,4,4,14,27,24,036,29,30,17,320,22*75
$GLGSV,2,1,08,71,02,267,,73,38,348,18,74,00,321,,79,13,117,12*6B
$GLGSV,2,2,08,80,53,067,,82,25,026,,83,74,029,18,84,40,205,27*6B
$GNGLL,2218.04216,N,11410.74808,E,023333.00,A,A*7B
$GNZDA,023333.00,17,05,2021,00,00*78
$GNRMC,023334.00,A,2218.04169,N,11410.74843,E,1.925,159.99,170521,,,A*7D
$GNVTG,159.99,T,,M,1.925,N,3.566,K,A*27
$GNGGA,023334.00,2218.04169,N,11410.74843,E,1,11,1.29,62.3,M,-1.6,M,,*6A
$GNGSA,A,3,08,27,16,04,07,09,01,21,,,,,2.33,1.29,1.94*1A
$GNGSA,A,3,83,73,84,,,,,,,,,,2.33,1.29,1.94*1B
$GPGSV,4,1,14,01,42,170,31,03,00,176,,04,21,196,32,07,56,321,36*70
$GPGSV,4,2,14,08,54,011,39,09,29,233,28,14,03,292,16,16,16,077,27*7E
$GPGSV,4,3,14,17,05,235,,21,61,133,40,22,07,151,36,26,02,096,*73
$GPGSV,4,4,14,27,24,036,29,30,17,320,22*75
$GLGSV,2,1,08,71,02,267,,73,38,348,18,74,00,321,,79,13,117,09*61
$GLGSV,2,2,08,80,53,067,,82,25,026,,83,74,029,18,84,40,205,28*64
$GNGLL,2218.04169,N,11410.74843,E,023334.00,A,A*78
$GNZDA,023334.00,17,05,2021,00,00*7F
$GNVTG,159.92,T,,M,1.909,N,3.536,K,A*27
$GNGGA,023335.00,2218.00108,N,11410.77329,E,1,11,1.06,117.3,M,-1.6,M,,*52
$GNGSA,A,3,08,27,16,04,07,09,01,21,,,,,1.99,1.06,1.69*16
$GNGSA,A,3,83,73,84,,,,,,,,,,1.99,1.06,1.69*17
$GPGSV,4,1,14,01,42,170,30,03,00,176,,04,21,196,32,07,56,321,37*70
$GPGSV,4,2,14,08,54,011,39,09,29,233,27,14,03,292,13,16,16,077,28*7B
$GPGSV,4,3,14,17,05,235,,21,61,133,40,22,07,151,35,26,02,096,*70
$GPGSV,4,4,14,27,24,036,30,30,18,320,22*72
$GLGSV,2,1,08,71,02,267,,73,38,348,18,74,00,321,,79,13,117,09*61
$GLGSV,2,2,08,80,53,067,,82,25,026,,83,74,029,19,84,40,205,28*65
$GNGLL,2218.00108,N,11410.77329,E,023335.00,A,A*7E
$GNZDA,023335.00,17,05,2021,00,00*7E
$GNVTG,159.93,T,,M,1.892,N,3.503,K,A*23
$GNGGA,023336.00,2218.00081,N,11410.77248,E,1,11,0.94,122.3,M,-1.6,M,,*5B
$GNGSA,A,3,08,27,16,04,07,09,01,21,,,,,1.74,0.94,1.46*12
$GNGSA,A,3,83,73,84,,,,,,,,,,1.74,0.94,1.46*13
$GPGSV,4,1,14,01,42,170,29,03,00,176,,04,21,196,31,07,56,321,37*7B
$GPGSV,4,2,14,08,54,011,40,09,29,233,28,14,03,292,,16,16,077,28*78
$GPGSV,4,3,14,17,05,235,,21,61,133,40,22,07,151,35,26,02,096,*70
$GPGSV,4,4,14,27,24,036,30,30,18,320,22*72
$GLGSV,2,1,08,71,02,267,,73,38,348,19,74,00,321,,79,13,117,08*61
$GLGSV,2,2,08,80,53,067,,82,25,026,,83,74,029,18,84,40,205,28*64
$GNGLL,2218.00081,N,11410.77248,E,023336.00,A,A*7B
$GNZDA,023336.00,17,05,2021,00,00*7D
$GNVTG,159.95,T,,M,1.875,N,3.472,K,A*2B
$GNGGA,023337.00,2218.00009,N,11410.77121,E,1,12,0.94,128.7,M,-1.6,M,,*5B
$GNGSA,A,3,08,27,16,04,07,09,01,21,,,,,1.74,0.94,1.46*12
$GNGSA,A,3,83,73,79,84,,,,,,,,,1.74,0.94,1.46*1D
$GPGSV,4,1,14,01,42,170,28,03,00,176,,04,21,196,30,07,56,321,35*79
$GPGSV,4,2,14,08,54,011,38,09,29,233,28,14,03,292,,16,16,077,27*78
$GPGSV,4,3,14,17,05,235,,21,61,133,38,22,07,151,34,26,02,096,*7E
$GPGSV,4,4,14,27,24,036,29,30,18,320,21*79
$GLGSV,2,1,08,71,02,267,,73,38,348,19,74,00,321,,79,13,117,10*68
$GLGSV,2,2,08,80,53,067,,82,25,026,,83,74,029,18,84,40,205,28*64
$GNGLL,2218.00009,N,11410.77121,E,023337.00,A,A*76
$GNZDA,023337.00,17,05,2021,00,00*7C
$GNVTG,159.96,T,,M,1.858,N,3.440,K,A*26
$GNGGA,023338.00,2217.99957,N,11410.77056,E,1,12,0.94,135.0,M,-1.6,M,,*53
$GNGSA,A,3,08,27,16,04,07,09,01,21,,,,,1.74,0.94,1.46*12
$GNGSA,A,3,83,73,79,84,,,,,,,,,1.74,0.94,1.46*1D
$GPGSV,4,1,14,01,42,170,28,03,00,176,,04,21,196,30,07,56,321,35*79
$GPGSV,4,2,14,08,54,011,38,09,29,233,30,14,03,292,,16,16,077,27*71
$GPGSV,4,3,14,17,05,235,,21,61,133,38,22,07,151,34,26,02,096,*7E
$GPGSV,4,4,14,27,24,036,29,30,18,320,21*79
$GLGSV,2,1,08,71,02,267,,73,38,348,19,74,00,321,,79,13,117,14*6C
$GLGSV,2,2,08,80,53,067,,82,25,026,,83,74,029,18,84,40,205,28*64
$GNGLL,2217.99957,N,11410.77056,E,023338.00,A,A*75
$GNZDA,023338.00,17,05,2021,00,00*73
$GNVTG,159.95,T,,M,1.838,N,3.404,K,A*23
$GNGGA,023339.00,2217.99946,N,11410.77088,E,1,12,0.94,139.8,M,-1.6,M,,*55
$GNGSA,A,3,08,27,16,04,07,09,01,21,,,,,1.74,0.94,1.46*12
$GNGSA,A,3,83,73,79,84,,,,,,,,,1.74,0.94,1.46*1D
$GPGSV,4,1,14,01,42,170,29,03,00,176,,04,21,196,30,07,56,321,35*78
$GPGSV,4,2,14,08,54,011,38,09,29,233,31,14,03,292,,16,16,077,27*70
$GPGSV,4,3,14,17,05,235,,21,61,133,38,22,07,151,33,26,02,096,*79
$GPGSV,4,4,14,27,24,036,28,30,18,320,21*78
$GLGSV,2,1,08,71,02,267,,73,38,348,20,74,00,321,,79,13,117,18*6A
$GLGSV,2,2,08,80,53,067,,82,25,026,,83,74,029,18,84,41,205,27*6A
$GNGLL,2217.99946,N,11410.77088,E,023339.00,A,A*77
$GNZDA,023339.00,17,05,2021,00,00*72
$GNVTG,159.92,T,,M,1.818,N,3.368,K,A*2B
$GNGGA,023340.00,2217.99977,N,11410.77182,E,1,12,0.94,144.1,M,-1.6,M,,*51
$GNGSA,A,3,08,27,16,04,07,09,01,21,,,,,1.74,0.94,1.46*12
$GNGSA,A,3,83,73,79,84,,,,,,,,,1.74,0.94,1.46*1D
$GPGSV,4,1,14,01,42,170,30,03,00,176,,04,21,196,30,07,56,321,35*70
$GPGSV,4,2,14,08,54,011,39,09,29,233,32,14,03,292,,16,16,077,27*72
$GPGSV,4,3,14,17,05,235,,21,61,133,38,22,07,151,33,26,02,096,*79
$GPGSV,4,4,14,27,24,036,28,30,18,320,22*7B
$GLGSV,2,1,08,71,02,267,,73,38,348,21,74,00,321,,79,13,117,20*60
$GLGSV,2,2,08,80,53,067,,82,25,026,,83,74,029,19,84,41,205,27*6B
$GNGLL,2217.99977,N,11410.77182,E,023340.00,A,A*70
$GNZDA,023340.00,17,05,2021,00,00*7C
$GNVTG,159.88,T,,M,1.798,N,3.329,K,A*22
$GNGGA,023341.00,2218.00021,N,11410.77306,E,1,12,0.94,147.9,M,-1.6,M,,*50
$GNGSA,A,3,08,27,16,04,07,09,01,21,,,,,1.74,0.94,1.46*12
$GNGSA,A,3,83,73,79,84,,,,,,,,,1.74,0.94,1.46*1D
$GPGSV,4,1,14,01,42,170,31,03,00,176,,04,21,196,31,07,56,321,36*73
$GPGSV,4,2,14,08,54,011,39,09,29,233,34,14,03,292,,16,16,077,28*7B
$GPGSV,4,3,14,17,05,235,,21,61,133,39,22,07,151,34,26,02,096,*7F
$GPGSV,4,4,14,27,24,036,29,30,18,320,22*7A
$GLGSV,2,1,08,71,02,267,,73,38,348,21,74,00,321,,79,13,117,22*62
$GLGSV,2,2,08,80,53,067,,82,25,026,,83,74,029,19,84,41,205,26*6A
$GNGLL,2218.00021,N,11410.77306,E,023341.00,A,A*7A
$GNZDA,023341.00,17,05,2021,00,00*7D
$GNVTG,159.87,T,,M,1.776,N,3.289,K,A*26
$GNGGA,023342.00,2218.00093,N,11410.77511,E,1,12,0.98,147.4,M,-1.6,M,,*5B
$GNGSA,A,3,08,27,16,04,07,09,01,21,,,,,1.87,0.98,1.59*1C
$GNGSA,A,3,83,73,79,84,,,,,,,,,1.87,0.98,1.59*13
$GPGSV,4,1,14,01,42,170,33,03,00,176,,04,21,196,34,07,56,321,36*74
$GPGSV,4,2,14,08,54,011,41,09,29,233,37,14,03,292,23,16,16,077,29*77
$GPGSV,4,3,14,17,05,235,,21,61,133,40,22,07,151,36,26,02,096,*73
$GPGSV,4,4,14,27,24,036,30,30,18,320,23*73
$GLGSV,2,1,08,71,02,267,,73,38,348,22,74,00,321,,79,13,117,23*60
$GLGSV,2,2,08,80,53,067,,82,25,026,,83,74,029,20,84,41,205,25*63
$GNGLL,2218.00093,N,11410.77511,E,023342.00,A,A*70
$GNZDA,023342.00,17,05,2021,00,00*7E
$GNVTG,159.88,T,,M,1.756,N,3.251,K,A*2E
$GNGGA,023343.00,2218.00118,N,11410.77632,E,1,12,0.94,147.0,M,-1.6,M,,*52
$GNGSA,A,3,08,27,16,04,07,09,01,21,,,,,1.74,0.94,1.46*12
$GNGSA,A,3,83,73,79,84,,,,,,,,,1.74,0.94,1.46*1D
$GPGSV,4,1,14,01,42,170,32,03,00,176,,04,21,196,32,07,56,321,37*72
$GPGSV,4,2,14,08,54,011,41,09,29,233,36,14,03,292,21,16,16,077,29*74
$GPGSV,4,3,14,17,05,235,,21,61,133,40,22,07,151,35,26,02,096,*70
$GPGSV,4,4,14,27,24,036,30,30,18,320,24*74
$GLGSV,2,1,08,71,02,267,,73,38,348,23,74,00,321,,79,13,117,23*61
$GLGSV,2,2,08,80,53,067,,82,25,026,,83,74,029,20,84,41,205,25*63
$GNGLL,2218.00118,N,11410.77632,E,023343.00,A,A*71
$GNZDA,023343.00,17,05,2021,00,00*7F
$GNVTG,159.90,T,,M,1.735,N,3.213,K,A*24
$GNGGA,023344.00,2218.00123,N,11410.77714,E,1,12,0.94,146.5,M,-1.6,M,,*5C
$GNGSA,A,3,08,27,16,04,07,09,01,21,,,,,1.74,0.94,1.46*12
$GNGSA,A,3,83,73,79,84,,,,,,,,,1.74,0.94,1.46*1D
$GPGSV,4,1,14,01,42,170,32,03,00,176,,04,21,196,32,07,56,321,37*72
$GPGSV,4,2,14,08,54,011,41,09,29,233,35,14,03,292,19,16,16,077,29*7C
$GPGSV,4,3,14,17,05,235,,21,61,133,40,22,07,151,35,26,02,096,*70
$GPGSV,4,4,14,27,24,036,31,30,18,320,24*75
$GLGSV,2,1,08,71,02,267,,73,38,348,24,74,00,321,,79,13,117,24*61
$GLGSV,2,2,08,80,53,067,,82,25,026,17,83,74,029,19,84,41,205,25*6F
$GNGLL,2218.00123,N,11410.77714,E,023344.00,A,A*7B
$GNZDA,023344.00,17,05,2021,00,00*78
$GNVTG,159.92,T,,M,1.716,N,3.177,K,A*26
$GNGGA,023345.00,2218.00125,N,11410.77807,E,1,12,0.98,145.4,M,-1.6,M,,*58
$GNGSA,A,3,08,27,16,04,07,09,01,21,,,,,1.87,0.98,1.59*1C
$GNGSA,A,3,83,73,79,84,,,,,,,,,1.87,0.98,1.59*13
$GPGSV,4,1,14,01,42,170,31,03,00,176,,04,21,196,32,07,56,321,37*71
$GPGSV,4,2,14,08,54,011,41,09,29,233,35,14,03,292,17,16,16,077,29*72
$GPGSV,4,3,14,17,05,235,,21,61,133,39,22,07,151,35,26,02,096,*7E
$GPGSV,4,4,14,27,24,036,31,30,18,320,25*74
$GLGSV,2,1,08,71,02,267,,73,38,348,24,74,00,321,,79,13,117,25*60
$GLGSV,2,2,08,80,53,067,,82,25,026,18,83,74,029,19,84,41,205,25*60
$GNGLL,2218.00125,N,11410.77807,E,023345.00,A,A*71
$GNZDA,023345.00,17,05,2021,00,00*79
$GNVTG,159.94,T,,M,1.697,N,3.143,K,A*2F
$GNGGA,023346.00,2218.00113,N,11410.77858,E,1,12,0.94,145.2,M,-1.6,M,,*5E
$GNGSA,A,3,08,27,16,04,07,09,01,21,,,,,1.74,0.94,1.46*12
$GNGSA,A,3,83,73,79,84,,,,,,,,,1.74,0.94,1.46*1D
$GPGSV,4,1,14,01,42,170,30,03,00,176,,04,21,196,32,07,56,321,37*70
$GPGSV,4,2,14,08,54,011,41,09,29,233,34,14,03,292,14,16,16,077,29*70
$GPGSV,4,3,14,17,05,235,,21,61,133,39,22,07,151,35,26,02,096,*7E
$GPGSV,4,4,14,27,24,036,31,30,18,320,25*74
$GLGSV,2,1,08,71,02,267,,73,38,348,25,74,00,321,,79,13,117,26*62
$GLGSV,2,2,08,80,53,067,,82,25,026,19,83,74,029,20,84,41,205,26*68
$GNGLL,2218.00113,N,11410.77858,E,023346.00,A,A*7D
$GNZDA,023346.00,17,05,2021,00,00*7A
$GNVTG,159.96,T,,M,1.679,N,3.110,K,A*2B
$GNGGA,023347.00,2218.00090,N,11410.77882,E,1,12,0.92,145.0,M,-1.6,M,,*56
$GNGSA,A,3,08,27,16,04,07,09,01,21,,,,,1.67,0.92,1.39*1E
$GNGSA,A,3,83,73,79,82,84,,,,,,,,1.67,0.92,1.39*1B
$GPGSV,4,1,14,01,42,170,29,03,00,176,,04,21,196,32,07,56,321,37*78
$GPGSV,4,2,14,08,54,011,41,09,29,233,32,14,03,292,14,16,16,077,29*76
$GPGSV,4,3,14,17,05,235,,21,61,133,39,22,07,151,35,26,02,096,*7E
$GPGSV,4,4,14,27,24,036,31,30,18,320,25*74
$GLGSV,2,1,08,71,02,267,,73,38,348,26,74,00,321,,79,13,117,27*60
$GLGSV,2,2,08,80,53,067,,82,25,026,19,83,74,029,20,84,41,205,26*68
$GNGLL,2218.00090,N,11410.77882,E,023347.00,A,A*71
$GNZDA,023347.00,17,05,2021,00,00*7B
$GNVTG,160.01,T,,M,1.661,N,3.076,K,A*27
$GNGGA,023348.00,2218.00073,N,11410.77970,E,1,12,0.91,141.0,M,-1.6,M,,*5F
$GNGSA,A,3,08,27,16,04,07,09,01,21,,,,,1.69,0.91,1.43*1E
$GNGSA,A,3,83,73,79,82,84,,,,,,,,1.69,0.91,1.43*1B
$GPGSV,4,1,14,01,42,170,28,03,00,176,,04,21,196,32,07,56,321,37*79
$GPGSV,4,2,14,08,54,011,40,09,29,233,30,14,03,292,14,16,16,077,28*74
$GPGSV,4,3,14,17,05,235,,21,61,133,39,22,07,151,35,26,02,096,*7E
$GPGSV,4,4,14,27,24,036,31,30,18,320,25*74
$GLGSV,2,1,08,71,02,267,,73,38,348,27,74,00,321,,79,13,117,29*6F
$GLGSV,2,2,08,80,53,067,,82,25,026,20,83,74,029,21,84,41,205,27*62
$GNGLL,2218.00073,N,11410.77970,E,023348.00,A,A*7F
$GNZDA,023348.00,17,05,2021,00,00*74
$GNVTG,160.07,T,,M,1.643,N,3.044,K,A*20
$GNGGA,023349.00,2218.00034,N,11410.77959,E,1,12,1.05,140.5,M,-1.6,M,,*5E
$GNGSA,A,3,08,27,16,04,07,09,01,21,,,,,1.83,1.05,1.50*14
$GNGSA,A,3,83,73,79,82,84,,,,,,,,1.83,1.05,1.50*11
$GPGSV,4,1,14,01,42,170,28,03,00,176,,04,21,196,32,07,56,321,37*79
$GPGSV,4,2,14,08,54,011,40,09,29,233,29,14,03,292,13,16,16,077,28*7B
$GPGSV,4,3,14,17,05,235,,21,61,133,39,22,07,151,35,26,02,096,*7E
$GPGSV,4,4,14,27,24,036,32,30,18,320,25*77
$GLGSV,2,1,08,71,02,267,,73,38,348,27,74,00,321,,79,13,117,29*6F
$GLGSV,2,2,08,80,53,067,,82,25,026,20,83,74,029,20,84,41,205,27*63
$GNGLL,2218.00034,N,11410.77959,E,023349.00,A,A*76
$GNZDA,023349.00,17,05,2021,00,00*75
$GNVTG,160.14,T,,M,1.627,N,3.014,K,A*25
$GNGGA,023350.00,2217.99996,N,11410.78015,E,1,12,0.87,137.6,M,-1.6,M,,*5E
$GNGSA,A,3,08,27,16,04,07,09,01,21,,,,,1.65,0.87,1.40*16
$GNGSA,A,3,83,73,79,82,84,,,,,,,,1.65,0.87,1.40*13
$GPGSV,4,1,14,01,42,170,27,03,00,176,,04,21,196,31,07,56,321,34*76
$GPGSV,4,2,14,08,54,011,38,09,29,233,27,14,03,292,13,16,16,077,27*75
$GPGSV,4,3,14,17,05,235,,21,61,133,37,22,07,151,34,26,02,096,*71
$GPGSV,4,4,14,27,24,036,31,30,18,320,25*74
$GLGSV,2,1,08,71,02,267,,73,38,348,27,74,00,321,,79,13,117,30*67
$GLGSV,2,2,08,80,53,067,17,82,25,026,21,83,74,029,21,84,41,205,27*65
$GNGLL,2217.99996,N,11410.78015,E,023350.00,A,A*7E
$GNZDA,023350.00,17,05,2021,00,00*7D
$GNVTG,160.21,T,,M,1.611,N,2.984,K,A*27
$GNGGA,023351.00,2217.99967,N,11410.78083,E,1,12,0.86,134.5,M,-1.6,M,,*5F
$GNGSA,A,3,08,27,16,04,07,09,01,21,,,,,1.63,0.86,1.38*1E
$GNGSA,A,3,83,73,79,82,84,,,,,,,,1.63,0.86,1.38*1B
$GPGSV,4,1,14,01,42,170,26,03,00,176,,04,21,196,31,07,56,321,35*76
$GPGSV,4,2,14,08,54,011,38,09,29,233,26,14,03,292,10,16,16,077,26*76
$GPGSV,4,3,14,17,05,235,,21,61,133,37,22,07,151,34,26,02,096,*71
$GPGSV,4,4,14,27,24,036,30,30,18,320,24*74
$GLGSV,2,1,08,71,02,267,,73,38,348,26,74,00,321,,79,13,117,30*66
$GLGSV,2,2,08,80,53,067,,82,25,026,21,83,74,029,20,84,41,205,27*62
$GNGLL,2217.99967,N,11410.78083,E,023351.00,A,A*7E
$GNZDA,023351.00,17,05,2021,00,00*7C
$GNVTG,160.30,T,,M,1.592,N,2.949,K,A*2E
$GNGGA,023352.00,2217.99940,N,11410.78121,E,1,12,0.98,131.1,M,-1.6,M,,*5E
$GNGSA,A,3,08,27,16,04,07,09,01,21,,,,,1.76,0.98,1.46*1C
$GNGSA,A,3,83,73,79,82,84,,,,,,,,1.76,0.98,1.46*19
$GPGSV,4,1,14,01,42,170,26,03,00,176,,04,21,196,34,07,56,321,35*73
$GPGSV,4,2,14,08,54,011,40,09,29,233,26,14,03,292,10,16,16,077,25*7A
$GPGSV,4,3,14,17,05,235,,21,61,133,39,22,07,151,34,26,02,096,*7F
$GPGSV,4,4,14,27,24,036,31,30,18,320,25*74
$GLGSV,2,1,08,71,02,267,,73,38,348,26,74,00,321,,79,13,117,30*66
$GLGSV,2,2,08,80,53,067,,82,25,026,20,83,74,029,20,84,41,205,28*6C
$GNGLL,2217.99940,N,11410.78121,E,023352.00,A,A*71
$GNZDA,023352.00,17,05,2021,00,00*7F
$GNVTG,160.42,T,,M,1.572,N,2.911,K,A*28
$GNGGA,023353.00,2217.99928,N,11410.78166,E,1,12,1.00,127.6,M,-1.6,M,,*52
$GNGSA,A,3,08,27,16,04,07,09,01,21,,,,,1.79,1.00,1.49*1C
$GNGSA,A,3,83,73,79,82,84,,,,,,,,1.79,1.00,1.49*19
$GPGSV,4,1,14,01,42,170,27,03,00,176,,04,21,196,33,07,56,321,36*76
$GPGSV,4,2,14,08,54,011,40,09,29,233,32,14,03,292,10,16,16,077,25*7F
$GPGSV,4,3,14,17,05,235,,21,61,133,40,22,07,151,36,26,02,096,*73
$GPGSV,4,4,14,27,24,036,32,30,18,320,26*74
$GLGSV,2,1,08,71,02,267,,73,39,349,25,74,00,321,,79,13,117,30*65
$GLGSV,2,2,08,80,53,067,,82,25,026,20,83,74,029,20,84,41,205,28*6C
$GNGLL,2217.99928,N,11410.78166,E,023353.00,A,A*7D
$GNZDA,023353.00,17,05,2021,00,00*7E
$GNRMC,023354.00,A,2217.99903,N,11410.78218,E,1.559,160.51,170521,,,A*75
$GNVTG,160.51,T,,M,1.559,N,2.888,K,A*22
$GNGGA,023354.00,2217.99903,N,11410.78218,E,1,12,0.87,125.5,M,-1.6,M,,*59
$GNGSA,A,3,08,27,16,04,07,09,01,21,,,,,1.65,0.87,1.40*16
$GNGSA,A,3,83,73,79,82,84,,,,,,,,1.65,0.87,1.40*13
$GPGSV,4,1,14,01,42,170,27,03,00,176,,04,21,196,30,07,56,321,34*77
$GPGSV,4,2,14,08,54,011,37,09,29,233,30,14,03,292,10,16,16,077,24*7C
$GPGSV,4,3,14,17,05,235,,21,61,133,38,22,07,151,35,26,02,096,*7F
$GPGSV,4,4,14,27,24,036,31,30,18,320,25*74
$GLGSV,2,1,08,71,02,267,,73,39,349,24,74,00,321,,79,13,117,30*64
$GLGSV,2,2,08,80,53,067,,82,25,026,18,83,74,029,20,84,41,205,27*68
$GNGLL,2217.99903,N,11410.78218,E,023354.00,A,A*79
$GNZDA,023354.00,17,05,2021,00,00*79
$GNVTG,160.61,T,,M,1.545,N,2.860,K,A*2A
$GNGGA,023355.00,2217.99889,N,11410.78259,E,1,12,1.05,122.9,M,-1.6,M,,*5E
$GNGSA,A,3,08,27,16,04,07,09,22,01,21,,,,1.91,1.05,1.60*14
$GNGSA,A,3,83,73,79,82,84,,,,,,,,1.91,1.05,1.60*11
$GPGSV,4,1,14,01,42,170,27,03,00,176,,04,21,196,31,07,56,321,35*77
$GPGSV,4,2,14,08,54,011,38,09,29,233,30,14,03,292,10,16,16,077,23*74
$GPGSV,4,3,14,17,05,235,,21,61,133,39,22,07,151,35,26,02,096,*7E
$GPGSV,4,4,14,27,24,036,30,30,18,320,26*76
$GLGSV,2,1,08,71,02,267,,73,39,349,22,74,00,321,,79,13,117,30*62
$GLGSV,2,2,08,80,53,067,,82,25,026,17,83,74,029,20,84,41,205,27*67
$GNGLL,2217.99889,N,11410.78259,E,023355.00,A,A*7E
$GNZDA,023355.00,17,05,2021,00,00*78
$GNVTG,160.70,T,,M,1.530,N,2.833,K,A*2E
$GNGGA,023356.00,2217.99874,N,11410.78300,E,1,12,0.87,120.8,M,-1.6,M,,*5A
$GNGSA,A,3,08,27,16,04,07,09,22,01,21,,,,1.65,0.87,1.40*16
$GNGSA,A,3,83,73,79,82,84,,,,,,,,1.65,0.87,1.40*13
$GPGSV,4,1,14,01,42,170,27,03,00,176,,04,21,196,32,07,56,321,35*74
$GPGSV,4,2,14,08,54,011,38,09,29,233,31,14,03,292,11,16,16,077,23*74
$GPGSV,4,3,14,17,05,235,,21,61,133,39,22,07,151,35,26,02,096,*7E
$GPGSV,4,4,14,27,24,036,31,30,18,320,26*77
$GLGSV,2,1,08,71,02,267,,73,39,349,23,74,00,321,,79,13,117,31*62
$GLGSV,2,2,08,80,53,067,,82,25,026,18,83,74,029,19,84,41,205,27*62
$GNGLL,2217.99874,N,11410.78300,E,023356.00,A,A*72
$GNZDA,023356.00,17,05,2021,00,00*7B
$GNVTG,160.80,T,,M,1.517,N,2.809,K,A*2D
$GNGGA,023357.00,2217.99864,N,11410.78347,E,1,12,0.92,118.6,M,-1.6,M,,*58
$GNGSA,A,3,08,27,16,04,07,09,22,01,21,,,,1.74,0.92,1.48*1A
$GNGSA,A,3,83,73,79,82,84,,,,,,,,1.74,0.92,1.48*1F
$GPGSV,4,1,14,01,42,170,26,03,00,176,,04,21,196,32,07,56,321,35*75
$GPGSV,4,2,14,08,54,011,38,09,29,233,32,14,03,292,10,16,16,077,22*77
$GPGSV,4,3,14,17,05,235,,21,61,133,39,22,07,151,35,26,02,096,*7E
$GPGSV,4,4,14,27,24,036,30,30,18,320,26*76
$GLGSV,2,1,08,71,02,267,,73,39,349,23,74,00,321,,79,13,117,31*62
$GLGSV,2,2,08,80,53,067,,82,25,026,18,83,74,029,19,84,41,205,27*62
$GNGLL,2217.99864,N,11410.78347,E,023357.00,A,A*71
$GNZDA,023357.00,17,05,2021,00,00*7A
$GNVTG,160.90,T,,M,1.504,N,2.786,K,A*26
$GNGGA,023358.00,2217.99847,N,11410.78410,E,1,12,0.86,114.6,M,-1.6,M,,*5A
$GNGSA,A,3,08,27,16,04,07,09,22,01,21,,,,1.59,0.86,1.33*1C
$GNGSA,A,3,83,73,79,82,84,,,,,,,,1.59,0.86,1.33*19
$GPGSV,4,1,14,01,42,170,25,03,00,176,,04,21,196,32,07,56,321,35*76
$GPGSV,4,2,14,08,54,011,38,09,29,233,32,14,03,292,11,16,16,077,22*76
$GPGSV,4,3,14,17,05,235,,21,61,133,39,22,07,151,35,26,02,096,*7E
$GPGSV,4,4,14,27,24,036,30,30,18,320,26*76
$GLGSV,2,1,08,71,02,267,,73,39,349,24,74,00,321,,79,13,117,31*65
$GLGSV,2,2,08,80,53,067,,82,25,026,18,83,74,029,19,84,41,205,27*62
$GNGLL,2217.99847,N,11410.78410,E,023358.00,A,A*7A
$GNZDA,023358.00,17,05,2021,00,00*75
$GNVTG,161.00,T,,M,1.491,N,2.761,K,A*2A
$GNGGA,023359.00,2217.99832,N,11410.78441,E,1,12,1.05,112.6,M,-1.6,M,,*51
$GNGSA,A,3,08,27,16,04,07,09,22,01,21,,,,1.91,1.05,1.60*14
$GNGSA,A,3,83,73,79,82,84,,,,,,,,1.91,1.05,1.60*11
$GPGSV,4,1,14,01,42,170,24,03,00,176,,04,21,196,32,07,56,321,35*77
$GPGSV,4,2,14,08,54,011,37,09,29,233,32,14,03,292,11,16,16,077,22*79
$GPGSV,4,3,14,17,05,235,,21,61,133,39,22,07,151,35,26,02,096,*7E
$GPGSV,4,4,14,27,24,036,30,30,18,320,26*76
$GLGSV,2,1,08,71,02,267,,73,39,349,24,74,00,321,,79,12,118,31*6B
$GLGSV,2,2,08,80,53,067,,82,25,026,18,83,74,029,19,84,41,205,27*62
$GNGLL,2217.99832,N,11410.78441,E,023359.00,A,A*7D
$GNZDA,023359.00,17,05,2021,00,00*74
$GNVTG,161.08,T,,M,1.483,N,2.747,K,A*25
$GNGGA,023400.00,2217.99799,N,11410.78488,E,1,12,0.91,110.1,M,-1.6,M,,*58
$GNGSA,A,3,08,27,16,04,07,09,22,01,21,,,,1.67,0.91,1.40*13
$GNGSA,A,3,83,73,79,82,84,,,,,,,,1.67,0.91,1.40*16
$GPGSV,4,1,14,01,42,170,21,03,00,176,,04,21,196,30,07,56,321,33*76
$GPGSV,4,2,14,08,54,011,34,09,29,233,30,14,03,292,09,16,16,077,21*72
$GPGSV,4,3,14,17,05,235,,21,61,133,37,22,07,151,33,26,02,096,*76
$GPGSV,4,4,14,27,24,036,29,30,18,320,25*7D
$GLGSV,2,1,08,71,02,267,,73,39,349,24,74,00,321,,79,12,118,30*6A
$GLGSV,2,2,08,80,53,068,,82,25,026,18,83,74,029,19,84,41,205,27*6D
$GNGLL,2217.99799,N,11410.78488,E,023400.00,A,A*7D
$GNZDA,023400.00,17,05,2021,00,00*7F
$GNVTG,161.13,T,,M,1.474,N,2.731,K,A*26
$GNGGA,023401.00,2217.99773,N,11410.78523,E,1,12,0.98,109.0,M,-1.6,M,,*5D
$GNGSA,A,3,08,27,16,04,07,09,22,01,21,,,,1.84,0.98,1.56*10
$GNGSA,A,3,83,73,79,82,84,,,,,,,,1.84,0.98,1.56*15
$GPGSV,4,1,14,01,42,170,19,03,00,176,,04,21,196,30,07,56,321,33*7D
$GPGSV,4,2,14,08,54,011,34,09,29,233,29,14,03,292,08,16,16,077,19*70
$GPGSV,4,3,14,17,05,235,,21,61,133,37,22,07,151,33,26,02,096,*76
$GPGSV,4,4,14,27,24,036,29,30,18,320,25*7D
$GLGSV,2,1,08,71,02,267,,73,39,349,24,74,00,321,,79,12,118,30*6A
$GLGSV,2,2,08,80,53,068,,82,25,026,19,83,74,029,19,84,41,205,28*63
$GNGLL,2217.99773,N,11410.78523,E,023401.00,A,A*78
$GNZDA,023401.00,17,05,2021,00,00*7E
$GNVTG,161.18,T,,M,1.466,N,2.715,K,A*28
$GNGGA,023402.00,2217.99741,N,11410.78547,E,1,12,0.96,107.9,M,-1.6,M,,*54
$GNGSA,A,3,08,27,16,04,07,09,22,01,21,,,,1.71,0.96,1.41*12
$GNGSA,A,3,83,73,79,82,84,,,,,,,,1.71,0.96,1.41*17
$GPGSV,4,1,14,01,42,170,16,03,00,176,,04,21,196,30,07,56,321,33*72
$GPGSV,4,2,14,08,54,011,35,09,29,233,29,14,03,292,08,16,16,077,20*7B
$GPGSV,4,3,14,17,05,235,,21,61,133,37,22,07,151,34,26,02,096,*71
$GPGSV,4,4,14,27,24,036,29,30,18,320,25*7D
$GLGSV,2,1,08,71,02,267,,73,39,349,24,74,00,321,,79,12,118,29*62
$GLGSV,2,2,08,80,53,068,,82,24,026,20,83,74,029,19,84,41,205,28*68
$GNGLL,2217.99741,N,11410.78547,E,023402.00,A,A*78
$GNZDA,023402.00,17,05,2021,00,00*7D
$GNVTG,161.23,T,,M,1.457,N,2.699,K,A*27
$GNGGA,023403.00,2217.99710,N,11410.78552,E,1,12,1.01,108.4,M,-1.6,M,,*58
$GNGSA,A,3,08,27,16,04,07,09,22,01,21,,,,1.81,1.01,1.49*1A
$GNGSA,A,3,83,73,79,82,84,,,,,,,,1.81,1.01,1.49*1F
$GPGSV,4,1,14,01,42,170,15,03,00,176,,04,21,196,31,07,56,321,33*70
$GPGSV,4,2,14,08,54,011,34,09,29,233,28,14,03,292,08,16,16,077,19*71
$GPGSV,4,3,14,17,05,235,,21,61,133,37,22,07,151,34,26,02,096,*71
$GPGSV,4,4,14,27,24,036,29,30,18,320,24*7C
$GLGSV,2,1,08,71,02,267,,73,39,349,25,74,00,321,,79,12,118,29*63
$GLGSV,2,2,08,80,53,068,,82,24,026,20,83,73,028,19,84,41,205,29*6F
$GNGLL,2217.99710,N,11410.78552,E,023403.00,A,A*79
$GNZDA,023403.00,17,05,2021,00,00*7C
$œA??
$GNRMC,023404.00,A,2217.99683,N,11410.78579,E,1.449,161.26,170521,,,A*71
$GNVTG,161.26,T,,M,1.449,N,2.683,K,A*26
$GNGGA,023404.00,2217.99683,N,11410.78579,E,1,12,1.01,107.2,M,-1.6,M,,*54
$GNGSA,A,3,08,27,16,04,07,09,22,01,21,,,,1.82,1.01,1.52*13
$GNGSA,A,3,83,73,79,82,84,,,,,,,,1.82,1.01,1.52*16
$GPGSV,4,1,14,01,42,170,13,03,00,176,,04,21,196,31,07,56,321,34*71
$GPGSV,4,2,14,08,54,011,34,09,29,233,26,14,03,292,,16,16,077,19*77
$GPGSV,4,3,14,17,05,235,,21,61,133,37,22,07,151,34,26,02,096,*71
$GPGSV,4,4,14,27,24,036,29,30,18,320,24*7C
$GLGSV,2,1,08,71,02,267,,73,39,349,25,74,00,321,,79,12,118,29*63
$GLGSV,2,2,08,80,53,068,,82,24,026,21,83,73,028,18,84,41,205,29*6F
$GNGLL,2217.99683,N,11410.78579,E,023404.00,A,A*7C
$GNZDA,023404.00,17,05,2021,00,00*7B
$GNVTG,161.39,T,,M,1.431,N,2.650,K,A*29
$GNGGA,023405.00,2217.99671,N,11410.78582,E,1,12,1.10,103.2,M,-1.6,M,,*58
$GNGSA,A,3,08,27,16,04,07,09,22,21,,,,,1.85,1.10,1.49*1F
$GNGSA,A,3,83,73,79,82,84,,,,,,,,1.85,1.10,1.49*1B
$GPGSV,4,1,14,01,42,170,,03,00,176,,04,21,196,31,07,56,321,38*7F
$GPGSV,4,2,14,08,54,011,37,09,29,233,25,14,03,292,19,16,16,077,29*7C
$GPGSV,4,3,14,17,05,235,,21,61,133,41,22,07,151,37,26,02,096,20*71
$GPGSV,4,4,14,27,24,036,31,30,18,320,25*74
$GLGSV,2,1,08,71,02,267,,73,39,349,25,74,00,321,,79,12,118,30*6B
$GLGSV,2,2,08,80,53,068,,82,24,026,21,83,73,028,19,84,41,205,29*6E
$GNGLL,2217.99671,N,11410.78582,E,023405.00,A,A*74
$GNZDA,023405.00,17,05,2021,00,00*7A
$GNVTG,161.46,T,,M,1.428,N,2.645,K,A*2D
$GNGGA,023406.00,2217.99636,N,11410.78614,E,1,12,1.09,101.3,M,-1.6,M,,*5F
$GNGSA,A,3,08,27,16,04,07,09,22,21,,,,,1.91,1.09,1.58*12
$GNGSA,A,3,83,73,79,82,84,,,,,,,,1.91,1.09,1.58*16
$GPGSV,4,1,14,01,42,170,26,03,00,176,,04,21,196,23,07,56,321,34*74
$GPGSV,4,2,14,08,54,011,32,09,29,233,24,14,03,292,16,16,16,077,21*7F
$GPGSV,4,3,14,17,05,235,16,21,61,133,35,22,07,151,32,26,02,096,16*75
$GPGSV,4,4,14,27,24,036,22,30,18,320,22*71
$GLGSV,2,1,08,71,02,267,,73,39,349,25,74,00,321,,79,12,118,20*6A
$GLGSV,2,2,08,80,53,068,,82,24,026,20,83,73,028,18,84,41,205,27*60
$GNGLL,2217.99636,N,11410.78614,E,023406.00,A,A*78
$GNZDA,023406.00,17,05,2021,00,00*79
$GNVTG,161.51,T,,M,1.425,N,2.639,K,A*2D
$GNGGA,023407.00,2217.99614,N,11410.78609,E,1,12,0.94,101.9,M,-1.6,M,,*5D
$GNGSA,A,3,08,27,16,04,07,09,22,01,21,,,,1.74,0.94,1.46*12
$GNGSA,A,3,83,73,79,82,84,,,,,,,,1.74,0.94,1.46*17
$GPGSV,4,1,14,01,42,170,26,03,00,176,,04,21,196,23,07,56,321,37*77
$GPGSV,4,2,14,08,54,011,35,09,29,233,25,14,03,292,14,16,16,077,20*7A
$GPGSV,4,3,14,17,05,235,14,21,61,133,38,22,07,151,33,26,02,096,13*7E
$GPGSV,4,4,14,27,24,036,22,30,18,320,20*73
$GLGSV,2,1,08,71,02,267,,73,39,349,25,74,00,321,,79,12,118,21*6B
$GLGSV,2,2,08,80,53,068,,82,24,026,20,83,73,028,17,84,41,205,27*6F
$GNGLL,2217.99614,N,11410.78609,E,023407.00,A,A*75
$GNZDA,023407.00,17,05,2021,00,00*78
$GNVTG,161.47,T,,M,1.429,N,2.646,K,A*2E
$GNGGA,023408.00,2217.99587,N,11410.78637,E,1,12,0.95,101.5,M,-1.6,M,,*5B
$GNGSA,A,3,08,27,16,04,07,09,22,01,21,,,,1.72,0.95,1.43*10
$GNGSA,A,3,83,73,79,82,84,,,,,,,,1.72,0.95,1.43*15
$GPGSV,4,1,14,01,42,170,26,03,00,176,,04,21,196,23,07,56,321,35*75
$GPGSV,4,2,14,08,54,011,36,09,29,233,25,14,03,292,12,16,16,077,20*7F
$GPGSV,4,3,14,17,05,235,11,21,61,133,35,22,07,151,31,26,02,096,13*74
$GPGSV,4,4,14,27,24,036,23,30,18,320,19*78
$GLGSV,2,1,08,71,02,267,,73,39,349,22,74,00,321,,79,12,118,22*6F
$GLGSV,2,2,08,80,53,068,,82,24,026,19,83,73,028,15,84,41,205,27*67
$GNGLL,2217.99587,N,11410.78637,E,023408.00,A,A*7E
$GNZDA,023408.00,17,05,2021,00,00*77
$GNVTG,161.36,T,,M,1.436,N,2.659,K,A*28
$GNGGA,023409.00,2217.99553,N,11410.78673,E,1,12,0.95,101.1,M,-1.6,M,,*57
$GNGSA,A,3,08,27,16,04,07,09,22,01,21,,,,1.72,0.95,1.43*10
$GNGSA,A,3,83,73,79,82,84,,,,,,,,1.72,0.95,1.43*15
$GPGSV,4,1,14,01,43,169,30,03,00,176,,04,21,196,24,07,56,321,35*7C
$GPGSV,4,2,14,08,54,011,27,09,29,233,31,14,03,292,09,16,16,077,20*70
$GPGSV,4,3,14,17,05,235,08,21,61,133,35,22,07,151,30,26,02,096,10*7E
$GPGSV,4,4,14,27,24,036,22,30,18,320,18*78
$GLGSV,2,1,08,71,02,267,,73,39,349,22,74,00,321,,79,12,118,23*6E
$GLGSV,2,2,08,80,53,068,,82,24,026,20,83,73,028,13,84,41,205,27*6B
$GNGLL,2217.99553,N,11410.78673,E,023409.00,A,A*76
$GNZDA,023409.00,17,05,2021,00,00*76
$GNVTG,161.27,T,,M,1.439,N,2.665,K,A*28
$GNGGA,023410.00,2217.99513,N,11410.78680,E,1,12,0.99,101.0,M,-1.6,M,,*5A
$GNGSA,A,3,08,27,16,04,07,09,22,01,21,,,,1.78,0.99,1.48*1D
$GNGSA,A,3,83,73,79,82,84,,,,,,,,1.78,0.99,1.48*18
$GPGSV,4,1,14,01,43,169,29,03,00,176,,04,21,196,23,07,56,321,35*73
$GPGSV,4,2,14,08,54,011,26,09,29,233,34,14,03,292,08,16,16,077,22*77
$GPGSV,4,3,14,17,05,235,07,21,61,133,35,22,07,151,23,26,02,096,08*7A
$GPGSV,4,4,14,27,24,036,19,30,18,320,18*70
$GLGSV,2,1,08,71,02,267,,73,39,349,23,74,00,321,,79,12,118,22*6E
$GLGSV,2,2,08,80,53,068,,82,24,026,21,83,73,028,11,84,41,205,28*67
$GNGLL,2217.99513,N,11410.78680,E,023410.00,A,A*76
$GNZDA,023410.00,17,05,2021,00,00*7E
$GNVTG,161.23,T,,M,1.437,N,2.662,K,A*25
$GNGGA,023411.00,2217.99476,N,11410.78675,E,1,12,1.03,100.9,M,-1.6,M,,*59
$GNGSA,A,3,08,27,16,04,07,09,22,01,21,,,,2.24,1.03,1.99*19
$GNGSA,A,3,73,79,82,84,,,,,,,,,2.24,1.03,1.99*17
$GPGSV,4,1,14,01,43,169,28,03,00,176,,04,21,196,23,07,56,321,37*70
$GPGSV,4,2,14,08,54,011,25,09,29,233,34,14,03,292,08,16,16,077,31*76
$GPGSV,4,3,14,17,05,235,07,21,61,133,36,22,07,151,21,26,02,096,09*7A
$GPGSV,4,4,14,27,24,036,19,30,18,320,18*70
$GLGSV,2,1,08,71,02,267,,73,39,349,25,74,00,321,,79,12,118,22*68
$GLGSV,2,2,08,80,53,068,,82,24,026,21,83,73,028,09,84,41,205,27*61
$GNGLL,2217.99476,N,11410.78675,E,023411.00,A,A*7F
$GNZDA,023411.00,17,05,2021,00,00*7F
$GNVTG,161.35,T,,M,1.422,N,2.634,K,A*25
$GNGGA,023412.00,2217.99458,N,11410.78649,E,1,12,1.03,99.0,M,-1.6,M,,*61
$GNGSA,A,3,08,27,16,04,07,09,22,01,21,,,,2.24,1.03,1.99*19
$GNGSA,A,3,73,79,82,84,,,,,,,,,2.24,1.03,1.99*17
$GPGSV,4,1,14,01,43,169,28,03,00,176,,04,20,196,30,07,56,321,39*7D
$GPGSV,4,2,14,08,54,011,24,09,29,233,34,14,03,292,09,16,16,077,36*71
$GPGSV,4,3,14,17,05,235,08,21,61,133,40,22,07,151,22,26,02,096,12*7D
$GPGSV,4,4,14,27,24,036,27,30,18,320,29*7F
$GLGSV,2,1,08,71,02,267,,73,39,349,25,74,00,321,,79,12,118,22*68
$GLGSV,2,2,08,80,53,068,,82,24,026,22,83,73,028,08,84,41,205,27*63
$GNGLL,2217.99458,N,11410.78649,E,023412.00,A,A*7F
$GNZDA,023412.00,17,05,2021,00,00*7C
$GNVTG,161.54,T,,M,1.407,N,2.606,K,A*24
$GNGGA,023413.00,2217.99438,N,11410.78630,E,1,12,1.03,97.5,M,-1.6,M,,*63
$GNGSA,A,3,08,27,16,04,07,09,22,01,21,,,,2.24,1.03,1.99*19
$GNGSA,A,3,73,79,82,84,,,,,,,,,2.24,1.03,1.99*17
$GPGSV,4,1,14,01,43,169,27,03,00,176,,04,20,196,30,07,56,321,39*72
$GPGSV,4,2,14,08,54,011,25,09,29,233,34,14,03,292,10,16,16,077,35*7B
$GPGSV,4,3,14,17,05,235,07,21,61,133,39,22,07,151,21,26,02,096,14*79
$GPGSV,4,4,14,27,24,036,24,30,18,320,27*72
$GLGSV,2,1,08,71,02,267,,73,39,349,26,74,00,321,,79,12,118,22*6B
$GLGSV,2,2,08,80,53,068,,82,24,026,22,83,73,028,09,84,41,205,25*60
$GNGLL,2217.99438,N,11410.78630,E,023413.00,A,A*76
$GNZDA,023413.00,17,05,2021,00,00*7D
$GNVTG,161.83,T,,M,1.395,N,2.583,K,A*2C
$GNGGA,023414.00,2217.99389,N,11410.78548,E,1,12,1.03,95.3,M,-1.6,M,,*61
$GNGSA,A,3,08,27,16,04,07,09,22,01,21,,,,2.24,1.03,1.99*19
$GNGSA,A,3,73,79,82,84,,,,,,,,,2.24,1.03,1.99*17
$GPGSV,4,1,14,01,43,169,28,03,00,176,,04,20,196,24,07,56,321,39*78
$GPGSV,4,2,14,08,54,011,33,09,29,233,41,14,03,292,09,16,16,077,33*70
$GPGSV,4,3,14,17,05,235,08,21,61,133,39,22,07,151,22,26,02,096,12*73
$GPGSV,4,4,14,27,24,036,23,30,18,320,26*74
$GLGSV,2,1,08,71,02,267,,73,39,349,27,74,00,321,,79,12,118,23*6B
$GLGSV,2,2,08,80,53,068,,82,24,026,23,83,73,028,08,84,41,205,26*63
$GNGLL,2217.99389,N,11410.78548,E,023414.00,A,A*70
$GNZDA,023414.00,17,05,2021,00,00*7A
$GNVTG,162.08,T,,M,1.390,N,2.575,K,A*20
$GNGGA,023415.00,2217.99351,N,11410.78523,E,1,12,0.99,94.0,M,-1.6,M,,*68
$GNGSA,A,3,08,27,16,04,07,09,22,01,21,,,,1.78,0.99,1.48*1D
$GNGSA,A,3,83,73,79,82,84,,,,,,,,1.78,0.99,1.48*18
$GPGSV,4,1,14,01,43,169,21,03,00,176,,04,20,196,23,07,57,320,39*76
$GPGSV,4,2,14,08,54,011,28,09,29,233,36,14,03,292,,16,16,077,25*74
$GPGSV,4,3,14,17,05,235,08,21,61,133,40,22,07,151,28,26,02,096,11*74
$GPGSV,4,4,14,27,24,036,21,30,18,320,25*75
$GLGSV,2,1,08,71,02,267,,73,39,349,15,74,00,321,,79,12,118,22*6B
$GLGSV,2,2,08,80,53,068,,82,24,026,22,83,73,028,11,84,41,205,25*69
$GNGLL,2217.99351,N,11410.78523,E,023415.00,A,A*79
$GNZDA,023415.00,17,05,2021,00,00*7B
$GNVTG,162.29,T,,M,1.395,N,2.584,K,A*28
$GNGGA,023416.00,2217.99301,N,11410.78495,E,1,12,1.02,93.0,M,-1.6,M,,*66
$GNGSA,A,3,08,27,16,04,07,09,22,01,21,,,,2.01,1.02,1.74*1C
$GNGSA,A,3,83,73,79,82,84,,,,,,,,2.01,1.02,1.74*19
$GPGSV,4,1,14,01,43,169,22,03,00,176,,04,20,196,22,07,57,320,39*74
$GPGSV,4,2,14,08,54,012,27,09,29,233,39,14,03,292,,16,16,077,30*73
$GPGSV,4,3,14,17,05,235,09,21,61,133,38,22,07,151,25,26,02,096,09*7E
$GPGSV,4,4,14,27,24,036,20,30,18,320,24*75
$GLGSV,2,1,08,71,02,267,,73,39,349,20,74,00,321,,79,12,118,23*6C
$GLGSV,2,2,08,80,53,068,,82,24,026,21,83,73,028,11,84,41,205,25*6A
$GNGLL,2217.99301,N,11410.78495,E,023416.00,A,A*73
$GNZDA,023416.00,17,05,2021,00,00*78
$GNVTG,162.24,T,,M,1.406,N,2.604,K,A*23
$GNGGA,023417.00,2217.99266,N,11410.78533,E,1,12,0.91,91.8,M,-1.6,M,,*6B
$GNGSA,A,3,08,27,16,04,07,09,22,01,21,,,,1.67,0.91,1.40*13
$GNGSA,A,3,83,73,79,82,84,,,,,,,,1.67,0.91,1.40*16
$GPGSV,4,1,14,01,43,169,23,03,00,176,,04,20,196,21,07,57,320,39*76
$GPGSV,4,2,14,08,54,012,25,09,29,232,37,14,03,292,,16,16,077,30*7E
$GPGSV,4,3,14,17,05,235,08,21,61,133,38,22,07,151,26,26,02,096,10*74
$GPGSV,4,4,14,27,24,036,19,30,18,320,22*79
$GLGSV,2,1,08,71,02,267,,73,39,349,21,74,00,321,,79,12,118,31*6E
$GLGSV,2,2,08,80,53,068,,82,24,026,20,83,73,028,13,84,41,205,23*6F
$GNGLL,2217.99266,N,11410.78533,E,023417.00,A,A*7F
$GNZDA,023417.00,17,05,2021,00,00*79
$GNVTG,162.25,T,,M,1.412,N,2.615,K,A*27
$GNGGA,023418.00,2217.99221,N,11410.78546,E,1,12,0.91,91.4,M,-1.6,M,,*69
$GNGSA,A,3,08,27,16,04,07,09,22,01,21,,,,1.62,0.91,1.34*15
$GNGSA,A,3,83,73,79,82,84,,,,,,,,1.62,0.91,1.34*10
$GPGSV,4,1,14,01,43,169,25,03,00,176,,04,20,196,20,07,57,320,36*7E
$GPGSV,4,2,14,08,54,012,24,09,29,232,31,14,03,292,,16,16,077,24*7C
$GPGSV,4,3,14,17,05,235,,21,61,133,33,22,07,151,28,26,02,096,11*78
$GPGSV,4,4,14,27,24,036,18,30,18,320,22*78
$GLGSV,2,1,08,71,02,267,,73,39,349,20,74,00,321,,79,12,118,35*6B
$GLGSV,2,2,08,80,53,068,,82,24,026,21,83,73,028,18,84,41,205,29*6F
$GNGLL,2217.99221,N,11410.78546,E,023418.00,A,A*71
$GNZDA,023418.00,17,05,2021,00,00*76
$GNVTG,162.27,T,,M,1.413,N,2.617,K,A*26
$GNGGA,023419.00,2217.99184,N,11410.78567,E,1,12,0.86,91.3,M,-1.6,M,,*66
$GNGSA,A,3,08,27,16,04,07,09,22,01,21,,,,1.58,0.86,1.33*1D
$GNGSA,A,3,83,73,79,82,84,,,,,,,,1.58,0.86,1.33*18
$GPGSV,4,1,14,01,43,169,25,03,00,176,,04,20,196,18,07,57,320,37*74
$GPGSV,4,2,14,08,54,012,22,09,29,232,24,14,03,292,,16,16,077,23*79
$GPGSV,4,3,14,17,05,235,,21,61,133,31,22,07,151,15,26,02,096,*74
$GPGSV,4,4,14,27,24,036,16,30,18,320,22*76
$GLGSV,2,1,08,71,02,267,,73,39,349,18,74,00,321,,79,12,118,27*63
$GLGSV,2,2,08,80,53,068,,82,24,026,21,83,73,028,18,84,41,205,23*65
$GNGLL,2217.99184,N,11410.78567,E,023419.00,A,A*7F
$GNZDA,023419.00,17,05,2021,00,00*77
$GNVTG,162.37,T,,M,1.416,N,2.622,K,A*24
$GNGGA,023420.00,2217.99146,N,11410.78577,E,1,12,0.91,91.5,M,-1.6,M,,*63
$GNGSA,A,3,08,27,16,04,07,09,22,01,21,,,,1.62,0.91,1.34*15
$GNGSA,A,3,83,73,79,82,84,,,,,,,,1.62,0.91,1.34*10
$GPGSV,4,1,14,01,43,169,33,03,00,176,,04,20,196,16,07,57,320,22*79
$GPGSV,4,2,14,08,54,012,35,09,29,232,29,14,03,292,,16,16,077,24*75
$GPGSV,4,3,14,17,05,235,,21,61,133,24,22,07,151,12,26,02,096,*77
$GPGSV,4,4,14,27,24,036,15,30,18,320,21*76
$GLGSV,2,1,08,71,02,267,,73,39,349,17,74,00,321,,79,12,118,25*6E
$GLGSV,2,2,08,80,53,068,,82,24,026,20,83,73,028,18,84,41,205,21*66
$GNGLL,2217.99146,N,11410.78577,E,023420.00,A,A*7A
$GNZDA,023420.00,17,05,2021,00,00*7D
$GNVTG,162.57,T,,M,1.420,N,2.630,K,A*24
$GNGGA,023421.00,2217.99104,N,11410.78585,E,1,12,0.91,91.5,M,-1.6,M,,*69
$GNGSA,A,3,08,27,16,04,07,09,22,01,21,,,,1.62,0.91,1.34*15
$GNGSA,A,3,83,73,79,82,84,,,,,,,,1.62,0.91,1.34*10
$GPGSV,4,1,14,01,43,169,28,03,00,176,,04,20,196,14,07,57,320,21*72
$GPGSV,4,2,14,08,54,012,34,09,29,232,29,14,03,292,,16,16,077,25*75
$GPGSV,4,3,14,17,05,235,,21,61,133,25,22,07,151,10,26,02,096,*74
$GPGSV,4,4,14,27,24,036,16,30,18,320,19*7E
$GLGSV,2,1,08,71,02,267,,73,39,349,17,74,00,321,,79,12,118,22*69
$GLGSV,2,2,08,80,53,068,20,82,24,026,21,83,73,028,19,84,41,205,19*6F
$GNGLL,2217.99104,N,11410.78585,E,023421.00,A,A*70
$GNZDA,023421.00,17,05,2021,00,00*7C
$GNVTG,162.74,T,,M,1.425,N,2.640,K,A*27
$GNGGA,023422.00,2217.99065,N,11410.78600,E,1,12,1.06,91.7,M,-1.6,M,,*6F
$GNGSA,A,3,08,27,16,04,07,09,22,01,21,,,,1.78,1.06,1.43*11
$GNGSA,A,3,83,73,79,82,84,,,,,,,,1.78,1.06,1.43*14
$GPGSV,4,1,14,01,43,169,30,03,00,176,,04,20,196,15,07,57,320,19*71
$GPGSV,4,2,14,08,54,012,37,09,29,232,36,14,03,292,,16,16,077,23*7E
$GPGSV,4,3,14,17,05,235,,21,61,133,30,22,07,151,12,26,02,096,20*70
$GPGSV,4,4,14,27,24,036,18,30,18,320,18*71
$GLGSV,2,1,08,71,02,267,,73,39,349,18,74,00,321,,79,12,118,21*65
$GLGSV,2,2,08,80,53,068,23,82,24,026,20,83,73,028,19,84,41,205,17*63
$GNGLL,2217.99065,N,11410.78600,E,023422.00,A,A*7B
$GNZDA,023422.00,17,05,2021,00,00*7F
$GNVTG,162.86,T,,M,1.426,N,2.641,K,A*28
$GNGGA,023423.00,2217.99027,N,11410.78612,E,1,12,1.06,92.0,M,-1.6,M,,*6F
$GNGSA,A,3,08,27,16,04,07,09,22,01,21,,,,1.78,1.06,1.43*11
