$GNRMC,023255.00,A,2218.07411,N,11410.74421,E,0.118,,170521,,,D,V*11
$GNVTG,,T,,M,0.118,N,0.218,K,D*3B
$GNGGA,023255.00,2218.07411,N,11410.74421,E,2,12,0.65,7.1,M,-1.6,M,,0000*55
$GNGSA,A,3,08,21,30,16,07,01,27,09,,,,,1.09,0.65,0.88,1*0F
$GNGSA,A,3,79,73,80,83,82,84,,,,,,,1.09,0.65,0.88,2*06
$GNGSA,A,3,13,26,21,01,27,,,,,,,,1.09,0.65,0.88,3*09
$GNGSA,A,3,16,10,30,07,08,27,09,,,,,,1.09,0.65,0.88,4*09
$GPGSV,3,1,10,01,42,170,26,04,21,196,12,07,56,321,21,08,55,011,33,1*67
$GPGSV,3,2,10,09,29,233,28,16,17,077,25,21,61,134,35,27,25,036,33,1*6B
$GPGSV,3,3,10,30,17,320,10,41,46,238,41,1*6B
$GPGSV,2,1,05,01,42,170,23,07,56,321,18,08,55,011,24,09,29,233,24,6*60
$GPGSV,2,2,05,27,25,036,27,6*54
$GPGSV,2,1,07,03,00,176,,14,03,291,,17,05,234,,22,07,152,,0*69
$GPGSV,2,2,07,22,07,152,,26,02,096,,40,20,257,,0*5C
$GLGSV,2,1,06,73,38,348,19,79,13,117,21,80,53,066,09,82,25,026,15,1*77
$GLGSV,2,2,06,83,74,030,33,84,40,204,14,1*7E
$GLGSV,2,1,06,73,38,348,11,79,13,117,09,80,53,066,13,82,25,026,11,3*78
$GLGSV,2,2,06,83,74,030,31,84,40,204,21,3*78
$GLGSV,1,1,02,71,03,268,,74,00,320,,0*70
$GAGSV,2,1,05,01,41,335,13,13,36,047,30,18,74,323,26,21,50,051,25,2*7D
$GAGSV,2,2,05,26,68,139,28,2*48
$GAGSV,2,1,06,01,41,335,23,13,36,047,36,18,74,323,25,21,50,051,29,7*71
$GAGSV,2,2,06,26,68,139,32,27,14,098,13,7*76
$GAGSV,1,1,04,04,16,275,,19,20,218,,31,01,301,,33,29,196,,0*76
$GBGSV,2,1,07,07,56,011,24,08,35,158,22,09,50,220,19,10,50,325,25,1*71
$GBGSV,2,2,07,16,37,195,17,27,72,027,45,30,50,228,35,1*45
$GBGSV,1,1,04,07,56,011,29,08,35,158,26,10,50,325,23,16,37,195,11,3*76
$GBGSV,3,1,11,01,47,123,,02,46,235,,03,62,189,,04,33,110,,0*70
$GBGSV,3,2,11,04,33,110,,05,23,254,,06,35,189,,13,22,180,,0*7E
$GBGSV,3,3,11,13,22,180,,20,01,208,,23,04,126,,0*45
$GNGLL,2218.07411,N,11410.74421,E,023255.00,A,D*7A
$"$$$#$$(%&+%'&,++H)/'.,/308;BAGKPVWXYY[_\`aceiklpqswxz€??????????????????????????????????????????????????????€€~€{wtomkgc_\VSLGC><9630-.,+)**(()&'%&&%$""$#"###%##"###!
$A?ÿÿ?ÿÿ?%]I
$GNVTG,,T,,M,0.053,N,0.099,K,D*3E
$GNGGA,023256.00,2218.07414,N,11410.74418,E,2,12,0.83,7.1,M,-1.6,M,,0000*51
$GNGSA,A,3,08,21,30,16,07,01,27,09,,,,,1.35,0.83,1.07,1*0E
$GNGSA,A,3,79,73,80,83,82,84,,,,,,,1.35,0.83,1.07,2*07
$GNGSA,A,3,13,26,21,01,27,,,,,,,,1.35,0.83,1.07,3*08
$GNGSA,A,3,16,10,30,07,08,27,09,,,,,,1.35,0.83,1.07,4*08
$GPGSV,3,1,10,01,42,170,26,04,21,196,10,07,56,321,19,08,55,011,33,1*6E
$GPGSV,3,2,10,09,29,233,28,16,17,077,25,21,61,134,35,27,25,036,33,1*6B
$GPGSV,3,3,10,30,17,320,09,41,46,238,41,1*63
$GPGSV,2,1,05,01,42,170,23,07,56,321,18,08,55,011,24,09,29,233,24,6*60
$GPGSV,2,2,05,27,25,036,27,6*54
$GPGSV,2,1,07,03,00,176,,14,03,291,,17,05,234,,22,07,152,,0*69
$GPGSV,2,2,07,22,07,152,,26,02,096,,40,20,257,,0*5C
$GLGSV,2,1,06,73,38,348,20,79,13,117,19,80,53,066,14,82,25,026,14,1*7B
$GLGSV,2,2,06,83,74,030,34,84,40,204,14,1*79
$GLGSV,2,1,06,73,38,348,09,79,13,117,08,80,53,066,08,82,25,026,14,3*7F
$GLGSV,2,2,06,83,74,030,30,84,40,204,21,3*79
$GLGSV,1,1,02,71,03,268,,74,00,320,,0*70
$GAGSV,2,1,05,01,41,335,15,13,36,047,30,18,74,323,26,21,50,051,25,2*7B
$GAGSV,2,2,05,26,68,139,28,2*48
$GAGSV,2,1,06,01,41,335,23,13,36,047,36,18,74,323,25,21,50,051,29,7*71
$GAGSV,2,2,06,26,68,139,32,27,14,098,13,7*76
$GAGSV,1,1,04,04,16,275,,19,20,218,,31,01,301,,33,29,196,,0*76
$GBGSV,2,1,07,07,56,011,25,08,35,158,22,09,50,220,19,10,50,325,25,1*70
$GBGSV,2,2,07,16,37,195,17,27,72,027,44,30,50,228,35,1*44
$GBGSV,1,1,04,07,56,011,28,08,35,158,26,10,50,325,24,16,37,195,13,3*72
$GBGSV,3,1,11,01,47,123,,02,46,235,,03,62,189,,04,33,110,,0*70
$GBGSV,3,2,11,04,33,110,,05,23,254,,06,35,189,,13,22,180,,0*7E
$GBGSV,3,3,11,13,22,180,,20,01,208,,23,04,126,,0*45
$GNGLL,2218.07414,N,11410.74418,E,023256.00,A,D*76
$A?ÿÿ?ÿÿ?SU
$GNVTG,,T,,M,0.032,N,0.059,K,D*35
$GNGGA,023257.00,2218.07416,N,11410.74416,E,2,12,0.62,7.2,M,-1.6,M,,0000*50
$GNGSA,A,3,08,21,30,16,07,01,27,09,,,,,1.07,0.62,0.88,1*06
$GNGSA,A,3,79,73,80,83,82,84,,,,,,,1.07,0.62,0.88,2*0F
$GNGSA,A,3,13,26,21,01,27,,,,,,,,1.07,0.62,0.88,3*00
$GNGSA,A,3,16,10,30,07,08,27,09,,,,,,1.07,0.62,0.88,4*00
$GPGSV,3,1,10,01,42,170,26,04,21,196,11,07,56,321,20,08,55,011,33,1*65
$GPGSV,3,2,10,09,29,233,28,16,17,077,25,21,61,134,35,27,25,036,33,1*6B
$GPGSV,3,3,10,30,17,320,09,41,46,238,41,1*63
$GPGSV,2,1,05,01,42,170,23,07,56,321,18,08,55,011,23,09,29,233,24,6*67
$GPGSV,2,2,05,27,25,036,27,6*54
$GPGSV,2,1,07,03,00,176,,14,03,291,,17,05,234,,22,07,152,,0*69
$GPGSV,2,2,07,22,07,152,,26,02,096,,40,20,257,,0*5C
$GLGSV,2,1,06,73,38,348,19,79,13,117,17,80,53,066,10,82,25,026,12,1*7D
$GLGSV,2,2,06,83,74,030,33,84,40,204,12,1*78
$GLGSV,2,1,06,73,38,348,09,79,13,117,07,80,53,066,13,82,25,026,11,3*7F
$GLGSV,2,2,06,83,74,030,31,84,40,204,21,3*78
$GLGSV,1,1,02,71,03,268,,74,00,320,,0*70
$GAGSV,2,1,05,01,41,335,15,13,36,047,30,18,74,323,26,21,50,051,24,2*7A
$GAGSV,2,2,05,26,68,139,27,2*47
$GAGSV,2,1,06,01,41,335,23,13,36,047,36,18,74,323,25,21,50,051,29,7*71
$GAGSV,2,2,06,26,68,139,32,27,14,098,12,7*77
$GAGSV,1,1,04,04,16,275,,19,20,218,,31,01,301,,33,29,196,,0*76
$GBGSV,2,1,07,07,56,011,25,08,35,158,22,09,50,220,19,10,50,325,25,1*70
$GBGSV,2,2,07,16,37,195,18,27,72,027,44,30,50,228,35,1*4B
$GBGSV,1,1,04,07,56,011,29,08,35,158,26,10,50,325,23,16,37,195,15,3*72
$GBGSV,3,1,11,01,47,123,,02,46,235,,03,62,189,,04,33,110,,0*70
$GBGSV,3,2,11,04,33,110,,05,23,254,,06,35,189,,13,22,180,,0*7E
$GBGSV,3,3,11,13,22,180,,20,01,208,,23,04,126,,0*45
$GNGLL,2218.07416,N,11410.74416,E,023257.00,A,D*7B
$@?ÿÿ?ÿÿ?Ja
$GNVTG,,T,,M,0.039,N,0.072,K,D*37
$GNGGA,023258.00,2218.07419,N,11410.74412,E,2,12,0.65,7.2,M,-1.6,M,,0000*53
$GNGSA,A,3,08,21,04,30,16,07,01,27,09,,,,1.09,0.65,0.88,1*0B
$GNGSA,A,3,73,80,83,82,84,,,,,,,,1.09,0.65,0.88,2*08
$GNGSA,A,3,13,26,21,01,27,,,,,,,,1.09,0.65,0.88,3*09
$GNGSA,A,3,16,10,30,07,08,27,09,,,,,,1.09,0.65,0.88,4*09
$GPGSV,3,1,10,01,42,170,26,04,21,196,10,07,56,321,21,08,55,011,33,1*65
$GPGSV,3,2,10,09,29,233,27,16,17,077,26,21,61,134,35,27,25,036,33,1*67
$GPGSV,3,3,10,30,17,320,10,41,46,238,41,1*6B
$GPGSV,2,1,05,01,42,170,24,07,56,321,18,08,55,011,24,09,29,233,25,6*66
$GPGSV,2,2,05,27,25,036,27,6*54
$GPGSV,2,1,07,03,00,176,,14,03,291,,17,05,234,,22,07,152,,0*69
$GPGSV,2,2,07,22,07,152,,26,02,096,,40,20,257,,0*5C
$GLGSV,2,1,06,73,38,348,19,79,13,117,17,80,53,066,09,82,25,026,10,1*77
$GLGSV,2,2,06,83,74,030,33,84,40,204,09,1*72
$GLGSV,2,1,06,73,38,348,10,79,13,117,08,80,53,066,09,82,25,026,10,3*72
$GLGSV,2,2,06,83,74,030,31,84,40,204,20,3*79
$GLGSV,1,1,02,71,03,268,,74,00,320,,0*70
$GAGSV,2,1,05,01,41,335,15,13,36,047,30,18,74,323,26,21,50,051,23,2*7D
$GAGSV,2,2,05,26,68,139,27,2*47
$GAGSV,2,1,06,01,41,335,22,13,36,047,36,18,74,323,26,21,50,051,29,7*73
$GAGSV,2,2,06,26,68,139,31,27,14,098,10,7*76
$GAGSV,1,1,04,04,16,275,,19,20,218,,31,01,301,,33,29,196,,0*76
$GBGSV,2,1,08,07,56,011,25,08,35,158,22,09,50,220,19,10,50,325,25,1*7F
$GBGSV,2,2,08,16,37,195,18,27,72,027,44,30,50,228,35,37,51,106,25,1*74
$GBGSV,1,1,04,07,56,011,29,08,35,158,26,10,50,325,23,16,37,195,16,3*71
$GBGSV,3,1,10,01,47,123,,02,46,235,,03,62,189,,04,33,110,,0*71
$GBGSV,3,2,10,04,33,110,,05,23,254,,06,35,189,,13,22,180,,0*7F
$GBGSV,3,3,10,13,22,180,,20,01,208,,0*74
$GNGLL,2218.07419,N,11410.74412,E,023258.00,A,D*7F
$>?ÿÿ?ÿÿ?Am
$GNVTG,,T,,M,0.103,N,0.190,K,D*32
$GNGGA,023259.00,2218.07424,N,11410.74407,E,2,12,0.83,7.2,M,-1.6,M,,0000*50
$GNGSA,A,3,08,21,30,16,07,01,27,09,,,,,1.35,0.83,1.07,1*0E
$GNGSA,A,3,79,73,80,83,82,84,,,,,,,1.35,0.83,1.07,2*07
$GNGSA,A,3,13,26,21,01,27,,,,,,,,1.35,0.83,1.07,3*08
$GNGSA,A,3,16,10,30,07,08,27,09,,,,,,1.35,0.83,1.07,4*08
$GPGSV,3,1,10,01,42,170,26,04,21,196,10,07,56,321,21,08,55,011,33,1*65
$GPGSV,3,2,10,09,29,233,28,16,17,077,26,21,61,134,35,27,25,036,33,1*68
$GPGSV,3,3,10,30,17,320,12,41,46,238,41,1*69
$GPGSV,2,1,05,01,42,170,24,07,56,321,17,08,55,011,23,09,29,233,24,6*6F
$GPGSV,2,2,05,27,25,036,27,6*54
$GPGSV,2,1,07,03,00,176,,14,03,291,,17,05,234,,22,07,152,,0*69
$GPGSV,2,2,07,22,07,152,,26,02,096,,40,20,257,,0*5C
$GLGSV,2,1,06,73,38,348,19,79,13,117,19,80,53,066,08,82,25,026,09,1*70
$GLGSV,2,2,06,83,74,030,34,84,40,204,08,1*74
$GLGSV,2,1,06,73,38,348,12,79,13,117,14,80,53,066,13,82,25,026,14,3*72
$GLGSV,2,2,06,83,74,030,30,84,40,204,20,3*78
$GLGSV,1,1,02,71,03,268,,74,00,320,,0*70
$GAGSV,2,1,05,01,41,335,14,13,36,047,30,18,74,323,26,21,50,051,23,2*7C
$GAGSV,2,2,05,26,68,139,27,2*47
$GAGSV,2,1,06,01,41,335,22,13,36,047,36,18,74,323,26,21,50,051,29,7*73
$GAGSV,2,2,06,26,68,139,31,27,14,098,08,7*7F
$GAGSV,1,1,04,04,16,275,,19,20,218,,31,01,301,,33,29,196,,0*76
$GBGSV,2,1,08,07,56,011,24,08,35,158,22,09,50,220,19,10,50,325,25,1*7E
$GBGSV,2,2,08,16,37,195,17,27,72,027,44,30,50,228,36,37,51,106,25,1*78
$GBGSV,1,1,04,07,56,011,29,08,35,158,26,10,50,325,23,16,37,195,15,3*72
$GBGSV,3,1,10,01,47,123,,02,46,235,,03,62,189,,04,33,110,,0*71
$GBGSV,3,2,10,04,33,110,,05,23,254,,06,35,189,,13,22,180,,0*7F
$GBGSV,3,3,10,13,22,180,,20,01,208,,0*74
$GNGLL,2218.07424,N,11410.74407,E,023259.00,A,D*74
$=?ÿÿ?ÿÿ?8y
$GNVTG,,T,,M,0.005,N,0.008,K,D*35
$GNGGA,023300.00,2218.07427,N,11410.74404,E,2,12,0.59,7.2,M,-1.6,M,,0000*5A
$GNGSA,A,3,08,21,30,16,07,01,27,09,,,,,1.01,0.59,0.82,1*02
$GNGSA,A,3,79,73,80,83,82,84,,,,,,,1.01,0.59,0.82,2*0B
$GNGSA,A,3,13,26,21,01,27,,,,,,,,1.01,0.59,0.82,3*04
$GNGSA,A,3,16,10,30,07,08,27,09,,,,,,1.01,0.59,0.82,4*04
$GPGSV,3,1,10,01,42,170,25,04,21,196,09,07,56,321,21,08,55,011,33,1*6E
$GPGSV,3,2,10,09,29,233,28,16,17,077,26,21,61,134,35,27,25,036,33,1*68
$GPGSV,3,3,10,30,17,320,08,41,46,238,41,1*62
$GPGSV,2,1,05,01,42,170,25,07,56,321,19,08,55,011,23,09,29,233,24,6*60
$GPGSV,2,2,05,27,25,036,27,6*54
$GPGSV,2,1,07,03,00,176,,14,03,291,,17,05,234,,22,07,152,,0*69
$GPGSV,2,2,07,22,07,152,,26,02,096,,40,20,257,,0*5C
$GLGSV,2,1,06,73,38,348,19,79,13,117,18,80,53,066,12,82,25,026,11,1*73
$GLGSV,2,2,06,83,74,030,33,84,40,204,17,1*7D
$GLGSV,2,1,06,73,38,348,12,79,13,117,15,80,53,066,12,82,25,026,09,3*7E
$GLGSV,2,2,06,83,74,030,31,84,40,204,19,3*73
$GLGSV,1,1,02,71,03,268,,74,00,320,,0*70
$GAGSV,2,1,05,01,41,335,12,13,36,047,30,18,74,323,26,21,50,051,23,2*7A
$GAGSV,2,2,05,26,68,139,27,2*47
$GAGSV,2,1,06,01,41,335,22,13,36,047,36,18,74,323,27,21,50,051,29,7*72
$GAGSV,2,2,06,26,68,139,31,27,14,098,10,7*76
$GAGSV,1,1,04,04,16,275,,19,20,218,,31,01,301,,33,29,196,,0*76
$GBGSV,2,1,08,07,56,011,24,08,35,158,23,09,50,220,19,10,50,325,25,1*7F
$GBGSV,2,2,08,16,37,195,17,27,72,027,44,30,50,228,35,37,51,106,25,1*7B
$GBGSV,1,1,04,07,56,011,29,08,35,158,26,10,50,325,23,16,37,195,13,3*74
$GBGSV,3,1,10,01,47,123,,02,46,235,,03,62,189,,04,33,110,,0*71
$GBGSV,3,2,10,04,33,110,,05,23,254,,06,35,189,,13,22,180,,0*7F
$GBGSV,3,3,10,13,22,180,,20,01,208,,0*74
$GNGLL,2218.07427,N,11410.74404,E,023300.00,A,D*79
$:?ÿÿ?ÿÿ?0?
$GNVTG,,T,,M,0.008,N,0.014,K,D*35
$GNGGA,023301.00,2218.07430,N,11410.74400,E,2,12,0.79,7.2,M,-1.6,M,,0000*5B
$GNGSA,A,3,08,21,16,07,01,27,09,,,,,,1.30,0.79,1.03,1*09
$GNGSA,A,3,79,73,80,83,82,84,,,,,,,1.30,0.79,1.03,2*03
$GNGSA,A,3,13,26,21,01,27,,,,,,,,1.30,0.79,1.03,3*0C
$GNGSA,A,3,16,10,37,30,07,08,27,09,,,,,1.30,0.79,1.03,4*08
$GPGSV,3,1,11,01,42,170,25,04,21,196,09,07,56,321,21,08,55,011,33,1*6F
$GPGSV,3,2,11,09,29,233,29,16,17,077,26,21,61,134,35,27,25,036,33,1*68
$GPGSV,3,3,11,30,17,320,06,41,46,238,41,50,60,149,27,1*57
$GPGSV,2,1,05,01,42,170,26,07,56,321,19,08,55,011,23,09,29,233,24,6*63
$GPGSV,2,2,05,27,25,036,27,6*54
$GPGSV,2,1,06,03,00,176,,14,03,291,,17,05,234,,22,07,152,,0*68
$GPGSV,2,2,06,22,07,152,,26,02,096,,0*6B
$GLGSV,2,1,06,73,38,348,19,79,13,117,17,80,53,066,15,82,25,026,14,1*7E
$GLGSV,2,2,06,83,74,030,33,84,40,204,11,1*7B
$GLGSV,2,1,06,73,38,348,10,79,13,117,12,80,53,066,12,82,25,026,10,3*73
$GLGSV,2,2,06,83,74,030,31,84,40,204,18,3*72
$GLGSV,1,1,02,71,03,268,,74,00,320,,0*70
$GAGSV,2,1,05,01,41,335,14,13,36,047,30,18,74,323,26,21,50,051,23,2*7C
$GAGSV,2,2,05,26,68,139,27,2*47
$GAGSV,2,1,06,01,41,335,21,13,36,047,36,18,74,323,27,21,50,051,29,7*71
$GAGSV,2,2,06,26,68,139,31,27,14,098,10,7*76
$GAGSV,1,1,04,04,16,275,,19,20,218,,31,01,301,,33,29,196,,0*76
$GBGSV,2,1,08,07,56,011,24,08,35,158,23,09,50,220,19,10,50,325,25,1*7F
$GBGSV,2,2,08,16,37,195,15,27,72,027,44,30,50,228,36,37,51,106,25,1*7A
$GBGSV,1,1,04,07,56,011,28,08,35,158,26,10,50,325,24,16,37,195,12,3*73
$GBGSV,3,1,10,01,47,123,,02,46,235,,03,62,189,,04,33,110,,0*71
$GBGSV,3,2,10,04,33,110,,05,23,254,,06,35,189,,13,22,180,,0*7F
$GBGSV,3,3,10,13,22,180,,20,01,208,,0*74
$GNGLL,2218.07430,N,11410.74400,E,023301.00,A,D*7A
$9?ÿÿ
$GNVTG,,T,,M,0.051,N,0.094,K,D*31
$GNGGA,023302.00,2218.07434,N,11410.74395,E,2,12,0.82,7.2,M,-1.6,M,,0000*53
$GNGSA,A,3,08,21,50,30,16,07,01,27,09,,,,1.33,0.82,1.05,1*0E
$GNGSA,A,3,73,80,83,82,84,,,,,,,,1.33,0.82,1.05,2*0C
$GNGSA,A,3,13,26,21,01,27,,,,,,,,1.33,0.82,1.05,3*0D
$GNGSA,A,3,16,10,30,07,08,27,09,,,,,,1.33,0.82,1.05,4*0D
$GPGSV,3,1,11,01,42,170,25,04,21,196,08,07,56,321,21,08,55,011,33,1*6E
$GPGSV,3,2,11,09,29,233,29,16,17,077,25,21,61,134,35,27,25,036,32,1*6A
$GPGSV,3,3,11,30,17,320,10,41,46,238,41,50,60,149,26,1*51
$GPGSV,2,1,05,01,42,170,26,07,56,321,19,08,55,011,23,09,29,233,24,6*63
$GPGSV,2,2,05,27,25,036,27,6*54
$GPGSV,2,1,06,03,00,176,,14,03,291,,17,05,234,,22,07,152,,0*68
$GPGSV,2,2,06,22,07,152,,26,02,096,,0*6B
$GLGSV,2,1,06,73,38,348,20,79,13,117,16,80,53,066,18,82,25,026,12,1*7E
$GLGSV,2,2,06,83,74,030,34,84,40,204,10,1*7D
$GLGSV,2,1,06,73,38,348,11,79,13,117,11,80,53,066,11,82,25,026,10,3*72
$GLGSV,2,2,06,83,74,030,31,84,40,204,17,3*7D
$GLGSV,1,1,02,71,03,268,,74,00,320,,0*70
$GAGSV,2,1,05,01,41,335,13,13,36,047,30,18,74,323,26,21,50,051,23,2*7B
$GAGSV,2,2,05,26,68,139,27,2*47
$GAGSV,2,1,06,01,41,335,21,13,36,047,36,18,74,323,27,21,50,051,29,7*71
$GAGSV,2,2,06,26,68,139,31,27,14,098,10,7*76
$GAGSV,1,1,04,04,16,275,,19,20,218,,31,01,301,,33,29,196,,0*76
$GBGSV,2,1,08,07,56,011,24,08,35,158,23,09,50,220,18,10,50,325,24,1*7F
$GBGSV,2,2,08,16,37,195,14,27,72,027,44,30,50,228,36,37,51,106,26,1*78
$GBGSV,1,1,04,07,56,011,28,08,35,158,26,10,50,325,24,16,37,195,13,3*72
$GBGSV,3,1,10,01,47,123,,02,46,235,,03,62,189,,04,33,110,,0*71
$GBGSV,3,2,10,04,33,110,,05,23,254,,06,35,189,,13,22,180,,0*7F
$GBGSV,3,3,10,13,22,180,,20,01,208,,0*74
$GNGLL,2218.07434,N,11410.74395,E,023302.00,A,D*76
$*?ÿÿúÒÿÿ??
$GNVTG,,T,,M,0.729,N,1.350,K,D*33
$GNGGA,023303.00,2218.07424,N,11410.74381,E,2,12,0.66,7.2,M,-1.6,M,,0000*5C
$GNGSA,A,3,08,21,50,30,16,07,01,27,09,,,,1.13,0.66,0.91,1*0A
$GNGSA,A,3,73,80,83,82,84,,,,,,,,1.13,0.66,0.91,2*08
$GNGSA,A,3,13,26,21,01,27,,,,,,,,1.13,0.66,0.91,3*09
$GNGSA,A,3,16,10,30,07,08,27,09,,,,,,1.13,0.66,0.91,4*09
$GPGSV,3,1,11,01,42,170,24,04,21,196,09,07,56,321,20,08,55,011,33,1*6F
$GPGSV,3,2,11,09,29,233,32,16,17,077,25,21,61,134,37,27,25,036,29,1*68
$GPGSV,3,3,11,30,17,320,10,41,46,238,41,50,60,149,27,1*50
$GPGSV,2,1,05,01,42,170,23,07,56,321,18,08,55,011,23,09,29,233,23,6*60
$GPGSV,2,2,05,27,25,036,27,6*54
$GPGSV,2,1,06,03,00,176,,14,03,291,,17,05,234,,22,07,152,,0*68
$GPGSV,2,2,06,22,07,152,,26,02,096,,0*6B
$GLGSV,2,1,06,73,38,348,20,79,13,117,15,80,53,066,17,82,25,026,16,1*76
$GLGSV,2,2,06,83,74,030,33,84,40,204,15,1*7F
$GLGSV,2,1,06,73,38,348,08,79,13,117,09,80,53,066,16,82,25,026,14,3*70
$GLGSV,2,2,06,83,74,030,31,84,40,204,17,3*7D
$GLGSV,1,1,02,71,03,268,,74,00,320,,0*70
$GAGSV,2,1,05,01,41,335,13,13,36,047,30,18,74,323,25,21,50,051,23,2*78
$GAGSV,2,2,05,26,68,139,27,2*47
$GAGSV,2,1,06,01,41,335,29,13,36,047,36,18,74,323,24,21,50,051,29,7*7A
$GAGSV,2,2,06,26,68,139,32,27,14,098,09,7*7D
$GAGSV,1,1,04,04,16,275,,19,20,218,,31,01,301,,33,29,196,,0*76
$GBGSV,2,1,08,07,56,011,24,08,35,158,22,09,50,220,17,10,50,325,24,1*71
$GBGSV,2,2,08,16,37,195,15,27,72,027,44,30,50,228,34,37,51,106,25,1*78
$GBGSV,2,1,05,07,56,011,28,08,35,158,26,09,50,220,18,10,50,325,23,3*7E
$GBGSV,2,2,05,16,37,195,12,3*4C
$GBGSV,3,1,10,01,47,123,,02,46,235,,03,62,189,,04,33,110,,0*71
$GBGSV,3,2,10,04,33,110,,05,23,254,,06,35,189,,13,22,180,,0*7F
$GBGSV,3,3,10,13,22,180,,20,01,208,,0*74
$GNGLL,2218.07424,N,11410.74381,E,023303.00,A,D*73
$?ÿÿåÒÿÿ???
$GNVTG,224.00,T,,M,2.307,N,4.272,K,D*27
$GNGGA,023304.00,2218.07388,N,11410.74336,E,2,12,0.67,7.2,M,-1.6,M,,0000*57
$GNGSA,A,3,08,21,04,30,16,07,01,27,09,,,,1.14,0.67,0.92,1*0E
$GNGSA,A,3,73,80,83,82,84,,,,,,,,1.14,0.67,0.92,2*0D
$GNGSA,A,3,13,26,21,01,27,,,,,,,,1.14,0.67,0.92,3*0C
$GNGSA,A,3,16,10,30,07,08,27,09,,,,,,1.14,0.67,0.92,4*0C
$GPGSV,3,1,10,01,42,170,31,04,21,196,19,07,56,321,20,08,55,011,32,1*6A
$GPGSV,3,2,10,09,29,233,30,16,17,077,23,21,61,134,33,27,25,036,33,1*62
$GPGSV,3,3,10,30,17,320,13,41,46,238,41,1*68
$GPGSV,2,1,05,01,42,170,21,07,56,321,17,08,55,011,26,09,29,233,22,6*69
$GPGSV,2,2,05,27,25,036,26,6*55
$GPGSV,2,1,07,03,00,176,,14,03,291,,17,05,234,,22,07,152,,0*69
$GPGSV,2,2,07,22,07,152,,26,02,096,,40,20,257,,0*5C
$GLGSV,2,1,06,73,38,348,20,79,13,117,19,80,53,066,20,82,25,026,17,1*7F
$GLGSV,2,2,06,83,74,030,33,84,40,204,12,1*78
$GLGSV,2,1,06,73,38,348,12,79,13,117,12,80,53,066,13,82,25,026,16,3*76
$GLGSV,2,2,06,83,74,030,31,84,40,204,18,3*72
$GLGSV,1,1,02,71,03,268,,74,00,320,,0*70
$GAGSV,2,1,05,01,41,335,13,13,36,047,30,18,74,323,24,21,50,051,25,2*7F
$GAGSV,2,2,05,26,68,139,25,2*45
$GAGSV,2,1,06,01,41,335,21,13,36,047,36,18,74,323,26,21,50,051,30,7*78
$GAGSV,2,2,06,26,68,139,32,27,14,098,16,7*73
$GAGSV,1,1,04,04,16,275,,19,20,218,,31,01,301,,33,29,196,,0*76
$GBGSV,2,1,07,07,56,011,23,08,35,158,23,09,50,220,17,10,50,325,23,1*7F
$GBGSV,2,2,07,16,37,195,14,27,72,027,43,30,50,228,36,1*43
$GBGSV,1,1,04,07,56,011,27,08,35,158,23,09,50,220,17,10,50,325,22,3*78
$GBGSV,3,1,11,01,47,123,,02,46,235,,03,62,189,,04,33,110,,0*70
$GBGSV,3,2,11,04,33,110,,05,23,254,,06,35,189,,13,22,180,,0*7E
$GBGSV,3,3,11,13,22,180,,20,01,208,,23,04,126,,0*45
$GNGLL,2218.07388,N,11410.74336,E,023304.00,A,D*79
$GNVTG,227.73,T,,M,4.432,N,8.207,K,D*29
$GNGGA,023305.00,2218.07317,N,11410.74243,E,2,12,0.83,7.0,M,-1.6,M,,0000*5B
$GNGSA,A,3,08,21,04,30,16,07,01,27,09,,,,1.34,0.83,1.06,1*0A
$GNGSA,A,3,79,73,80,83,82,84,,,,,,,1.34,0.83,1.06,2*07
$GNGSA,A,3,13,26,21,01,27,,,,,,,,1.34,0.83,1.06,3*08
$GNGSA,A,3,16,10,30,07,08,27,09,,,,,,1.34,0.83,1.06,4*08
$GPGSV,3,1,11,01,42,170,26,04,21,196,15,07,56,321,19,08,55,011,32,1*6B
$GPGSV,3,2,11,09,29,233,30,16,17,077,24,21,61,134,29,27,25,036,31,1*6D
$GPGSV,3,3,11,30,17,320,11,41,46,238,40,50,60,149,27,1*50
$GPGSV,2,1,05,01,42,170,18,07,56,321,15,08,55,011,25,09,29,233,22,6*62
$GPGSV,2,2,05,27,25,036,26,6*55
$GPGSV,2,1,06,03,00,176,,14,03,291,,17,05,234,,22,07,152,,0*68
$GPGSV,2,2,06,22,07,152,,26,02,096,,0*6B
$GLGSV,2,1,06,73,38,348,21,79,13,117,26,80,53,066,17,82,25,026,17,1*76
$GLGSV,2,2,06,83,74,030,33,84,40,204,10,1*7A
$GLGSV,2,1,06,73,38,348,14,79,13,117,17,80,53,066,11,82,25,026,13,3*72
$GLGSV,2,2,06,83,74,030,31,84,40,204,18,3*72
$GLGSV,1,1,02,71,03,268,,74,00,320,,0*70
$GAGSV,2,1,05,01,41,335,12,13,36,047,29,18,74,323,20,21,50,051,25,2*72
$GAGSV,2,2,05,26,68,139,23,2*43
$GAGSV,2,1,06,01,41,335,21,13,36,047,32,18,74,323,24,21,50,051,33,7*7D
$GAGSV,2,2,06,26,68,139,32,27,14,098,15,7*70
$GAGSV,1,1,04,04,16,275,,19,20,218,,31,01,301,,33,29,196,,0*76
$GBGSV,2,1,07,07,56,011,25,08,35,158,23,09,50,220,20,10,50,325,22,1*7C
$GBGSV,2,2,07,16,37,195,12,27,72,027,45,30,50,228,36,1*43
$GBGSV,1,1,04,07,56,011,28,08,35,158,23,09,50,220,18,10,50,325,20,3*7A
$GBGSV,3,1,11,01,47,123,,02,46,235,,03,62,189,,04,33,110,,0*70
$GBGSV,3,2,11,04,33,110,,05,23,254,,06,35,189,,13,22,180,,0*7E
$GBGSV,3,3,11,13,22,180,,20,01,208,,23,04,126,,0*45
$GNGLL,2218.07317,N,11410.74243,E,023305.00,A,D*7D
$GNVTG,228.41,T,,M,6.688,N,12.386,K,D*15
$GNGGA,023306.00,2218.07206,N,11410.74099,E,2,12,0.64,7.0,M,-1.6,M,,0000*55
$GNGSA,A,3,08,21,50,30,16,07,01,27,09,,,,1.11,0.64,0.91,1*0A
$GNGSA,A,3,79,73,80,83,82,84,,,,,,,1.11,0.64,0.91,2*06
$GNGSA,A,3,13,26,21,01,27,,,,,,,,1.11,0.64,0.91,3*09
$GNGSA,A,3,16,10,30,07,08,27,09,,,,,,1.11,0.64,0.91,4*09
$GPGSV,3,1,11,01,42,170,26,04,21,196,15,07,56,321,16,08,55,011,31,1*67
$GPGSV,3,2,11,09,29,233,31,16,17,077,26,21,61,134,29,27,25,036,29,1*67
$GPGSV,3,3,11,30,17,320,10,41,46,238,38,50,60,149,31,1*59
$GPGSV,2,1,05,01,42,170,19,07,56,321,14,08,55,011,25,09,29,233,21,6*61
$GPGSV,2,2,05,27,25,036,23,6*50
$GPGSV,2,1,06,03,00,176,,14,03,291,,17,05,234,,22,07,152,,0*68
$GPGSV,2,2,06,22,07,152,,26,02,096,,0*6B
$GLGSV,2,1,06,73,38,348,19,79,13,117,23,80,53,066,18,82,25,026,11,1*71
$GLGSV,2,2,06,83,74,030,32,84,40,204,10,1*7B
$GLGSV,2,1,06,73,38,348,15,79,13,117,11,80,53,066,14,82,25,026,12,3*71
$GLGSV,2,2,06,83,74,030,31,84,40,204,16,3*7C
$GLGSV,1,1,02,71,03,268,,74,00,320,,0*70
$GAGSV,2,1,05,01,41,335,15,13,36,047,30,18,74,323,18,21,50,051,28,2*7B
$GAGSV,2,2,05,26,68,139,22,2*42
$GAGSV,2,1,06,01,41,335,20,13,36,047,35,18,74,323,22,21,50,051,33,7*7D
$GAGSV,2,2,06,26,68,139,35,27,14,098,12,7*70
$GAGSV,1,1,04,04,16,275,,19,20,218,,31,01,301,,33,29,196,,0*76
$GBGSV,2,1,07,07,56,011,25,08,35,158,26,09,50,220,22,10,50,325,20,1*79
$GBGSV,2,2,07,16,37,195,14,27,72,027,44,30,50,228,37,1*45
$GBGSV,1,1,04,07,56,011,26,08,35,158,24,09,50,220,18,10,50,325,18,3*78
$GBGSV,3,1,11,01,47,123,,02,46,235,,03,62,189,,04,33,110,,0*70
$GBGSV,3,2,11,04,33,110,,05,23,254,,06,35,189,,13,22,180,,0*7E
$GBGSV,3,3,11,13,22,180,,20,01,208,,23,04,126,,0*45
$GNGLL,2218.07206,N,11410.74099,E,023306.00,A,D*7A
$áÔÿÿ®Òÿÿ?C?
$GNVTG,229.34,T,,M,7.791,N,14.430,K,D*12
$GNGGA,023307.00,2218.07071,N,11410.73923,E,2,12,0.67,7.0,M,-1.6,M,,0000*5A
$GNGSA,A,3,08,21,50,30,04,16,07,01,27,09,,,1.14,0.67,0.92,1*0B
$GNGSA,A,3,79,73,80,83,82,84,,,,,,,1.14,0.67,0.92,2*03
$GNGSA,A,3,13,26,21,27,,,,,,,,,1.14,0.67,0.92,3*0D
$GNGSA,A,3,16,10,30,07,08,27,09,,,,,,1.14,0.67,0.92,4*0C
$GPGSV,3,1,11,01,42,170,26,04,21,196,15,07,56,321,15,08,55,011,22,1*66
$GPGSV,3,2,11,09,29,233,32,16,17,077,32,21,61,134,25,27,25,036,28,1*6C
$GPGSV,3,3,11,30,17,320,09,41,46,238,34,50,60,149,28,1*55
$GPGSV,2,1,05,01,42,170,19,07,56,321,10,08,55,011,22,09,29,233,21,6*62
$GPGSV,2,2,05,27,25,036,22,6*51
$GPGSV,2,1,06,03,00,176,,14,03,291,,17,05,234,,22,07,152,,0*68
$GPGSV,2,2,06,22,07,152,,26,02,096,,0*6B
$GLGSV,2,1,06,73,38,348,21,79,13,117,18,80,53,066,20,82,25,026,15,1*7D
$GLGSV,2,2,06,83,74,030,32,84,40,204,10,1*7B
$GLGSV,2,1,06,73,38,348,18,79,13,117,15,80,53,066,10,82,25,026,12,3*7C
$GLGSV,2,2,06,83,74,030,33,84,40,204,14,3*7C
$GLGSV,1,1,02,71,03,268,,74,00,320,,0*70
$GAGSV,2,1,05,01,41,335,16,13,36,047,31,18,74,323,17,21,50,051,30,2*7F
$GAGSV,2,2,05,26,68,139,24,2*44
$GAGSV,2,1,07,01,41,335,22,13,36,047,36,18,74,323,20,21,50,051,32,7*7E
$GAGSV,2,2,07,26,68,139,30,27,14,098,10,33,29,196,06,7*45
$GAGSV,1,1,03,04,16,275,,19,20,218,,31,01,301,,0*44
$GBGSV,2,1,07,07,56,011,22,08,35,158,25,09,50,220,23,10,50,325,18,1*77
$GBGSV,2,2,07,16,37,195,14,27,72,027,43,30,50,228,37,1*42
$GBGSV,1,1,04,07,56,011,23,08,35,158,25,09,50,220,21,10,50,325,14,3*7A
$GBGSV,3,1,11,01,47,123,,02,46,235,,03,62,189,,04,33,110,,0*70
$GBGSV,3,2,11,04,33,110,,05,23,254,,06,35,189,,13,22,180,,0*7E
$GBGSV,3,3,11,13,22,180,,20,01,208,,23,04,126,,0*45
$GNGLL,2218.07071,N,11410.73923,E,023307.00,A,D*76
$GNVTG,230.08,T,,M,7.494,N,13.880,K,D*13
$GNGGA,023308.00,2218.06936,N,11410.73746,E,2,12,0.84,7.1,M,-1.6,M,,0000*5F
$GNGSA,A,3,08,21,30,16,07,01,27,09,,,,,1.35,0.84,1.06,1*08
$GNGSA,A,3,79,73,80,83,82,84,,,,,,,1.35,0.84,1.06,2*01
$GNGSA,A,3,13,01,26,21,27,,,,,,,,1.35,0.84,1.06,3*0E
$GNGSA,A,3,16,10,30,07,08,27,09,,,,,,1.35,0.84,1.06,4*0E
$GPGSV,3,1,09,01,42,170,25,07,56,321,13,08,55,011,21,09,29,233,32,1*65
$GPGSV,3,2,09,16,17,077,32,21,61,134,25,27,25,036,26,30,17,320,11,1*6E
$GPGSV,3,3,09,41,46,238,30,1*50
$GPGSV,2,1,05,01,42,170,19,07,56,321,07,08,55,011,19,09,29,233,23,6*6E
$GPGSV,2,2,05,27,25,036,21,6*52
$GPGSV,2,1,08,03,00,176,,04,21,196,,14,03,291,,17,05,234,,0*6E
$GPGSV,2,2,08,17,05,234,,22,07,152,,26,02,096,,40,20,257,,0*65
$GLGSV,2,1,06,73,38,348,20,79,13,117,17,80,53,066,22,82,25,026,11,1*75
$GLGSV,2,2,06,83,74,030,33,84,40,204,09,1*72
$GLGSV,2,1,06,73,38,348,10,79,13,117,11,80,53,066,15,82,25,026,11,3*76
$GLGSV,2,2,06,83,74,030,32,84,40,204,13,3*7A
$GLGSV,1,1,02,71,03,268,,74,00,320,,0*70
$GAGSV,2,1,05,01,41,335,16,13,36,047,32,18,74,323,14,21,50,051,31,2*7E
$GAGSV,2,2,05,26,68,139,26,2*46
$GAGSV,2,1,07,01,41,335,22,13,36,047,37,18,74,323,20,21,50,051,33,7*7E
$GAGSV,2,2,07,26,68,139,31,27,14,098,09,33,29,196,07,7*4D
$GAGSV,1,1,03,04,16,275,,19,20,218,,31,01,301,,0*44
$GBGSV,2,1,07,07,56,011,20,08,35,158,23,09,50,220,24,10,50,325,13,1*7F
$GBGSV,2,2,07,16,37,195,14,27,72,027,36,30,50,228,38,1*4F
$GBGSV,1,1,04,07,56,011,20,08,35,158,23,09,50,220,22,10,50,325,10,3*78
$GBGSV,3,1,11,01,47,123,,02,46,235,,03,62,189,,04,33,110,,0*70
$GBGSV,3,2,11,04,33,110,,05,23,254,,06,35,189,,13,22,180,,0*7E
$GBGSV,3,3,11,13,22,180,,20,01,208,,23,04,126,,0*45
$GNGLL,2218.06936,N,11410.73746,E,023308.00,A,D*7F
$GNVTG,229.85,T,,M,7.855,N,14.548,K,D*11
$GNGGA,023309.00,2218.06798,N,11410.73566,E,2,12,0.65,6.9,M,-1.6,M,,0000*52
$GNGSA,A,3,08,21,30,16,07,01,27,09,,,,,1.12,0.65,0.91,1*0D
$GNGSA,A,3,79,73,80,83,82,84,,,,,,,1.12,0.65,0.91,2*04
$GNGSA,A,3,13,01,26,21,27,,,,,,,,1.12,0.65,0.91,3*0B
$GNGSA,A,3,16,10,30,07,08,27,09,,,,,,1.12,0.65,0.91,4*0B
$GPGSV,3,1,11,01,42,170,31,04,21,196,19,07,56,321,13,08,55,011,21,1*69
$GPGSV,3,2,11,09,29,233,25,16,17,077,31,21,61,134,34,27,25,036,23,1*62
$GPGSV,3,3,11,30,17,320,13,41,46,238,30,50,60,149,28,1*5A
$GPGSV,2,1,05,01,42,170,20,07,56,321,08,08,55,011,15,09,29,233,22,6*66
$GPGSV,2,2,05,27,25,036,21,6*52
$GPGSV,2,1,06,03,00,176,,14,03,291,,17,05,234,,22,07,152,,0*68
$GPGSV,2,2,06,22,07,152,,26,02,096,,0*6B
$GLGSV,2,1,06,73,38,348,19,79,13,117,17,80,53,066,23,82,25,026,10,1*7F
$GLGSV,2,2,06,83,74,030,32,84,40,204,11,1*7A
$GLGSV,2,1,06,73,38,348,12,79,13,117,08,80,53,066,17,82,25,026,12,3*7D
$GLGSV,2,2,06,83,74,030,33,84,40,204,11,3*79
$GLGSV,1,1,02,71,03,268,,74,00,320,,0*70
$GAGSV,2,1,06,01,41,335,16,13,36,047,34,18,74,323,13,19,20,218,22,2*7D
$GAGSV,2,2,06,21,50,051,31,26,68,139,28,2*7B
$GAGSV,2,1,07,01,41,335,20,13,36,047,35,18,74,323,21,21,50,051,35,7*79
$GAGSV,2,2,07,26,68,139,32,27,14,098,12,33,29,196,08,7*4B
$GAGSV,1,1,02,04,16,275,,31,01,301,,0*74
$GBGSV,2,1,06,07,56,011,16,08,35,158,23,09,50,220,25,16,37,195,13,1*74
$GBGSV,2,2,06,27,72,027,40,30,50,228,38,1*74
$GBGSV,1,1,04,07,56,011,16,08,35,158,21,09,50,220,24,10,50,325,09,3*71
$GBGSV,3,1,11,01,47,123,,02,46,235,,03,62,189,,04,33,110,,0*70
$GBGSV,3,2,11,04,33,110,,05,23,254,,06,35,189,,13,22,180,,0*7E
$GBGSV,3,3,11,13,22,180,,20,01,208,,23,04,126,,0*45
$GNGLL,2218.06798,N,11410.73566,E,023309.00,A,D*74
$GNVTG,222.41,T,,M,7.500,N,13.891,K,D*11
$GNGGA,023310.00,2218.06642,N,11410.73412,E,2,12,0.67,6.9,M,-1.6,M,,0000*5C
$GNGSA,A,3,08,21,30,16,07,01,27,09,,,,,1.14,0.67,0.92,1*0A
$GNGSA,A,3,79,73,80,83,82,84,,,,,,,1.14,0.67,0.92,2*03
$GNGSA,A,3,13,01,26,21,27,,,,,,,,1.14,0.67,0.92,3*0C
$GNGSA,A,3,16,30,07,08,27,09,,,,,,,1.14,0.67,0.92,4*0D
$GPGSV,3,1,10,01,42,170,24,04,21,196,17,07,56,321,38,08,55,011,20,1*6A
$GPGSV,3,2,10,09,29,233,23,16,17,077,25,21,61,134,26,27,25,036,19,1*6A
$GPGSV,3,3,10,30,17,320,11,41,46,238,33,1*6F
$GPGSV,1,1,01,07,56,321,27,5*50
$GPGSV,1,1,04,01,42,170,19,08,55,011,15,09,29,233,21,27,25,036,20,6*64
$GPGSV,2,1,07,03,00,176,,14,03,291,,17,05,234,,22,07,152,,0*69
$GPGSV,2,2,07,22,07,152,,26,02,096,,40,20,257,,0*5C
$GLGSV,2,1,06,73,38,348,21,79,13,117,15,80,53,066,26,82,25,026,13,1*70
$GLGSV,2,2,06,83,74,030,26,84,40,204,14,1*7A
$GLGSV,2,1,06,73,38,348,14,79,13,117,10,80,53,066,19,82,25,026,08,3*77
$GLGSV,2,2,06,83,74,030,27,84,40,204,08,3*74
$GLGSV,1,1,02,71,03,268,,74,00,320,,0*70
$GAGSV,2,1,05,01,41,335,14,13,36,047,21,18,74,323,39,21,50,051,23,2*72
$GAGSV,2,2,05,26,68,139,24,2*44
$GAGSV,2,1,08,01,41,335,17,13,36,047,23,18,74,323,45,19,20,218,25,7*75
$GAGSV,2,2,08,21,50,051,27,26,68,139,26,27,14,098,10,33,29,196,08,7*74
$GAGSV,1,1,02,04,16,275,,31,01,301,,0*74
$GBGSV,2,1,07,07,56,011,17,08,35,158,31,09,50,220,24,10,50,325,18,1*73
$GBGSV,2,2,07,16,37,195,15,27,72,027,39,30,50,228,30,1*49
$GBGSV,1,1,03,07,56,011,15,08,35,158,23,09,50,220,21,3*4B
$GBGSV,3,1,11,01,47,123,,02,46,235,,03,62,189,,04,33,110,,0*70
$GBGSV,3,2,11,04,33,110,,05,23,254,,06,35,189,,13,22,180,,0*7E
$GBGSV,3,3,11,13,22,180,,20,01,208,,23,04,126,,0*45
$GNGLL,2218.06642,N,11410.73412,E,023310.00,A,D*78
$GNVTG,185.91,T,,M,8.242,N,15.264,K,D*1A
$GNGGA,023311.00,2218.06386,N,11410.73414,E,2,12,0.67,7.2,M,-1.6,M,,0000*5C
$GNGSA,A,3,08,21,30,16,07,01,27,09,,,,,1.27,0.67,1.08,1*08
$GNGSA,A,3,79,73,80,83,82,84,,,,,,,1.27,0.67,1.08,2*01
$GNGSA,A,3,13,01,26,21,27,,,,,,,,1.27,0.67,1.08,3*0E
$GNGSA,A,3,16,10,30,07,08,27,09,,,,,,1.27,0.67,1.08,4*0E
$GPGSV,3,1,10,01,42,170,31,04,21,196,16,07,56,321,29,08,55,011,19,1*65
$GPGSV,3,2,10,09,29,233,22,16,17,077,25,21,61,134,42,27,25,036,22,1*61
$GPGSV,3,3,10,30,17,320,26,41,46,238,27,1*6E
$GPGSV,2,1,06,01,42,170,21,07,56,321,27,08,55,011,15,09,29,233,19,6*61
$GPGSV,2,2,06,27,25,036,19,30,17,320,25,6*69
$GPGSV,2,1,07,03,00,176,,14,03,291,,17,05,234,,22,07,152,,0*69
$GPGSV,2,2,07,22,07,152,,26,02,096,,40,20,257,,0*5C
$GLGSV,2,1,06,73,38,348,22,79,13,117,15,80,53,066,24,82,25,026,09,1*7A
$GLGSV,2,2,06,83,74,030,22,84,40,204,13,1*79
$GLGSV,2,1,06,73,38,348,15,79,13,117,11,80,53,066,17,82,25,026,11,3*71
$GLGSV,2,2,06,83,74,030,14,84,40,204,13,3*7E
$GLGSV,1,1,02,71,03,268,,74,00,320,,0*70
$GAGSV,2,1,05,01,41,335,14,13,36,047,18,18,74,323,25,21,50,051,20,2*76
$GAGSV,2,2,05,26,68,139,24,2*44
$GAGSV,2,1,06,01,41,335,16,18,74,323,27,19,20,218,22,21,50,051,23,7*7F
$GAGSV,2,2,06,26,68,139,27,27,14,098,07,7*77
$GAGSV,1,1,03,04,16,275,,31,01,301,,33,29,196,,0*40
$GBGSV,2,1,07,07,56,011,16,08,35,158,31,09,50,220,20,10,50,325,27,1*7A
$GBGSV,2,2,07,16,37,195,17,27,72,027,25,30,50,228,21,1*46
$GBGSV,1,1,04,07,56,011,12,08,35,158,29,09,50,220,18,10,50,325,27,3*7E
$GBGSV,3,1,11,01,47,123,,02,46,235,,03,62,189,,04,33,110,,0*70
$GBGSV,3,2,11,04,33,110,,05,23,254,,06,35,189,,13,22,180,,0*7E
$GBGSV,3,3,11,13,22,180,,20,01,208,,23,04,126,,0*45
$GNGLL,2218.06386,N,11410.73414,E,023311.00,A,D*72
$GNVTG,144.43,T,,M,8.366,N,15.494,K,D*16
$GNGGA,023312.00,2218.06214,N,11410.73602,E,2,12,0.61,7.7,M,-1.6,M,,0000*53
$GNGSA,A,3,08,21,30,50,16,07,01,27,09,,,,1.09,0.61,0.91,1*06
$GNGSA,A,3,79,73,80,83,82,84,,,,,,,1.09,0.61,0.91,2*0A
$GNGSA,A,3,13,01,26,21,,,,,,,,,1.09,0.61,0.91,3*00
$GNGSA,A,3,16,10,30,07,08,27,09,,,,,,1.09,0.61,0.91,4*05
$GPGSV,3,1,09,01,42,170,31,07,56,321,25,08,55,011,21,09,29,233,38,1*6F
$GPGSV,3,2,09,16,17,077,26,21,61,134,42,27,25,036,22,30,17,320,31,1*6C
$GPGSV,3,3,09,50,60,149,40,1*56
$GPGSV,2,1,06,01,42,170,25,07,56,321,24,08,55,011,16,09,29,233,28,6*67
$GPGSV,2,2,06,27,25,036,17,30,17,320,27,6*65
$GPGSV,2,1,08,03,00,176,,04,21,196,,14,03,291,,17,05,234,,0*6E
$GPGSV,2,2,08,17,05,234,,22,07,152,,26,02,096,,40,20,257,,0*65
$GLGSV,2,1,06,73,38,348,22,79,13,117,14,80,53,066,36,82,25,026,08,1*79
$GLGSV,2,2,06,83,74,030,30,84,40,204,10,1*79
$GLGSV,2,1,06,73,38,348,09,79,13,117,10,80,53,066,29,82,25,026,13,3*72
$GLGSV,2,2,06,83,74,030,29,84,40,204,09,3*7B
$GLGSV,1,1,02,71,03,268,,74,00,320,,0*70
$GAGSV,2,1,05,01,41,335,09,13,36,046,33,18,74,323,34,21,50,051,33,2*70
$GAGSV,2,2,05,26,68,139,36,2*47
$GAGSV,2,1,05,01,41,335,14,18,74,323,39,19,20,218,19,21,50,051,40,7*7C
$GAGSV,2,2,05,26,68,139,41,7*42
$GAGSV,1,1,04,04,16,275,,27,14,098,,31,01,301,,33,29,196,,0*76
$GBGSV,2,1,08,07,56,011,17,08,35,158,32,09,50,220,16,10,50,325,25,1*70
$GBGSV,2,2,08,13,22,180,16,16,37,195,19,27,72,027,44,30,50,228,35,1*79
$GBGSV,1,1,04,07,56,011,13,08,35,158,29,09,50,220,15,10,50,325,19,3*7F
$GBGSV,3,1,10,01,47,123,,02,46,235,,03,62,189,,04,33,110,,0*71
$GBGSV,3,2,10,04,33,110,,05,23,254,,06,35,189,,20,01,208,,0*7D
$GBGSV,3,3,10,20,01,208,,23,04,126,,0*7F
$GNGLL,2218.06214,N,11410.73602,E,023312.00,A,D*7E
$GNVTG,134.37,T,,M,9.475,N,17.547,K,D*1B
$GNGGA,023313.00,2218.06020,N,11410.73808,E,2,12,0.66,7.8,M,-1.6,M,,0000*5B
$GNGSA,A,3,08,21,30,50,16,07,01,27,09,,,,1.23,0.66,1.04,1*04
$GNGSA,A,3,79,73,80,83,82,84,,,,,,,1.23,0.66,1.04,2*08
$GNGSA,A,3,13,01,26,21,,,,,,,,,1.23,0.66,1.04,3*02
$GNGSA,A,3,16,10,30,07,08,27,09,,,,,,1.23,0.66,1.04,4*07
$GPGSV,3,1,10,01,42,170,40,07,56,321,39,08,55,011,41,09,29,233,19,1*69
$GPGSV,3,2,10,16,17,077,23,21,61,134,42,27,25,036,31,30,17,320,32,1*60
$GPGSV,3,3,10,41,46,238,31,50,60,149,38,1*6D
$GPGSV,2,1,06,01,42,170,32,07,56,321,34,08,55,011,30,09,29,233,17,6*68
$GPGSV,2,2,06,27,25,036,29,30,17,320,27,6*68
$GPGSV,2,1,07,03,00,176,,04,21,196,,14,03,291,,17,05,234,,0*61
$GPGSV,2,2,07,17,05,234,,22,07,152,,26,02,096,,0*5C
$GLGSV,2,1,06,73,38,348,30,79,13,117,13,80,53,066,34,82,25,026,12,1*74
$GLGSV,2,2,06,83,74,030,31,84,40,204,08,1*71
$GLGSV,2,1,06,73,38,348,15,79,13,117,11,80,53,066,29,82,25,026,13,3*7E
$GLGSV,2,2,06,83,74,030,31,84,40,204,17,3*7D
$GLGSV,1,1,02,71,03,268,,74,00,320,,0*70
$GAGSV,1,1,04,13,36,046,33,18,74,323,39,21,50,051,34,26,68,139,36,2*74
$GAGSV,2,1,05,01,41,335,14,13,36,046,37,18,74,323,43,21,50,051,39,7*77
$GAGSV,2,2,05,26,68,139,41,7*42
$GAGSV,2,1,05,04,16,275,,19,20,218,,27,14,098,,31,01,301,,0*70
$GAGSV,2,2,05,31,01,301,,0*40
$GBGSV,2,1,08,07,56,011,38,08,35,158,27,09,50,220,16,10,50,325,30,1*7D
$GBGSV,2,2,08,13,22,180,16,16,37,195,21,27,72,027,44,30,50,228,26,1*70
$GBGSV,1,1,04,07,56,011,35,08,35,158,28,10,50,325,21,16,37,195,16,3*70
$GBGSV,3,1,10,01,47,123,,02,46,235,,03,62,189,,04,33,110,,0*71
$GBGSV,3,2,10,04,33,110,,05,23,254,,06,35,189,,20,01,208,,0*7D
$GBGSV,3,3,10,20,01,208,,23,04,126,,0*7F
$GNGLL,2218.06020,N,11410.73808,E,023313.00,A,D*7E
$GNVTG,136.68,T,,M,11.057,N,20.478,K,D*27
$GNGGA,023314.00,2218.05801,N,11410.74038,E,2,12,0.68,7.8,M,-1.6,M,,0000*56
$GNGSA,A,3,08,21,30,50,16,07,01,27,09,,,,1.28,0.68,1.09,1*0C
$GNGSA,A,3,79,73,80,83,82,84,,,,,,,1.28,0.68,1.09,2*00
$GNGSA,A,3,13,01,26,21,,,,,,,,,1.28,0.68,1.09,3*0A
$GNGSA,A,3,16,10,30,07,08,27,09,,,,,,1.28,0.68,1.09,4*0F
$GPGSV,3,1,10,01,42,170,40,07,56,321,42,08,55,011,42,09,29,233,18,1*67
$GPGSV,3,2,10,16,17,077,19,21,61,134,42,27,25,036,34,30,17,320,25,1*6A
$GPGSV,3,3,10,41,46,238,28,50,60,149,38,1*65
$GPGSV,2,1,06,01,42,170,33,07,56,321,34,08,55,011,35,09,29,233,16,6*6D
$GPGSV,2,2,06,27,25,036,29,30,17,320,25,6*6A
$GPGSV,2,1,07,03,00,176,,04,21,196,,14,03,291,,17,05,234,,0*61
$GPGSV,2,2,07,17,05,234,,22,07,152,,26,02,096,,0*5C
$GLGSV,2,1,06,73,38,348,24,79,13,117,13,80,53,066,35,82,25,026,16,1*74
$GLGSV,2,2,06,83,74,030,32,84,40,204,11,1*7A
$GLGSV,2,1,06,73,38,348,13,79,13,117,09,80,53,066,29,82,25,026,16,3*74
$GLGSV,2,2,06,83,74,030,32,84,40,204,14,3*7D
$GLGSV,1,1,02,71,03,268,,74,00,320,,0*70
$GAGSV,1,1,04,13,36,046,29,18,74,326,39,21,50,051,33,26,68,139,35,2*7E
$GAGSV,2,1,06,01,41,335,15,13,36,046,31,18,74,326,43,19,20,218,19,7*77
$GAGSV,2,2,06,21,50,051,40,26,68,139,41,7*77
$GAGSV,1,1,04,04,16,275,,27,14,098,,31,01,301,,33,29,196,,0*76
$GBGSV,2,1,08,07,56,011,37,08,35,158,25,09,50,220,17,10,50,325,31,1*70
$GBGSV,2,2,08,13,22,180,16,16,37,195,20,27,72,027,43,30,50,228,23,1*73
$GBGSV,1,1,04,07,56,011,34,08,35,158,25,10,50,325,29,16,37,195,16,3*74
$GBGSV,3,1,10,01,47,123,,02,46,235,,03,62,189,,04,33,110,,0*71
$GBGSV,3,2,10,04,33,110,,05,23,254,,06,35,189,,20,01,208,,0*7D
$GBGSV,3,3,10,20,01,208,,23,04,126,,0*7F
$GNGLL,2218.05801,N,11410.74038,E,023314.00,A,D*7D
$GNVTG,140.38,T,,M,12.657,N,23.441,K,D*2F
$GNGGA,023315.00,2218.05538,N,11410.74280,E,2,12,0.65,7.9,M,-1.6,M,,0000*5D
$GNGSA,A,3,08,21,30,50,16,07,01,27,09,,,,1.22,0.65,1.03,1*01
$GNGSA,A,3,79,73,80,83,82,84,,,,,,,1.22,0.65,1.03,2*0D
$GNGSA,A,3,13,01,26,21,,,,,,,,,1.22,0.65,1.03,3*07
$GNGSA,A,3,16,10,30,07,08,27,09,,,,,,1.22,0.65,1.03,4*02
$GPGSV,3,1,11,01,42,170,38,04,21,196,23,07,56,321,42,08,55,011,43,1*69
$GPGSV,3,2,11,09,29,233,17,16,17,077,17,21,61,134,40,27,25,036,34,1*62
$GPGSV,3,3,11,30,17,320,22,41,46,238,27,50,60,149,38,1*5F
$GPGSV,2,1,06,01,42,170,32,07,56,321,33,08,55,011,35,09,29,233,15,6*68
$GPGSV,2,2,06,27,25,036,29,30,17,320,21,6*6E
$GPGSV,2,1,06,03,00,176,,14,03,291,,17,05,234,,22,07,152,,0*68
$GPGSV,2,2,06,22,07,152,,26,02,096,,0*6B
$GLGSV,2,1,06,73,38,348,25,79,13,117,13,80,53,066,33,82,25,026,34,1*73
$GLGSV,2,2,06,83,74,030,32,84,40,204,13,1*78
$GLGSV,2,1,06,73,38,348,19,79,13,117,07,80,53,066,29,82,25,026,31,3*75
$GLGSV,2,2,06,83,74,030,32,84,40,204,17,3*7E
$GLGSV,1,1,02,71,03,268,,74,00,320,,0*70
$GAGSV,1,1,04,13,36,046,21,18,74,326,39,21,50,051,33,26,68,139,36,2*75
$GAGSV,2,1,08,01,41,335,19,13,36,046,26,18,74,326,43,19,19,217,16,7*79
$GAGSV,2,2,08,21,50,051,40,26,68,139,41,27,14,098,04,33,29,196,22,7*79
$GAGSV,1,1,02,04,16,275,,31,01,301,,0*74
$GBGSV,2,1,08,07,56,011,37,08,35,158,22,09,50,220,16,10,50,325,31,1*76
$GBGSV,2,2,08,13,22,180,17,16,37,195,20,27,72,027,43,30,50,228,22,1*73
$GBGSV,1,1,04,07,56,011,33,08,35,158,22,10,50,325,29,16,37,195,18,3*7A
$GBGSV,3,1,10,01,47,123,,02,46,235,,03,62,189,,04,33,110,,0*71
$GBGSV,3,2,10,04,33,110,,05,23,254,,06,35,189,,20,01,208,,0*7D
$GBGSV,3,3,10,20,01,208,,23,04,126,,0*7F
$GNGLL,2218.05538,N,11410.74280,E,023315.00,A,D*7A
$GNVTG,143.05,T,,M,13.751,N,25.467,K,D*26
$GNGGA,023316.00,2218.05236,N,11410.74533,E,2,12,0.65,8.0,M,-1.6,M,,0000*5E
$GNGSA,A,3,08,21,30,50,16,07,01,27,09,,,,1.22,0.65,1.03,1*01
$GNGSA,A,3,79,73,80,83,82,84,,,,,,,1.22,0.65,1.03,2*0D
$GNGSA,A,3,13,01,26,21,,,,,,,,,1.22,0.65,1.03,3*07
$GNGSA,A,3,16,10,30,07,08,27,09,,,,,,1.22,0.65,1.03,4*02
$GPGSV,3,1,10,01,42,170,34,04,21,196,23,07,56,321,42,08,55,011,43,1*64
$GPGSV,3,2,10,09,29,233,17,16,17,077,17,21,61,134,42,27,25,036,34,1*61
$GPGSV,3,3,10,30,17,320,26,50,60,149,39,1*60
$GPGSV,1,1,01,04,21,196,16,5*5F
$GPGSV,2,1,06,01,42,170,25,07,56,321,34,08,55,011,37,09,29,233,14,6*6A
$GPGSV,2,2,06,27,25,036,33,30,17,320,21,6*65
$GPGSV,2,1,07,03,00,176,,14,03,291,,17,05,234,,22,07,152,,0*69
$GPGSV,2,2,07,22,07,152,,26,02,096,,40,20,257,,0*5C
$GLGSV,2,1,06,73,38,348,24,79,13,117,14,80,53,066,34,82,25,026,30,1*76
$GLGSV,2,2,06,83,74,030,32,84,40,204,13,1*78
$GLGSV,2,1,06,73,38,348,21,79,13,117,08,80,53,066,29,82,25,026,30,3*70
$GLGSV,2,2,06,83,74,030,32,84,40,204,14,3*7D
$GLGSV,1,1,02,71,03,268,,74,00,320,,0*70
$GAGSV,1,1,04,13,36,046,31,18,74,326,39,21,50,052,34,26,68,139,36,2*70
$GAGSV,2,1,06,01,41,335,23,13,36,046,37,18,74,326,43,21,50,052,39,7*76
$GAGSV,2,2,06,26,68,139,41,27,14,098,07,7*77
$GAGSV,1,1,04,04,16,275,,19,19,217,,31,01,301,,33,29,196,,0*73
$GBGSV,2,1,08,07,56,011,34,08,35,158,18,09,50,220,14,10,50,325,37,1*78
$GBGSV,2,2,08,13,22,180,17,16,37,195,19,27,72,027,44,30,50,228,20,1*7C
$GBGSV,1,1,04,07,56,011,34,08,35,158,17,10,50,325,34,16,37,195,18,3*77
$GBGSV,3,1,10,01,47,123,,02,46,235,,03,62,189,,04,33,110,,0*71
$GBGSV,3,2,10,04,33,110,,05,23,254,,06,35,189,,20,01,208,,0*7D
$GBGSV,3,3,10,20,01,208,,23,04,126,,0*7F
$GNGLL,2218.05236,N,11410.74533,E,023316.00,A,D*7F
$GNVTG,143.26,T,,M,14.975,N,27.735,K,D*2E
$GNGGA,023317.00,2218.04912,N,11410.74800,E,2,12,0.70,8.1,M,-1.6,M,,0000*5B
$GNGSA,A,3,08,21,30,04,50,16,07,01,27,09,,,1.37,0.70,1.18,1*0F
$GNGSA,A,3,79,73,80,83,82,84,,,,,,,1.37,0.70,1.18,2*07
$GNGSA,A,3,13,01,26,21,,,,,,,,,1.37,0.70,1.18,3*0D
$GNGSA,A,3,16,10,30,07,08,27,09,,,,,,1.37,0.70,1.18,4*08
$GPGSV,3,1,10,01,42,170,30,04,21,196,21,07,56,321,42,08,55,011,42,1*63
$GPGSV,3,2,10,09,29,233,20,16,17,077,16,21,61,134,42,27,25,036,34,1*64
$GPGSV,3,3,10,30,17,320,32,50,60,149,38,1*64
$GPGSV,2,1,07,01,42,170,25,04,21,196,15,07,56,321,34,08,55,011,37,6*63
$GPGSV,2,2,07,09,29,233,16,27,25,036,32,30,17,320,29,6*5A
$GPGSV,2,1,07,03,00,176,,14,03,291,,17,05,234,,22,07,152,,0*69
$GPGSV,2,2,07,22,07,152,,26,02,096,,40,20,257,,0*5C
$GLGSV,2,1,06,73,38,348,30,79,13,117,14,80,53,066,20,82,25,026,36,1*70
$GLGSV,2,2,06,83,74,030,32,84,40,204,20,1*78
$GLGSV,2,1,06,73,38,348,21,79,13,117,11,80,53,066,25,82,25,026,33,3*77
$GLGSV,2,2,06,83,74,030,31,84,40,204,17,3*7D
$GLGSV,1,1,02,71,03,268,,74,00,320,,0*70
$GAGSV,1,1,04,13,36,046,32,18,74,326,39,21,50,052,34,26,68,139,36,2*73
$GAGSV,2,1,07,01,41,335,21,13,36,046,38,18,74,326,43,21,50,052,39,7*7A
$GAGSV,2,2,07,26,68,139,41,27,14,098,11,33,29,196,22,7*44
$GAGSV,1,1,03,04,16,275,,19,19,217,,31,01,301,,0*41
$GBGSV,2,1,08,07,56,011,37,08,35,158,16,09,50,220,15,10,50,325,37,1*74
$GBGSV,2,2,08,13,22,180,21,16,37,195,29,27,72,027,43,30,50,228,19,1*77
$GBGSV,1,1,04,07,56,011,34,08,35,158,15,10,50,325,34,16,37,195,29,3*77
$GBGSV,3,1,10,01,47,123,,02,46,235,,03,62,189,,04,33,110,,0*71
$GBGSV,3,2,10,04,33,110,,05,23,254,,06,35,189,,20,01,208,,0*7D
$GBGSV,3,3,10,20,01,208,,23,04,126,,0*7F
$GNGLL,2218.04912,N,11410.74800,E,023317.00,A,D*7F
$(?ÿÿ?ÿÿ?
$?ÿÿíÒÿÿ?‹Q
$GNVTG,140.74,T,,M,16.072,N,29.766,K,D*2E
$GNGGA,023318.00,2218.04561,N,11410.75104,E,2,12,0.59,8.3,M,-1.6,M,,0000*59
$GNGSA,A,3,08,21,30,04,50,16,07,01,27,09,,,1.14,0.59,0.97,1*03
$GNGSA,A,3,79,73,80,83,82,84,,,,,,,1.14,0.59,0.97,2*0B
$GNGSA,A,3,13,01,26,21,,,,,,,,,1.14,0.59,0.97,3*01
$GNGSA,A,3,16,10,30,07,08,27,09,,,,,,1.14,0.59,0.97,4*04
$GPGSV,3,1,09,04,21,196,20,07,56,321,42,08,55,011,44,09,29,233,22,1*6E
$GPGSV,3,2,09,16,17,077,15,21,61,134,42,27,25,036,38,30,17,320,33,1*65
$GPGSV,3,3,09,50,60,149,38,1*59
$GPGSV,2,1,07,01,42,170,22,04,21,196,13,07,56,321,34,08,55,011,33,6*66
$GPGSV,2,2,07,09,29,233,16,27,25,036,28,30,17,320,28,6*50
$GPGSV,2,1,07,03,00,176,,14,03,291,,17,05,234,,22,07,152,,0*69
$GPGSV,2,2,07,22,07,152,,26,02,096,,40,20,257,,0*5C
$GLGSV,2,1,06,73,38,348,42,79,13,117,16,80,53,066,18,82,25,026,40,1*7D
$GLGSV,2,2,06,83,74,030,32,84,40,204,29,1*71
$GLGSV,2,1,06,73,38,348,29,79,13,117,10,80,53,066,21,82,25,026,32,3*7B
$GLGSV,2,2,06,83,74,030,31,84,40,204,32,3*7A
$GLGSV,1,1,02,71,03,268,,74,00,320,,0*70
$GAGSV,1,1,04,13,36,046,36,18,74,326,38,21,50,052,30,26,68,139,36,2*72
$GAGSV,2,1,06,01,41,335,36,13,36,046,36,18,74,326,43,19,19,217,16,7*7B
$GAGSV,2,2,06,21,50,052,35,26,68,139,41,7*76
$GAGSV,1,1,04,04,16,275,,27,14,098,,31,01,301,,33,29,196,,0*76
$GBGSV,2,1,08,07,56,011,38,08,35,158,15,09,50,220,35,10,50,325,37,1*7A
$GBGSV,2,2,08,13,22,180,22,16,37,195,26,27,72,027,44,30,50,228,34,1*73
$GBGSV,2,1,05,07,56,011,30,08,35,158,14,09,50,220,32,10,50,325,34,3*78
$GBGSV,2,2,05,16,37,195,20,3*4D
$GBGSV,3,1,10,01,47,123,,02,46,235,,03,62,189,,04,33,110,,0*71
$GBGSV,3,2,10,04,33,110,,05,23,254,,06,35,189,,20,01,208,,0*7D
$GBGSV,3,3,10,20,01,208,,23,04,126,,0*7F
$GNGLL,2218.04561,N,11410.75104,E,023318.00,A,D*74
$GNVTG,138.79,T,,M,17.247,N,31.941,K,D*2B
$GNGGA,023319.00,2218.04201,N,11410.75442,E,2,12,0.65,8.6,M,-1.6,M,,0000*54
$GNGSA,A,3,08,21,30,04,50,16,07,01,27,09,,,1.34,0.65,1.17,1*07
$GNGSA,A,3,79,73,80,83,82,84,,,,,,,1.34,0.65,1.17,2*0F
$GNGSA,A,3,13,01,26,21,,,,,,,,,1.34,0.65,1.17,3*05
$GNGSA,A,3,16,10,30,07,08,27,09,,,,,,1.34,0.65,1.17,4*00
$GPGSV,3,1,09,04,21,196,18,07,56,321,42,08,55,011,42,09,29,233,39,1*69
$GPGSV,3,2,09,16,17,077,14,21,61,134,42,27,25,036,28,30,17,320,32,1*64
$GPGSV,3,3,09,50,60,149,39,1*58
$GPGSV,2,1,07,01,42,170,20,04,21,196,11,07,56,321,33,08,55,011,38,6*6A
$GPGSV,2,2,07,09,29,233,29,27,25,036,26,30,17,320,28,6*52
$GPGSV,2,1,07,03,00,176,,14,03,291,,17,05,234,,22,07,152,,0*69
$GPGSV,2,2,07,22,07,152,,26,02,096,,40,20,257,,0*5C
$GLGSV,2,1,06,73,38,348,39,79,13,117,18,80,53,066,16,82,25,026,38,1*7E
$GLGSV,2,2,06,83,74,030,32,84,40,204,20,1*78
$GLGSV,2,1,06,73,38,348,31,79,13,117,14,80,53,066,13,82,25,026,35,3*70
$GLGSV,2,2,06,83,74,030,31,84,40,204,25,3*7C
$GLGSV,1,1,02,71,03,268,,74,00,320,,0*70
$GAGSV,1,1,04,13,36,046,25,18,74,326,39,21,50,052,21,26,69,137,36,2*7E
$GAGSV,2,1,06,01,41,335,39,13,36,046,25,18,74,326,43,21,50,052,25,7*73
$GAGSV,2,2,06,26,69,137,41,33,29,196,22,7*7B
$GAGSV,1,1,04,04,16,275,,19,19,217,,27,14,098,,31,01,301,,0*77
$GBGSV,2,1,08,07,56,011,36,08,35,158,18,09,50,220,35,10,50,325,37,1*79
$GBGSV,2,2,08,13,22,180,21,16,37,195,24,27,72,027,43,30,50,228,39,1*78
$GBGSV,2,1,05,07,56,011,31,08,35,158,14,09,50,220,34,10,50,325,34,3*7F
$GBGSV,2,2,05,16,37,195,18,3*46
$GBGSV,3,1,10,01,47,123,,02,46,235,,03,62,189,,04,33,110,,0*71
$GBGSV,3,2,10,04,33,110,,05,23,254,,06,35,189,,20,01,208,,0*7D
$GBGSV,3,3,10,20,01,208,,23,04,126,,0*7F
$GNGLL,2218.04201,N,11410.75442,E,023319.00,A,D*73
$GNVTG,138.78,T,,M,18.044,N,33.417,K,D*28
$GNGGA,023320.00,2218.03825,N,11410.75789,E,2,12,0.67,8.6,M,-1.6,M,,0000*53
$GNGSA,A,3,08,21,30,50,16,07,01,27,09,,,,1.37,0.67,1.19,1*0C
$GNGSA,A,3,79,73,80,83,82,84,,,,,,,1.37,0.67,1.19,2*00
$GNGSA,A,3,13,01,26,21,,,,,,,,,1.37,0.67,1.19,3*0A
$GNGSA,A,3,16,10,30,07,08,27,09,,,,,,1.37,0.67,1.19,4*0F
$GPGSV,3,1,10,01,42,170,29,07,56,321,41,08,55,011,33,09,29,233,40,1*60
$GPGSV,3,2,10,16,17,077,15,21,61,134,41,27,25,036,24,30,17,320,30,1*60
$GPGSV,3,3,10,41,46,238,39,50,60,149,38,1*65
$GPGSV,2,1,07,01,42,170,20,04,21,196,10,07,56,321,33,08,55,011,28,6*6A
$GPGSV,2,2,07,09,29,233,30,27,25,036,22,30,17,320,28,6*5E
$GPGSV,2,1,06,03,00,176,,14,03,291,,17,05,234,,22,07,152,,0*68
$GPGSV,2,2,06,22,07,152,,26,02,096,,0*6B
$GLGSV,2,1,06,73,38,348,42,79,13,117,18,80,53,066,11,82,25,026,25,1*79
$GLGSV,2,2,06,83,74,030,32,84,40,204,20,1*78
$GLGSV,2,1,06,73,38,348,35,79,13,117,10,80,53,066,11,82,25,026,25,3*73
$GLGSV,2,2,06,83,74,030,31,84,40,204,24,3*7D
$GLGSV,1,1,02,71,03,268,,74,00,320,,0*70
$GAGSV,2,1,05,01,41,335,34,13,36,046,21,18,74,326,39,21,50,052,18,2*7F
$GAGSV,2,2,05,26,69,137,36,2*48
$GAGSV,2,1,06,01,41,335,36,13,36,046,21,18,74,326,43,21,50,052,22,7*7F
$GAGSV,2,2,06,26,69,137,41,33,29,196,23,7*7A
$GAGSV,1,1,04,04,16,275,,19,19,217,,27,14,098,,31,01,301,,0*77
$GBGSV,2,1,08,07,56,011,30,08,35,158,20,09,50,220,35,10,50,325,37,1*74
$GBGSV,2,1,05,07,56,011,30,08,35,158,14,09,50,220,31,10,50,325,34,3*7B
$GBGSV,2,2,05,16,37,195,19,3*47
$GBGSV,3,1,10,01,47,123,,02,46,235,,03,62,189,,04,33,110,,0*71
$GBGSV,3,2,10,04,33,110,,05,23,254,,06,35,189,,20,01,208,,0*7D
$GBGSV,3,3,10,20,01,208,,23,04,126,,0*7F
$GNGLL,2218.03825,N,11410.75789,E,023320.00,A,D*76
$GNVTG,138.27,T,,M,18.855,N,34.920,K,D*24
$GNGGA,023321.00,2218.03435,N,11410.76159,E,2,12,0.64,8.7,M,-1.6,M,,0000*55
$GNGSA,A,3,08,21,30,04,50,16,07,01,27,09,,,1.18,0.64,1.00,1*0E
$GNGSA,A,3,79,73,80,83,82,84,,,,,,,1.18,0.64,1.00,2*06
$GNGSA,A,3,13,01,26,21,33,,,,,,,,1.18,0.64,1.00,3*0C
$GNGSA,A,3,16,10,30,07,08,27,09,,,,,,1.18,0.64,1.00,4*09
$GPGSV,3,1,11,01,42,170,33,04,21,196,20,07,56,321,41,08,55,011,40,1*61
$GPGSV,3,2,11,09,29,233,31,16,17,077,14,21,61,134,41,27,25,036,20,1*61
$GPGSV,3,3,11,30,17,320,30,41,46,238,36,50,60,149,38,1*5C
$GPGSV,2,1,07,01,42,170,28,04,21,196,13,07,56,321,33,08,55,011,28,6*61
$GPGSV,2,2,07,09,29,233,23,27,25,036,16,30,17,320,27,6*54
$GPGSV,2,1,06,03,00,176,,14,03,291,,17,05,234,,22,07,152,,0*68
$GPGSV,2,2,06,22,07,152,,26,02,096,,0*6B
$GLGSV,2,1,06,73,38,348,40,79,13,117,19,80,53,066,14,82,25,026,22,1*78
$GLGSV,2,2,06,83,74,030,31,84,40,204,20,1*7B
$GLGSV,2,1,06,73,38,348,35,79,13,117,12,80,53,066,12,82,25,026,21,3*76
$GLGSV,2,2,06,83,74,030,30,84,40,204,23,3*7B
$GLGSV,1,1,02,71,03,268,,74,00,320,,0*70
$GAGSV,2,1,06,01,41,335,33,13,36,046,19,18,74,326,39,21,50,052,17,2*7F
$GAGSV,2,2,06,26,69,137,36,33,29,196,21,2*7D
$GAGSV,2,1,05,01,41,335,37,18,74,326,43,19,19,217,23,26,69,137,41,7*74
$GAGSV,2,2,05,33,29,196,22,7*43
$GAGSV,1,1,03,04,16,275,,27,14,098,,31,01,301,,0*44
$GBGSV,2,1,08,07,56,011,38,08,35,158,21,09,50,220,24,10,50,325,37,1*7D
$GBGSV,2,2,08,13,22,180,16,16,37,195,27,27,72,027,30,30,50,228,29,1*7A
$GBGSV,2,1,05,07,56,011,34,08,35,158,17,09,50,220,22,10,50,325,34,3*7E
$GBGSV,2,2,05,16,37,195,22,3*4F
$GBGSV,3,1,10,01,47,123,,02,46,235,,03,62,189,,04,33,110,,0*71
$GBGSV,3,2,10,04,33,110,,05,23,254,,06,35,189,,20,01,208,,0*7D
$GBGSV,3,3,10,20,01,208,,23,04,126,,0*7F
$GNGLL,2218.03435,N,11410.76159,E,023321.00,A,D*72
$GNVTG,138.69,T,,M,19.159,N,35.483,K,D*2F
$GNGGA,023322.00,2218.03040,N,11410.76540,E,2,12,0.73,8.9,M,-1.6,M,,0000*54
$GNGSA,A,3,08,21,30,04,50,16,07,27,09,,,,1.42,0.73,1.22,1*06
$GNGSA,A,3,79,73,80,83,82,84,,,,,,,1.42,0.73,1.22,2*0F
$GNGSA,A,3,13,01,26,21,,,,,,,,,1.42,0.73,1.22,3*05
$GNGSA,A,3,10,30,07,08,27,09,,,,,,,1.42,0.73,1.22,4*07
$GPGSV,3,1,10,01,42,170,18,07,56,321,41,08,55,011,29,09,29,233,34,1*6A
$GPGSV,3,2,10,16,17,077,14,21,61,134,41,27,25,036,14,30,17,320,30,1*62
$GPGSV,3,3,10,41,46,238,36,50,60,149,38,1*6A
$GPGSV,2,1,06,04,21,196,16,07,56,321,34,08,55,011,27,09,29,233,23,6*67
$GPGSV,2,2,06,27,25,036,13,30,17,320,27,6*61
$GPGSV,2,1,06,03,00,176,,14,03,291,,17,05,234,,22,07,152,,0*68
$GPGSV,2,2,06,22,07,152,,26,02,096,,0*6B
$GLGSV,2,1,06,73,38,348,29,79,13,117,20,80,53,066,22,82,25,026,18,1*71
$GLGSV,2,2,06,83,74,030,31,84,40,204,19,1*71
$GLGSV,2,1,06,73,38,348,26,79,13,117,13,80,53,066,15,82,25,026,14,3*74
$GLGSV,2,2,06,83,74,030,31,84,40,204,22,3*7B
$GLGSV,1,1,02,71,03,268,,74,00,320,,0*70
$GAGSV,2,1,05,01,41,335,33,13,36,046,16,18,74,326,39,21,50,052,15,2*71
$GAGSV,2,2,05,26,69,137,36,2*48
$GAGSV,2,1,05,01,41,335,38,18,74,326,43,19,19,217,19,21,50,052,20,7*7A
$GAGSV,2,2,05,26,69,137,41,7*4D
$GAGSV,1,1,04,04,16,275,,27,14,098,,31,01,301,,33,29,196,,0*76
$GBGSV,2,1,07,07,56,011,21,08,35,158,21,09,50,220,28,10,50,325,37,1*76
$GBGSV,2,2,07,13,22,180,17,27,72,027,34,30,50,228,36,1*45
$GBGSV,1,1,03,07,56,011,21,09,50,220,29,10,50,325,34,3*40
$GBGSV,3,1,11,01,47,123,,02,46,235,,03,62,189,,04,33,110,,0*70
$GBGSV,3,2,11,04,33,110,,05,23,254,,06,35,189,,16,37,195,,0*7B
$GBGSV,3,3,11,16,37,195,,20,01,208,,23,04,126,,0*40
$GNGLL,2218.03040,N,11410.76540,E,023322.00,A,D*7B
$v?ÿÿ?ÿÿ??‰¢
$GNVTG,138.51,T,,M,19.077,N,35.331,K,D*27
$GNGGA,023323.00,2218.02641,N,11410.76919,E,2,12,0.74,8.9,M,-1.6,M,,0000*54
$GNGSA,A,3,08,21,30,04,50,16,07,27,09,,,,1.44,0.74,1.23,1*06
$GNGSA,A,3,79,73,80,83,82,84,,,,,,,1.44,0.74,1.23,2*0F
$GNGSA,A,3,13,01,26,21,,,,,,,,,1.44,0.74,1.23,3*05
$GNGSA,A,3,10,30,07,08,27,09,,,,,,,1.44,0.74,1.23,4*07
$GPGSV,3,1,10,01,42,170,26,04,21,196,23,07,56,321,42,08,55,011,33,1*60
$GPGSV,3,2,10,09,29,233,38,16,17,077,15,21,61,134,41,30,17,320,29,1*62
$GPGSV,3,3,10,41,46,238,32,50,60,149,38,1*6E
$GPGSV,2,1,07,01,42,170,22,04,21,196,18,07,56,321,33,08,55,011,28,6*60
$GPGSV,2,2,07,09,29,233,29,27,25,036,12,30,17,320,26,6*5B
$GPGSV,2,1,06,03,00,176,,14,03,291,,17,05,234,,22,07,152,,0*68
$GPGSV,2,2,06,22,07,152,,26,02,096,,0*6B
$GLGSV,2,1,06,73,38,348,26,79,13,117,20,80,53,066,24,82,25,026,17,1*77
$GLGSV,2,2,06,83,74,030,31,84,40,204,17,1*7F
$GLGSV,2,1,05,73,38,348,23,79,13,117,13,80,53,066,17,83,74,030,30,3*74
$GLGSV,2,2,05,84,40,204,20,3*43
$GLGSV,1,1,02,71,03,268,,74,00,320,,0*70
$GAGSV,2,1,05,01,41,335,34,13,36,046,15,18,74,326,39,21,50,052,20,2*73
$GAGSV,2,2,05,26,69,137,36,2*48
$GAGSV,2,1,06,01,41,335,38,18,74,326,43,21,50,052,30,26,69,137,41,7*7F
$GAGSV,2,2,06,27,14,098,15,33,30,196,25,7*7A
$GAGSV,1,1,03,04,16,275,,19,19,217,,31,01,301,,0*41
$GBGSV,2,1,08,07,56,011,30,08,35,158,20,09,50,220,25,10,50,325,36,1*74
$GBGSV,2,2,08,13,22,180,19,16,37,195,26,27,72,027,29,30,50,228,33,1*77
$GBGSV,2,1,05,07,56,011,22,08,35,158,23,09,50,220,20,10,50,325,34,3*7C
$GBGSV,2,2,05,16,37,195,21,3*4C
$GBGSV,3,1,10,01,47,123,,02,46,235,,03,62,189,,04,33,110,,0*71
$GBGSV,3,2,10,04,33,110,,05,23,254,,06,35,189,,20,01,208,,0*7D
$GBGSV,3,3,10,20,01,208,,23,04,126,,0*7F
$GNGLL,2218.02641,N,11410.76919,E,023323.00,A,D*7C
$$%%$$'&%%&%(&)+'())H$11+2.54:=BGFSWWZ\^`bb`dcegmlqru{yz}???????????????????????????????????????????????????…~??„}}}{zvzsrlgje^]UVOMJC=95330..-,+',*(&))$%('(!$%&"$"&%$%$#!"$"""!!!!!##$
$y?ÿÿ?ÿÿ?
$GNVTG,138.65,T,,M,18.666,N,34.569,K,D*2D
$GNGGA,023324.00,2218.02247,N,11410.77286,E,2,12,0.78,8.8,M,-1.6,M,,0000*50
$GNGSA,A,3,08,21,30,04,50,16,07,01,27,09,,,1.30,0.78,1.05,1*0C
$GNGSA,A,3,79,73,80,83,82,84,,,,,,,1.30,0.78,1.05,2*04
$GNGSA,A,3,13,01,26,21,,,,,,,,,1.30,0.78,1.05,3*0E
$GNGSA,A,3,10,30,07,16,08,27,09,,,,,,1.30,0.78,1.05,4*0B
$GPGSV,3,1,11,01,42,170,26,04,21,196,22,07,56,321,41,08,55,011,32,1*62
$GPGSV,3,2,11,09,29,233,30,16,17,077,16,21,61,134,41,27,25,036,31,1*62
$GPGSV,3,3,11,30,17,320,28,41,46,238,38,50,60,149,38,1*5B
$GPGSV,2,2,07,09,29,233,28,27,25,036,14,30,17,320,27,6*5D
$GPGSV,2,1,06,03,00,176,,14,03,291,,17,05,234,,22,07,152,,0*68
$GPGSV,2,2,06,22,07,152,,26,02,096,,0*6B
$GLGSV,2,1,06,73,38,348,31,79,13,117,20,80,53,066,34,82,25,026,16,1*71
$GLGSV,2,2,06,83,74,030,31,84,40,204,15,1*7D
$GLGSV,2,1,05,73,38,348,24,79,13,117,11,80,53,066,20,83,74,030,30,3*75
$GLGSV,2,2,05,84,40,204,18,3*48
$GLGSV,1,1,02,71,03,268,,74,00,320,,0*70
$GAGSV,1,1,04,01,41,335,37,18,74,326,39,21,50,052,28,26,69,137,37,2*71
$GAGSV,2,1,07,01,41,335,40,13,36,046,31,18,74,326,44,21,50,052,31,7*7B
$GAGSV,2,2,07,26,69,137,41,27,14,098,13,33,30,196,23,7*40
$GAGSV,1,1,03,04,16,275,,19,19,217,,31,01,301,,0*41
$GBGSV,2,1,08,07,56,011,32,08,35,158,23,09,50,220,25,10,50,325,36,1*75
$GBGSV,2,2,08,13,22,180,21,16,37,195,24,27,72,027,34,30,50,228,28,1*78
$GBGSV,2,1,05,07,56,011,25,08,35,158,21,09,50,220,20,10,50,325,34,3*79
$GBGSV,2,2,05,16,37,195,19,3*47
$GBGSV,3,1,10,01,47,123,,02,46,235,,03,62,189,,04,33,110,,0*71
$GBGSV,3,2,10,04,33,110,,05,23,254,,06,35,189,,20,01,208,,0*7D
$GBGSV,3,3,10,20,01,208,,23,04,126,,0*7F
$GNGLL,2218.02247,N,11410.77286,E,023324.00,A,D*75
$÷ÿÿ'?ÿÿ?fP?
$GNVTG,137.70,T,,M,18.152,N,33.617,K,D*2B
$GNGGA,023325.00,2218.01867,N,11410.77650,E,2,12,1.03,8.9,M,-1.6,M,,0000*59
$GNGSA,A,3,08,21,30,04,50,16,07,01,27,09,,,1.81,1.03,1.49,1*03
$GNGSA,A,3,79,73,80,83,82,84,,,,,,,1.81,1.03,1.49,2*0B
$GNGSA,A,3,13,33,01,26,21,,,,,,,,1.81,1.03,1.49,3*01
$GNGSA,A,3,10,30,07,16,08,27,09,,,,,,1.81,1.03,1.49,4*04
$GPGSV,3,1,09,01,42,170,26,07,56,321,41,08,55,011,27,09,29,233,30,1*65
$GPGSV,3,2,09,16,17,077,15,21,61,134,41,30,17,320,28,41,46,238,30,1*6D
$GPGSV,3,3,09,50,60,149,38,1*59
$GPGSV,2,1,07,01,42,170,25,04,21,196,18,07,56,321,34,08,55,011,23,6*6B
$GPGSV,2,2,07,09,29,233,27,27,25,036,17,30,17,320,26,6*50
$GPGSV,2,1,06,03,00,176,,14,03,291,,17,05,234,,22,07,152,,0*68
$GPGSV,2,2,06,22,07,152,,26,02,096,,0*6B
$GLGSV,2,1,06,73,38,348,31,79,13,117,20,80,53,066,37,82,25,026,17,1*73
$GLGSV,2,2,06,83,74,030,31,84,40,204,12,1*7A
$GLGSV,2,1,05,73,38,348,26,79,13,117,10,80,53,066,25,83,74,030,33,3*70
$GLGSV,2,2,05,84,40,204,16,3*46
$GLGSV,1,1,02,71,03,268,,74,00,320,,0*70
$GAGSV,1,1,03,01,41,335,36,18,74,326,39,26,69,137,36,2*4D
$GAGSV,2,1,07,01,41,335,40,13,36,046,26,18,74,326,44,21,50,052,35,7*79
$GAGSV,2,2,07,26,69,137,41,27,14,098,13,33,30,196,22,7*41
$GAGSV,1,1,03,04,16,275,,19,19,217,,31,01,301,,0*41
$GBGSV,2,1,08,07,56,011,31,08,35,158,23,09,50,220,24,10,50,325,36,1*77
$GBGSV,2,2,08,13,22,180,22,16,37,195,22,27,72,027,45,30,50,228,28,1*7B
$GBGSV,2,1,05,07,56,011,26,08,35,158,19,09,50,220,19,10,50,325,34,3*7B
$GBGSV,2,2,05,16,37,195,18,3*46
$GBGSV,3,1,10,01,47,123,,02,46,235,,03,62,189,,04,33,110,,0*71
$GBGSV,3,2,10,04,33,110,,05,23,254,,06,35,189,,20,01,208,,0*7D
$GBGSV,3,3,10,20,01,208,,23,04,126,,0*7F
$GNGLL,2218.01867,N,11410.77650,E,023325.00,A,D*70
$GNVTG,137.76,T,,M,17.730,N,32.835,K,D*2F
$GNGGA,023326.00,2218.01492,N,11410.78010,E,2,12,1.32,8.9,M,-1.6,M,,0000*53
$GNGSA,A,3,08,21,30,04,50,16,07,01,27,09,,,2.60,1.32,2.24,1*05
$GNGSA,A,3,79,73,80,83,82,84,,,,,,,2.60,1.32,2.24,2*0D
$GNGSA,A,3,13,33,01,26,21,,,,,,,,2.60,1.32,2.24,3*07
$GNGSA,A,3,10,30,07,16,08,27,09,,,,,,2.60,1.32,2.24,4*02
$GPGSV,3,1,10,01,42,170,26,07,56,321,41,08,55,011,27,09,29,233,41,1*6B
$GPGSV,3,2,10,16,17,077,16,21,61,134,42,27,25,036,25,30,17,320,28,1*68
$GPGSV,3,3,10,41,46,238,30,50,60,149,38,1*6C
$GPGSV,2,1,07,01,42,170,23,04,21,196,17,07,56,321,34,08,55,011,18,6*6A
$GPGSV,2,2,07,09,29,233,26,27,25,036,15,30,17,320,27,6*52
$GPGSV,2,1,06,03,00,176,,14,03,291,,17,05,234,,22,07,152,,0*68
$GPGSV,2,2,06,22,07,152,,26,02,096,,0*6B
$GLGSV,2,1,06,73,38,348,37,79,13,117,20,80,53,066,29,82,25,026,20,1*7E
$GLGSV,2,2,06,83,74,030,32,84,40,204,09,1*73
$GLGSV,2,1,05,73,38,348,27,79,13,117,12,80,53,066,23,83,74,030,32,3*74
$GLGSV,2,2,05,84,40,204,16,3*46
$GLGSV,1,1,02,71,03,268,,74,00,320,,0*70
$GAGSV,1,1,04,01,41,335,36,13,36,046,29,18,74,326,40,26,69,137,36,2*7A
$GAGSV,2,1,07,01,41,335,40,13,36,046,24,18,74,326,43,21,50,052,32,7*7B
$GAGSV,2,2,07,26,69,137,41,27,14,098,11,33,30,196,34,7*44
$GAGSV,1,1,03,04,16,275,,19,19,217,,31,01,301,,0*41
$GBGSV,2,1,08,07,56,011,31,08,35,158,29,09,50,220,25,10,50,325,37,1*7D
$GBGSV,2,2,08,13,22,180,20,16,37,195,31,27,72,027,45,30,50,228,29,1*7A
$GBGSV,2,1,05,07,56,011,26,08,35,158,28,09,50,220,19,10,50,325,33,3*7E
$GBGSV,2,2,05,16,37,195,28,3*45
$GBGSV,3,1,10,01,47,123,,02,46,235,,03,62,189,,04,33,110,,0*71
$GBGSV,3,2,10,04,33,110,,05,23,254,,06,35,189,,20,01,208,,0*7D
$GBGSV,3,3,10,20,01,208,,23,04,126,,0*7F
$GNGLL,2218.01492,N,11410.78010,E,023326.00,A,D*78
$GNVTG,136.83,T,,M,15.252,N,28.246,K,D*22
$GNGGA,023327.00,2218.01160,N,11410.78338,E,2,12,1.32,9.2,M,-1.6,M,,0000*59
$GNGSA,A,3,08,21,30,04,50,16,07,01,27,09,,,2.60,1.32,2.24,1*05
$GNGSA,A,3,79,73,80,83,84,,,,,,,,2.60,1.32,2.24,2*07
$GNGSA,A,3,13,01,26,21,,,,,,,,,2.60,1.32,2.24,3*07
$GNGSA,A,3,10,30,07,16,27,09,,,,,,,2.60,1.32,2.24,4*0A
$GPGSV,3,1,11,01,42,170,25,04,21,196,26,07,56,321,41,08,55,011,28,1*6E
$GPGSV,3,2,11,09,29,233,30,16,17,077,16,21,61,134,42,27,25,036,22,1*63
$GPGSV,3,3,11,30,17,320,26,41,46,238,28,50,60,149,40,1*5B
$GPGSV,2,1,07,01,42,170,22,04,21,196,19,07,56,321,34,08,55,011,18,6*65
$GPGSV,2,2,07,09,29,233,26,27,25,036,15,30,17,320,26,6*53
$GPGSV,2,1,06,03,00,176,,14,03,291,,17,05,234,,22,07,152,,0*68
$GPGSV,2,2,06,22,07,152,,26,02,096,,0*6B
$GLGSV,2,1,05,73,38,348,37,79,13,117,20,80,53,066,27,83,74,030,32,1*72
$GLGSV,2,2,05,84,40,204,15,1*47
$GLGSV,2,1,05,73,38,348,28,79,13,117,14,80,53,066,20,83,74,030,31,3*7D
$GLGSV,2,2,05,84,40,204,21,3*42
$GLGSV,1,1,03,71,03,268,,74,00,320,,82,25,026,,0*48
$GAGSV,1,1,04,01,41,335,38,13,36,046,25,18,74,326,40,26,69,137,36,2*78
$GAGSV,2,1,07,01,41,335,41,13,36,046,22,18,74,326,43,21,50,052,27,7*78
$GAGSV,2,2,07,26,69,137,41,27,14,098,11,33,30,196,24,7*45
$GAGSV,1,1,03,04,16,275,,19,19,217,,31,01,301,,0*41
$GBGSV,2,1,07,07,56,011,30,09,50,220,23,10,50,325,37,13,22,180,20,1*75
$GBGSV,2,2,07,16,37,195,31,27,72,027,44,30,50,228,26,1*42
$GBGSV,1,1,04,07,56,011,27,09,50,220,18,10,50,325,34,16,37,195,29,3*76
$GBGSV,3,1,11,01,47,123,,02,46,235,,03,62,189,,04,33,110,,0*70
$GBGSV,3,2,11,04,33,110,,05,23,254,,06,35,189,,08,35,158,,0*77
$GBGSV,3,3,11,08,35,158,,20,01,208,,23,04,126,,0*4C
$GNGLL,2218.01160,N,11410.78338,E,023327.00,A,D*78
$##*##%$%%%"&&E+.4)-,>4;8FBKOSWX^[`_c]cffilorqqyu|{y?????????????????????????????????????????????????????€|zutqsujmed^`[WQQKOE?<8210/,,(*(&((%$%$%###"
$GNVTG,132.77,T,,M,11.223,N,20.785,K,D*2D
$GNGGA,023328.00,2218.00920,N,11410.78604,E,2,12,1.06,9.5,M,-1.6,M,,0000*51
$GNGSA,A,3,08,21,30,04,50,16,07,01,27,09,,,2.21,1.06,1.94,1*0F
$GNGSA,A,3,79,73,80,83,84,,,,,,,,2.21,1.06,1.94,2*0D
$GNGSA,A,3,13,33,01,26,21,,,,,,,,2.21,1.06,1.94,3*0D
$GNGSA,A,3,10,30,07,16,27,09,,,,,,,2.21,1.06,1.94,4*00
$GPGSV,3,1,11,01,42,170,25,04,21,196,25,07,56,321,41,08,55,011,32,1*66
$GPGSV,3,3,11,30,17,320,26,41,46,238,28,50,60,149,38,1*54
$GPGSV,2,1,07,01,42,170,19,04,21,196,20,07,56,321,34,08,55,011,17,6*68
$GPGSV,2,2,07,09,29,233,25,27,25,036,14,30,17,320,25,6*52
$GPGSV,2,1,06,03,00,176,,14,03,291,,17,05,234,,22,07,152,,0*68
$GPGSV,2,2,06,22,07,152,,26,02,096,,0*6B
$GLGSV,2,1,05,73,38,348,29,79,13,117,22,80,53,066,25,83,74,030,32,1*7D
$GLGSV,2,2,05,84,40,204,24,1*45
$GLGSV,2,1,05,73,38,348,17,79,13,117,12,80,53,066,16,83,74,030,31,3*72
$GLGSV,2,2,05,84,40,204,33,3*41
$GLGSV,1,1,03,71,03,268,,74,00,320,,82,25,026,,0*48
$GAGSV,2,1,05,01,41,335,36,13,36,046,20,18,74,326,40,26,69,137,37,2*70
$GAGSV,2,2,05,33,30,196,20,2*4C
$GAGSV,2,1,06,01,41,335,41,18,74,326,43,21,50,052,28,26,69,137,41,7*78
$GAGSV,2,2,06,27,14,098,23,33,30,196,22,7*78
$GAGSV,1,1,03,04,16,275,,19,19,217,,31,01,301,,0*41
$GBGSV,2,1,08,07,56,011,22,08,35,158,19,09,50,220,21,10,50,325,37,1*78
$GBGSV,2,2,08,13,22,180,20,16,37,195,34,27,72,027,43,30,50,228,24,1*74
$GBGSV,2,1,05,07,56,011,24,08,35,158,23,09,50,220,19,10,50,325,35,3*71
$GBGSV,2,2,05,16,37,195,30,3*4C
$GBGSV,3,1,10,01,47,123,,02,46,235,,03,62,189,,04,33,110,,0*71
$GBGSV,3,2,10,04,33,110,,05,23,254,,06,35,189,,20,01,208,,0*7D
$GBGSV,3,3,10,20,01,208,,23,04,126,,0*7F
$GNGLL,2218.00920,N,11410.78604,E,023328.00,A,D*70
$$$#$#!!!!!""!
$ï÷ÿÿùÿÿ??¼«
$GNVTG,135.12,T,,M,6.056,N,11.216,K,D*12
$GNGGA,023329.00,2218.00765,N,11410.78753,E,2,12,1.00,9.6,M,-1.6,M,,0000*59
$GNGSA,A,3,08,21,30,04,50,16,07,01,27,09,,,2.26,1.00,2.03,1*03
$GNGSA,A,3,79,73,80,83,84,,,,,,,,2.26,1.00,2.03,2*01
$GNGSA,A,3,13,01,26,21,,,,,,,,,2.26,1.00,2.03,3*01
$GNGSA,A,3,10,30,07,16,27,09,,,,,,,2.26,1.00,2.03,4*0C
