     3.03           OBSERVATION DATA    M: Mixed            RINEX VERSION / TYPE
RTKCONV demo5 b33c                      20210520 090129 UTC PGM / RUN BY / DATE 
log: C:\Users\Ivan_PolyU_Dktp\Dropbox\HUAWEI Exp\20210517_  COMMENT             
format: RINEX                                               COMMENT             
Geo++                                                       MARKER NAME         
                                                            MARKER NUMBER       
                                                            MARKER TYPE         
                                                            OBSERVER / AGENCY   
unknown             samsung             SM-N9500            REC # / TYPE / VERS 
unknown             SM-N9500                                ANT # / TYPE        
 -2419260.2078  5385457.7566  2405357.8260                  APPROX POSITION XYZ 
        0.0000        0.0000        0.0000                  ANTENNA: DELTA H/E/N
G    3 C1C D1C S1C                                          SYS / # / OBS TYPES 
R    3 C1C D1C S1C                                          SYS / # / OBS TYPES 
C    3 C2I D2I S2I                                          SYS / # / OBS TYPES 
  2021     5    17     2    33   13.4462116     GPS         TIME OF FIRST OBS   
  2021     5    17     2    46   18.4462280     GPS         TIME OF LAST OBS    
G                                                           SYS / PHASE SHIFT   
R                                                           SYS / PHASE SHIFT   
C                                                           SYS / PHASE SHIFT   
  3 R01  1 R09 -2 R17  4                                    GLONASS SLOT / FRQ #
 C1C    0.000 C1P    0.000 C2C    0.000 C2P    0.000        GLONASS COD/PHS/BIS 
                                                            END OF HEADER       
> 2021  5 17  2 33 13.4462116  0 10                     
G 1  21535623.672 1      3110.450          15.000  
G 4  23655127.870 1     -2849.000          12.250  
G 8  21049027.835 1     -1888.850          26.250  
G 9  22982641.523 1     -1987.510          30.750  
G16  24269096.528 1     -1699.300          21.000  
G21  20575791.650 1       865.800          25.250  
G27  23191448.468 1     -3039.600          23.750  
R 9  21073619.511 1      2696.450          22.000  
R18  22170699.818 1     -3879.100          17.250  
R19  19361863.335 1     -1116.350          15.250  
> 2021  5 17  2 33 14.4462116  0 10                     
G 1  21534988.616 1      3116.400          14.000  
G 4  23655670.098 1     -2849.000          12.250  
G 8  21049404.878 1     -1890.950          25.750  
G 9  22983004.775 1     -1986.468          30.250  
G16  24269419.908 1     -1699.300          21.000  
G21  20575605.683 1       860.500          25.250  
G27  23192084.532 1     -3035.950          24.000  
R 9  21073114.564 1      2696.450          22.000  
R18  22171426.719 1     -3879.100          17.250  
R19  19362072.194 1     -1116.350          15.250  
> 2021  5 17  2 33 15.4462116  0 10                     
G 1  21534395.667 1      3116.400          14.000  
G 4  23656212.464 1     -2849.000          12.250  
G 8  21049726.297 1     -1889.650          27.000  
G 9  22983382.854 1     -1984.894          30.250  
G16  24269743.425 1     -1699.300          21.000  
G21  20575459.725 1       868.050          26.000  
G27  23192602.615 1     -3038.250          24.250  
R 9  21072655.024 1      2697.500          21.250  
R18  22172153.457 1     -3879.100          17.250  
R19  19362280.891 1     -1116.350          15.250  
> 2021  5 17  2 33 16.4462116  0 10                     
G 1  21533802.593 1      3116.400          14.000  
G 4  23656754.404 1     -2849.000          12.250  
G 8  21050112.045 1     -1887.250          26.250  
G 9  22983766.804 1     -1982.785          31.000  
G16  24270066.817 1     -1699.300          21.000  
G21  20575281.863 1       866.650          25.750  
G27  23193202.714 1     -3040.250          24.000  
R 9  21072149.789 1      2697.500          21.250  
R18  22172880.069 1     -3879.100          17.250  
R19  19362489.462 1     -1116.350          15.250  
> 2021  5 17  2 33 17.4462116  0 10                     
G 1  21533209.542 1      3116.400          14.000  
G 4  23657296.667 1     -2849.000          12.250  
G 8  21050460.942 1     -1887.350          26.500  
G 9  22984144.181 1     -1982.396          31.500  
G16  24270351.558 1     -1690.800          20.500  
G21  20575106.723 1       864.650          27.500  
G27  23193740.181 1     -3031.200          24.750  
R 9  21071672.458 1      2698.750          21.750  
R18  22173606.705 1     -3879.100          17.250  
R19  19362698.056 1     -1116.350          15.250  
> 2021  5 17  2 33 18.4462117  0 10                     
G 1  21532646.894 1      3116.400          14.000  
G 4  23657869.033 1     -2849.000          12.250  
G 8  21050870.820 1     -1888.350          26.250  
G 9  22984564.852 1     -1983.850          32.000  
G16  24270703.577 1     -1690.800          20.500  
G21  20574976.975 1       865.050          26.250  
G27  23194375.503 1     -3034.200          24.250  
R 9  21071110.709 1      2698.800          24.000  
R18  22174363.742 1     -3879.100          17.250  
R19  19362937.352 1     -1116.350          15.250  
> 2021  5 17  2 33 19.4462117  0  3                     
R 9  21070616.616 1      2699.100          24.000  
R18  22175090.405 1     -3879.100          17.250  
R19  19363145.973 1     -1116.350          15.250  
> 2021  5 17  2 33 20.4462117  0 10                     
G 1  21531460.198 1      3116.400          14.000  
G 4  23658952.965 1     -2849.000          12.250  
G 8  21051557.527 1     -1891.500          28.000  
G 9  22985338.499 1     -1986.771          34.500  
G16  24271380.091 1     -1697.600          20.000  
G21  20574654.281 1       860.650          28.000  
G27  23195505.603 1     -3044.050          24.000  
R 9  21070103.588 1      2695.850          27.000  
R18  22175816.719 1     -3879.100          17.250  
R19  19363354.246 1     -1116.350          15.250  
> 2021  5 17  2 33 21.4462117  0 10                     
G 1  21530863.043 1      3118.550          16.250  
G 4  23659495.022 1     -2849.000          12.250  
G 8  21051940.095 1     -1891.600          26.000  
G 9  22985714.770 1     -1982.675          33.000  
G16  24271703.299 1     -1697.600          20.000  
G21  20574492.724 1       860.400          29.250  
G27  23196084.834 1     -3044.050          24.000  
R 9  21069622.753 1      2693.500          25.500  
R18  22176543.448 1     -3879.100          17.250  
R19  19363562.934 1     -1116.350          15.250  
> 2021  5 17  2 33 22.4462117  0 10                     
G 1  21530243.432 1      3119.400          27.750  
G 4  23660037.406 1     -2849.000          12.250  
G 8  21052299.006 1     -1892.600          24.500  
G 9  22986076.080 1     -1978.828          32.500  
G16  24271982.465 1     -1703.050          23.750  
G21  20574335.393 1       860.250          28.500  
G27  23196669.489 1     -3037.950          21.500  
R 9  21069140.147 1      2691.350          24.750  
R18  22177270.205 1     -3879.100          17.250  
R19  19363771.649 1     -1116.350          15.250  
> 2021  5 17  2 33 23.4462117  0 10                     
G 1  21529640.970 1      3126.900          28.500  
G 4  23660579.253 1     -2849.000          12.250  
G 8  21052637.593 1     -1882.200          25.250  
G 9  22986456.038 1     -1971.120          32.750  
G16  24272311.159 1     -1706.500          27.500  
G21  20574157.138 1       862.150          28.500  
G27  23197247.311 1     -3037.950          21.500  
R 9  21068582.355 1      2692.250          24.500  
R18  22177996.723 1     -3879.100          17.250  
R19  19363980.126 1     -1116.350          15.250  
> 2021  5 17  2 33 24.4462118  0 10                     
G 1  21529091.801 1      3125.750          26.250  
G 4  23661121.927 1     -2847.750          11.250  
G 8  21053075.940 1     -1876.150          21.750  
G 9  22986858.110 1     -1966.433          34.250  
G16  24272644.279 1     -1711.550          29.500  
G21  20574046.865 1       861.350          28.000  
G27  23197855.340 1     -3037.950          21.500  
R 9  21068108.133 1      2692.250          24.500  
R18  22178753.449 1     -3879.100          17.250  
R19  19364218.811 1     -1116.350          15.250  
> 2021  5 17  2 33 25.4462118  0 10                     
G 1  21528486.113 1      3117.500          22.500  
G 4  23661664.145 1     -2847.750          11.250  
G 8  21053425.691 1     -1878.800          22.000  
G 9  22987245.335 1     -1967.424          32.500  
G16  24272957.156 1     -1710.568          30.250  
G21  20573877.075 1       860.100          23.250  
G27  23198434.132 1     -3037.950          21.500  
R 9  21067619.365 1      2691.450          21.000  
R18  22179480.639 1     -3879.100          17.250  
R19  19364427.960 1     -1116.350          15.250  
> 2021  5 17  2 33 26.4462118  0  9                     
G 1  21527900.582 1      3124.050          23.000  
G 4  23662206.133 1     -2847.750          11.250  
G 8  21053794.698 1     -1877.300          24.000  
G 9  22987609.546 1     -1970.400          28.250  
G16  24273288.689 1     -1699.050          24.250  
G21  20573716.050 1       859.350          26.750  
G27  23199012.095 1     -3037.950          21.500  
R 9  21067115.376 1      2691.450          21.000  
R19  19364636.578 1     -1116.350          15.250  
> 2021  5 17  2 33 27.4462118  0 11                     
G 1  21527350.428 1      3117.200          24.250  
G 4  23662748.123 1     -2847.750          11.250  
G 7  21054935.974 1      2242.700          28.500  
G 8  21054193.688 1     -1882.500          24.250  
G 9  22988078.687 1     -1976.550          22.250  
G16  24273611.831 1     -1699.050          24.250  
G21  20573552.628 1       859.350          26.750  
G27  23199617.342 1     -3043.350          18.250  
G30  24115221.582 1      3398.600          20.250  
R 9  21066595.502 1      2698.850          27.500  
R19  19364845.499 1     -1116.350          15.250  
> 2021  5 17  2 33 28.4462118  0 11                     
G 1  21526752.206 1      3125.700          24.500  
G 4  23663289.412 1     -2847.750          11.250  
G 7  21054496.642 1      2240.400          25.750  
G 8  21054551.504 1     -1882.500          24.250  
G 9  22988454.491 1     -1976.550          22.250  
G16  24273962.752 1     -1693.650          22.250  
G21  20573403.196 1       867.700          24.500  
G27  23200196.105 1     -3043.350          18.250  
G30  24114574.794 1      3399.550          20.250  
R 9  21066117.197 1      2703.050          27.000  
R19  19365053.719 1     -1116.350          15.250  
> 2021  5 17  2 33 29.4462119  0 12                     
G 1  21526149.139 1      3131.100          28.000  
G 4  23663861.532 1     -2847.750          11.250  
G 7  21054127.713 1      2246.800          30.000  
G 8  21054899.978 1     -1874.300          19.250  
G 9  22988797.569 1     -1982.700          25.250  
G16  24274315.124 1     -1693.650          22.250  
G21  20573229.132 1       871.897          35.000  
G27  23200805.399 1     -3043.350          18.250  
G30  24113950.742 1      3400.600          19.750  
R 9  21065641.242 1      2703.050          27.000  
R16  20172018.385 1       122.400          20.500  
R19  19365292.469 1     -1116.350          15.250  
> 2021  5 17  2 33 30.4462119  0 10                     
G 1  21525534.952 1      3133.773          32.250  
G 7  21053685.907 1      2238.107          30.500  
G 8  21055266.712 1     -1887.800          28.500  
G 9  22989175.095 1     -1982.700          25.250  
G16  24274637.488 1     -1693.650          22.250  
G21  20573058.038 1       873.906          34.250  
G27  23201372.694 1     -3034.700          27.000  
G30  24113290.686 1      3409.350          21.000  
R 9  21065134.981 1      2703.050          27.000  
R16  20171953.118 1       124.800          25.000  
> 2021  5 17  2 33 31.4462119  0 11                     
G 1  21524949.831 1      3134.078          32.500  
G 7  21053254.579 1      2229.963          30.000  
G 8  21055606.751 1     -1896.488          31.500  
G 9  22989552.008 1     -1982.700          25.250  
G16  24274959.539 1     -1693.650          22.250  
G21  20572893.526 1       872.670          34.000  
G27  23201933.680 1     -3039.002          33.250  
G30  24112657.299 1      3413.550          23.000  
R 9  21064545.363 1      2707.300          19.250  
R16  20172028.739 1       115.850          22.750  
R18  22183796.521 1     -3857.650          19.750  
> 2021  5 17  2 33 32.4462119  0 12                     
G 1  21524348.236 1      3137.831          34.000  
G 7  21052836.457 1      2227.673          30.750  
G 8  21055963.891 1     -1900.730          32.250  
G 9  22990028.167 1     -1970.750          19.750  
G16  24275281.904 1     -1693.650          22.250  
G21  20572723.632 1       874.559          34.250  
G27  23202525.858 1     -3042.944          30.000  
G30  24112009.835 1      3418.350          24.000  
R 9  21064038.502 1      2707.300          19.250  
R16  20171893.621 1       118.050          26.000  
R18  22184520.908 1     -3859.350          24.000  
R19  19365964.554 1     -1133.300          23.000  
> 2021  5 17  2 33 33.4462119  0 12                     
G 1  21523763.097 1      3139.550          28.250  
G 7  21052418.002 1      2226.650          29.750  
G 8  21056338.988 1     -1890.050          34.000  
G 9  22990403.563 1     -1970.750          19.750  
G16  24275604.536 1     -1693.650          22.250  
G21  20572570.494 1       876.454          37.000  
G27  23203090.123 1     -3041.101          33.500  
G30  24111359.641 1      3418.350          24.000  
R 9  21063531.608 1      2707.300          19.250  
R16  20171900.572 1       124.300          25.250  
R18  22185183.805 1     -3894.100          31.500  
R19  19366165.470 1     -1134.050          22.250  
> 2021  5 17  2 33 34.4462119  0 12                     
G 1  21523176.075 1      3138.200          27.250  
G 7  21051990.470 1      2225.700          27.500  
G 8  21056688.817 1     -1900.300          30.000  
G 9  22990737.203 1     -1959.750          22.000  
G16  24275926.785 1     -1693.650          22.250  
G21  20572392.688 1       876.997          38.000  
G27  23203672.591 1     -3043.768          35.500  
G30  24110709.063 1      3418.350          24.000  
R 9  21063110.671 1      2718.250          19.500  
R16  20171877.459 1       124.300          25.250  
R18  22185898.781 1     -3893.138          33.000  
R19  19366383.691 1     -1135.600          21.000  
> 2021  5 17  2 33 35.4462120  0 12                     
G 1  21522608.525 1      3138.200          27.250  
G 7  21051586.907 1      2219.720          30.000  
G 8  21057082.103 1     -1905.866          31.000  
G 9  22991127.491 1     -1970.050          27.750  
G16  24276278.699 1     -1693.650          22.250  
G21  20572263.136 1       875.906          36.250  
G27  23204277.530 1     -3041.700          30.500  
G30  24110088.150 1      3418.350          24.000  
R 9  21062567.405 1      2670.200          24.500  
R16  20171883.713 1       124.300          25.250  
R18  22186653.317 1     -3892.900          28.250  
R19  19366642.669 1     -1137.150          20.500  
> 2021  5 17  2 33 36.4462120  0 12                     
G 1  21522050.060 1      3140.700          21.000  
G 7  21051177.438 1      2219.248          32.000  
G 8  21057470.082 1     -1876.300          37.750  
G 9  22991454.013 1     -1982.950          30.000  
G16  24276601.024 1     -1693.650          22.250  
G21  20572088.705 1       878.603          35.750  
G27  23204865.771 1     -3038.652          30.750  
G30  24109437.949 1      3418.350          24.000  
R 9  21062073.695 1      2669.350          28.750  
R16  20171860.677 1       124.300          25.250  
R18  22187402.246 1     -3893.094          32.750  
R19  19366841.780 1     -1136.900          19.500  
> 2021  5 17  2 33 37.4462120  0 12                     
G 1  21521430.314 1      3101.450          28.250  
G 7  21050754.056 1      2217.251          31.750  
G 8  21057800.378 1     -1904.500          31.500  
G 9  22991852.961 1     -1988.720          31.500  
G16  24276923.226 1     -1693.650          22.250  
G21  20571925.842 1       878.952          36.750  
G27  23205526.738 1     -2992.800          27.250  
G30  24108787.324 1      3418.350          24.000  
R 9  21061602.946 1      2716.800          35.500  
R16  20171837.218 1       124.300          25.250  
R18  22188130.667 1     -3889.850          32.750  
R19  19367033.272 1     -1138.050          20.250  
> 2021  5 17  2 33 38.4462120  0 13                     
G 1  21520815.020 1      3104.050          30.000  
G 7  21050336.026 1      2237.450          34.000  
G 8  21058189.689 1     -1903.000          25.250  
G 9  22992232.079 1     -1985.395          31.000  
G16  24277245.683 1     -1693.650          22.250  
G21  20571763.235 1       881.090          36.000  
G27  23206136.096 1     -2999.000          24.000  
G30  24108136.954 1      3418.350          24.000  
R 9  21061131.852 1      2676.450          26.500  
R15  23300496.072 1     -2333.150          21.000  
R16  20171786.133 1       131.200          19.250  
R18  22188859.642 1     -3889.850          32.750  
R19  19367251.401 1     -1137.850          19.500  
> 2021  5 17  2 33 39.4462120  0 13                     
G 1  21520182.752 1      3141.250          25.750  
G 7  21049903.719 1      2216.450          30.500  
G 8  21058553.031 1     -1904.100          26.250  
G 9  22992676.965 1     -1978.050          28.750  
G16  24277567.954 1     -1693.650          22.250  
G21  20571592.647 1       880.223          35.250  
G27  23206706.595 1     -2999.000          24.000  
G30  24107384.769 1      3347.500          21.000  
R 9  21060630.593 1      2676.450          26.500  
R15  23300896.889 1     -2331.900          22.750  
R16  20171814.607 1       123.300          30.000  
R18  22189588.432 1     -3889.850          32.750  
R19  19367461.250 1     -1138.050          18.500  
> 2021  5 17  2 33 40.4462120  0  5                     
R 9  21060129.092 1      2676.450          26.500  
R15  23301284.273 1     -2331.600          29.250  
R16  20171785.880 1       123.200          29.750  
R18  22190316.680 1     -3889.850          32.750  
R19  19367643.276 1     -1138.600          18.500  
> 2021  5 17  2 33 41.4462121  0 14                     
G 1  21519100.588 1      3116.750          28.250  
G 7  21049091.069 1      2216.899          30.750  
G 8  21059312.193 1     -1903.000          22.000  
G 9  22993431.630 1     -1956.450          31.250  
G16  24278242.274 1     -1693.650          22.250  
G21  20571280.051 1       880.787          35.250  
G22  24961019.297 1      1679.050          19.250  
G27  23207871.676 1     -2997.550          24.250  
G30  24106140.718 1      3347.500          21.000  
R 9  21059657.854 1      2676.450          26.500  
R15  23301794.255 1     -2327.350          24.250  
R16  20171773.323 1       125.553          33.500  
R18  22191075.490 1     -3889.850          32.750  
R19  19367896.036 1     -1138.650          18.500  
> 2021  5 17  2 33 42.4462121  0 15                     
G 1  21518493.636 1      3118.950          27.000  
G 4  23670898.258 1     -2839.600          19.000  
G 7  21048658.596 1      2216.174          31.000  
G 8  21059675.969 1     -1902.700          20.750  
G 9  22993823.287 1     -1998.850          25.000  
G16  24278564.979 1     -1693.650          22.250  
G21  20571119.190 1       878.571          35.000  
G22  24960700.746 1      1680.900          21.000  
G27  23208446.506 1     -3001.600          24.500  
G30  24105484.899 1      3346.600          18.000  
R 9  21059130.347 1      2670.150          20.000  
R15  23302230.281 1     -2327.350          24.250  
R16  20171733.279 1       120.100          28.750  
R18  22191804.713 1     -3889.850          32.750  
R19  19368122.207 1     -1139.100          18.500  
> 2021  5 17  2 33 43.4462121  0 16                     
C 3  36474535.622 1       110.800          29.750  
G 1  21517848.521 1      3142.000          27.250  
G 4  23671445.117 1     -2840.650          19.000  
G 7  21048255.714 1      2215.687          30.750  
G 8  21060012.375 1     -1873.550          21.500  
G 9  22994195.667 1     -2019.250          25.000  
G16  24278887.294 1     -1693.650          22.250  
G21  20570953.143 1       876.673          34.750  
G22  24960376.409 1      1680.300          21.250  
G27  23209042.532 1     -3062.300          26.750  
G30  24104848.179 1      3346.600          18.000  
R 9  21058624.635 1      2666.850          23.000  
R15  23302665.918 1     -2327.350          24.250  
R16  20171739.013 1       122.043          32.000  
R18  22192533.247 1     -3889.850          32.750  
R19  19368330.901 1     -1139.400          18.500  
> 2021  5 17  2 33 44.4462121  0 16                     
C 3  36474513.841 1       110.800          29.750  
G 1  21517237.048 1      3138.400          24.000  
G 4  23671981.549 1     -2843.450          18.750  
G 7  21047827.713 1      2216.592          30.000  
G 8  21060381.223 1     -1878.200          25.250  
G 9  22994551.025 1     -2009.500          25.250  
G16  24279209.075 1     -1693.650          22.250  
G21  20570790.459 1       872.718          35.500  
G22  24960056.933 1      1679.150          22.250  
G27  23209624.832 1     -3062.300          26.750  
G30  24104210.923 1      3346.600          18.000  
R 9  21058187.941 1      2667.600          22.250  
R15  23303155.582 1     -2344.400          18.500  
R16  20171725.326 1       116.350          27.500  
R18  22193261.546 1     -3889.850          32.750  
R19  19368504.884 1     -1143.500          20.750  
> 2021  5 17  2 33 45.4462122  0 16                     
C 3  36474616.536 1        76.850          28.750  
G 1  21516670.007 1      3138.400          24.000  
G 4  23672555.218 1     -2842.550          20.250  
G 7  21047439.948 1      2222.042          31.000  
G 8  21060775.016 1     -1883.650          27.750  
G 9  22994952.613 1     -1997.850          24.000  
G16  24279561.796 1     -1693.650          22.250  
G21  20570653.021 1       867.469          33.750  
G22  24959794.181 1      1661.950          30.500  
G27  23210214.390 1     -3015.450          21.250  
G30  24103604.609 1      3346.600          18.000  
R 9  21057718.932 1      2667.600          22.250  
R15  23303624.624 1     -2344.400          18.500  
R16  20171726.991 1       117.450          28.000  
R18  22194020.786 1     -3889.850          32.750  
R19  19368749.081 1     -1143.500          20.750  
> 2021  5 17  2 33 46.4462122  0 16                     
C 3  36474601.852 1        76.850          28.750  
G 1  21516078.522 1      3127.350          21.750  
G 4  23673054.979 1     -2832.150          22.500  
G 7  21047010.351 1      2230.232          31.250  
G 8  21061131.775 1     -1896.050          29.500  
G 9  22995380.123 1     -1993.400          23.000  
G16  24279884.080 1     -1693.650          22.250  
G21  20570480.946 1       862.149          33.000  
G22  24959449.726 1      1657.250          27.750  
G27  23210848.757 1     -3025.800          23.250  
G30  24102982.246 1      3378.500          18.000  
R 9  21057219.484 1      2667.600          22.250  
R15  23304065.025 1     -2365.200          22.250  
R16  20171705.113 1       117.450          28.000  
R18  22194749.288 1     -3889.850          32.750  
R19  19368962.840 1     -1143.500          20.750  
> 2021  5 17  2 33 47.4462122  0 16                     
C 3  36474587.005 1        76.850          28.750  
G 1  21515483.277 1      3127.350          21.750  
G 4  23673561.171 1     -2830.600          28.500  
G 7  21046583.589 1      2236.616          31.500  
G 8  21061492.868 1     -1892.960          34.000  
G 9  22995701.043 1     -1989.400          21.750  
G16  24280206.199 1     -1693.650          22.250  
G21  20570322.798 1       854.181          34.250  
G22  24959137.185 1      1646.300          25.500  
G27  23211424.501 1     -3025.800          23.250  
G30  24102339.334 1      3378.500          18.000  
R 9  21056719.572 1      2667.600          22.250  
R15  23304486.076 1     -2377.100          25.250  
R16  20171683.070 1       117.450          28.000  
R18  22195477.926 1     -3889.850          32.750  
R19  19369176.434 1     -1143.500          20.750  
> 2021  5 17  2 33 48.4462122  0 16                     
C 3  36474564.922 1        91.450          26.000  
G 1  21514888.290 1      3127.350          21.750  
G 4  23674112.591 1     -2837.650          29.500  
G 7  21046161.283 1      2239.781          30.250  
G 8  21061861.414 1     -1891.325          35.500  
G 9  22996106.464 1     -1989.500          25.500  
G16  24280520.783 1     -1689.250          18.750  
G21  20570148.720 1       849.254          33.250  
G22  24958862.677 1      1637.200          26.250  
G27  23212013.395 1     -3033.750          25.750  
G30  24101696.380 1      3378.500          18.000  
R 9  21056148.869 1      2690.000          20.000  
R15  23304941.562 1     -2382.800          28.500  
R16  20171660.987 1       117.450          28.000  
R18  22196206.823 1     -3889.850          32.750  
R19  19369390.288 1     -1143.500          20.750  
> 2021  5 17  2 33 49.4462122  0 15                     
C 3  36474547.291 1        91.450          26.000  
G 4  23674654.972 1     -2836.452          30.750  
G 7  21045714.050 1      2242.400          29.500  
G 8  21062214.327 1     -1890.795          36.000  
G 9  22996508.843 1     -1987.100          22.000  
G16  24280812.838 1     -1695.550          25.500  
G21  20569991.686 1       848.984          34.000  
G22  24958525.467 1      1635.900          26.000  
G27  23212572.565 1     -3031.450          28.500  
G30  24101070.770 1      3387.700          19.000  
R 9  21055679.151 1      2700.750          26.000  
R15  23305334.048 1     -2381.650          29.000  
R16  20171639.159 1       117.450          28.000  
R18  22196935.376 1     -3889.850          32.750  
R19  19369604.097 1     -1143.500          20.750  
> 2021  5 17  2 33 50.4462122  0 15                     
C 3  36474529.784 1        91.450          26.000  
G 4  23675196.279 1     -2839.015          31.250  
G 7  21045307.113 1      2238.133          31.000  
G 8  21062581.754 1     -1892.594          34.000  
G 9  22996886.763 1     -1987.100          22.000  
G16  24281163.776 1     -1697.000          24.500  
G21  20569838.373 1       846.917          33.750  
G22  24958231.852 1      1632.250          26.250  
G27  23213154.344 1     -3032.750          28.000  
G30  24100426.098 1      3387.700          19.000  
R 9  21055161.591 1      2699.750          23.500  
R15  23305750.940 1     -2385.300          28.000  
R16  20171617.156 1       117.450          28.000  
R18  22197664.053 1     -3889.850          32.750  
R19  19369817.730 1     -1143.500          20.750  
> 2021  5 17  2 33 51.4462123  0 15                     
C 3  36474542.001 1        91.450          26.000  
G 4  23675768.508 1     -2837.515          32.000  
G 7  21044905.616 1      2238.024          31.000  
G 8  21062967.212 1     -1892.425          34.750  
G 9  22997295.005 1     -1987.100          22.000  
G16  24281494.372 1     -1691.950          24.500  
G21  20569709.687 1       846.721          35.000  
G22  24957943.676 1      1635.700          27.000  
G27  23213768.244 1     -3033.650          28.500  
G30  24099811.449 1      3387.700          19.000  
R 9  21054686.045 1      2699.750          23.500  
R15  23306261.712 1     -2382.100          27.000  
R16  20171624.876 1       117.450          28.000  
R18  22198422.753 1     -3889.850          32.750  
R19  19370061.387 1     -1143.500          20.750  
> 2021  5 17  2 33 52.4462123  0 15                     
C 3  36474524.668 1        91.450          26.000  
G 4  23676306.090 1     -2838.743          31.750  
G 7  21044469.473 1      2236.510          31.000  
G 8  21063333.014 1     -1893.911          35.000  
G 9  22997673.098 1     -1987.100          22.000  
G16  24281848.182 1     -1692.750          26.000  
G21  20569543.957 1       844.887          35.500  
G22  24957631.048 1      1638.100          28.000  
G27  23214335.506 1     -3034.000          28.500  
G30  24099166.650 1      3387.700          19.000  
R 9  21054263.393 1      2699.500          21.500  
R15  23306732.741 1     -2387.400          28.000  
R16  20171603.046 1       117.450          28.000  
R18  22199151.603 1     -3889.850          32.750  
R19  19370275.194 1     -1143.500          20.750  
> 2021  5 17  2 33 53.4462123  0 15                     
C 3  36474506.738 1        91.450          26.000  
G 4  23676840.379 1     -2837.316          32.000  
G 7  21044045.924 1      2237.606          30.750  
G 8  21063688.326 1     -1892.712          34.750  
G 9  22998050.895 1     -1987.100          22.000  
G16  24282157.027 1     -1698.150          25.250  
G21  20569380.928 1       845.588          35.500  
G22  24957338.508 1      1636.850          26.500  
G27  23214910.266 1     -3033.800          28.250  
G30  24098506.865 1      3395.250          18.000  
R 9  21053757.701 1      2699.500          21.500  
R15  23307237.649 1     -2386.450          29.500  
R16  20171580.919 1       117.450          28.000  
R18  22199879.857 1     -3889.850          32.750  
R19  19370488.704 1     -1143.500          20.750  
> 2021  5 17  2 33 54.4462123  0 14                     
G 4  23677381.687 1     -2838.445          32.250  
G 7  21043616.205 1      2235.734          31.500  
G 8  21064046.461 1     -1894.152          34.250  
G 9  22998429.716 1     -1987.100          22.000  
G16  24282498.973 1     -1691.900          25.000  
G21  20569225.219 1       843.698          36.250  
G22  24957006.221 1      1638.000          28.000  
G27  23215518.728 1     -3036.000          28.000  
G30  24097861.295 1      3395.250          18.000  
R 9  21053168.792 1      2699.250          23.000  
R15  23307688.120 1     -2387.450          30.000  
R16  20171559.217 1       117.450          28.000  
R18  22200609.135 1     -3889.850          32.750  
R19  19370702.939 1     -1143.500          20.750  
> 2021  5 17  2 33 55.4462123  0 16                     
C 3  36474471.631 1        91.450          26.000  
G 1  21510822.449 1      3106.000          23.750  
G 4  23677934.889 1     -2838.602          31.000  
G 7  21043198.079 1      2235.179          31.000  
G 8  21064406.297 1     -1894.597          32.750  
G 9  22998807.239 1     -1987.100          22.000  
G16  24282820.435 1     -1691.900          25.000  
G21  20569058.919 1       842.928          35.250  
G22  24956696.620 1      1638.350          26.750  
G27  23216105.806 1     -3036.800          25.500  
G30  24097214.727 1      3395.250          18.000  
R 9  21052662.527 1      2695.150          22.500  
R15  23308151.984 1     -2385.950          29.000  
R16  20171536.818 1       117.450          28.000  
R18  22201337.416 1     -3889.850          32.750  
R19  19370916.176 1     -1143.500          20.750  
> 2021  5 17  2 33 56.4462124  0 16                     
C 3  36474484.363 1        91.450          26.000  
G 1  21510268.574 1      3106.650          23.000  
G 4  23678503.436 1     -2838.760          31.000  
G 7  21042800.096 1      2234.354          30.500  
G 8  21064807.860 1     -1895.074          32.250  
G 9  22999199.509 1     -1990.750          16.500  
G16  24283147.350 1     -1693.300          22.000  
G21  20568929.849 1       842.124          35.000  
G22  24956445.536 1      1638.000          25.250  
G27  23216661.763 1     -3031.350          24.250  
G30  24096628.774 1      3392.000          19.000  
R 9  21052269.341 1      2691.000          24.000  
R15  23308629.995 1     -2389.950          29.500  
R16  20171545.353 1       117.450          28.000  
R18  22202096.332 1     -3889.850          32.750  
R19  19371160.348 1     -1143.500          20.750  
> 2021  5 17  2 33 57.4462124  0 16                     
C 3  36474467.042 1        91.450          26.000  
G 1  21509667.557 1      3107.650          23.000  
G 4  23679046.128 1     -2837.515          32.500  
G 7  21042376.556 1      2235.402          32.000  
G 8  21065166.479 1     -1894.036          33.250  
G 9  22999578.513 1     -1990.750          16.500  
G16  24283469.694 1     -1693.300          22.000  
G21  20568772.825 1       842.756          36.000  
G22  24956108.935 1      1637.379          30.000  
G27  23217284.499 1     -3033.800          25.500  
G30  24095983.388 1      3392.000          19.000  
R 9  21051706.997 1      2700.050          25.000  
R15  23309065.360 1     -2388.400          28.750  
R16  20171569.703 1       109.850          12.500  
R18  22202825.194 1     -3889.850          32.750  
R19  19371374.467 1     -1143.500          20.750  
> 2021  5 17  2 33 58.4462124  0 16                     
C 3  36474449.216 1        91.450          26.000  
G 1  21509074.429 1      3107.950          22.000  
G 4  23679579.919 1     -2837.741          30.750  
G 7  21041946.215 1      2234.650          31.000  
G 8  21065527.290 1     -1894.554          31.500  
G 9  22999917.740 1     -1995.400          21.500  
G16  24283791.832 1     -1693.300          22.000  
G21  20568617.394 1       841.879          34.500  
G22  24955810.503 1      1635.100          26.000  
G27  23217872.553 1     -3040.250          22.750  
G30  24095337.496 1      3392.000          19.000  
R 9  21051201.108 1      2700.050          25.000  
R15  23309460.648 1     -2387.250          27.000  
R16  20171549.178 1       109.850          12.500  
R18  22203553.851 1     -3889.850          32.750  
R19  19371588.080 1     -1143.500          20.750  
> 2021  5 17  2 33 59.4462124  0 17                     
C 1  37405103.199 1        20.100          27.250  
C 3  36474431.390 1        91.450          26.000  
G 1  21508468.111 1      3106.700          21.750  
G 4  23680137.396 1     -2837.300          29.500  
G 7  21041523.670 1      2235.683          30.000  
G 8  21065893.799 1     -1893.500          29.750  
G 9  23000242.877 1     -1990.650          22.250  
G16  24284113.971 1     -1693.300          22.000  
G21  20568442.777 1       842.591          33.250  
G22  24955495.883 1      1640.600          28.250  
G27  23218451.014 1     -3040.250          22.750  
G30  24094691.905 1      3392.000          19.000  
R 9  21050717.705 1      2691.500          21.250  
R15  23309897.607 1     -2390.250          26.500  
R16  20171528.355 1       109.850          12.500  
R18  22204282.209 1     -3889.850          32.750  
R19  19371801.694 1     -1143.500          20.750  
> 2021  5 17  2 34  0.4462124  0  7                     
C 1  37405099.239 1        20.100          27.250  
C 3  36474413.939 1        91.450          26.000  
R 9  21050190.607 1      2699.650          22.250  
R15  23310294.769 1     -2386.700          24.500  
R16  20171507.906 1       109.850          12.500  
R18  22205010.941 1     -3889.850          32.750  
R19  19372015.383 1     -1143.500          20.750  
> 2021  5 17  2 34  1.4462124  0 17                     
C 1  37405146.149 1       -12.100          24.500  
C 3  36474396.394 1        91.450          26.000  
G 1  21507272.318 1      3107.350          21.000  
G 4  23681208.933 1     -2837.211          30.000  
G 7  21040690.026 1      2233.765          30.750  
G 8  21066613.080 1     -1893.600          29.000  
G 9  23001036.507 1     -1984.100          21.000  
G16  24284758.304 1     -1693.300          22.000  
G21  20568123.577 1       840.410          34.250  
G22  24954854.107 1      1638.450          28.000  
G27  23219630.777 1     -3028.500          21.000  
G30  24093401.078 1      3392.000          19.000  
R 9  21049601.057 1      2697.700          22.250  
R15  23310750.296 1     -2391.050          22.000  
R16  20171487.363 1       109.850          12.500  
R19  19372229.278 1     -1143.500          20.750  
R20  20866465.339 1      3292.850          17.750  
> 2021  5 17  2 34  2.4462125  0 17                     
C 1  37405178.620 1       -12.100          24.500  
C 3  36474409.079 1        91.450          26.000  
G 1  21506708.502 1      3107.350          21.250  
G 4  23681776.834 1     -2836.799          30.500  
G 7  21040292.295 1      2233.752          30.500  
G 8  21066996.309 1     -1895.000          28.250  
G 9  23001499.480 1     -1996.900          25.000  
G16  24285110.654 1     -1693.300          22.000  
G21  20567989.664 1       840.191          33.500  
G22  24954582.589 1      1639.350          28.250  
G27  23220237.351 1     -3028.500          21.000  
G30  24092785.698 1      3392.000          19.000  
R 9  21049125.980 1      2697.700          22.250  
R15  23311247.146 1     -2384.800          24.500  
R16  20171496.750 1       109.850          12.500  
R19  19372473.103 1     -1143.500          20.750  
R20  20865875.442 1      3293.400          17.750  
> 2021  5 17  2 34  3.4462125  0 17                     
C 1  37405180.645 1       -12.100          24.500  
C 3  36474391.017 1        91.450          26.000  
G 1  21506119.935 1      3107.150          21.250  
G 4  23682326.279 1     -2836.200          29.000  
G 7  21039870.413 1      2234.500          29.500  
G 8  21067358.983 1     -1891.350          26.500  
G 9  23001908.023 1     -1993.350          23.750  
G16  24285432.557 1     -1693.300          22.000  
G21  20567833.997 1       839.522          33.500  
G22  24954269.531 1      1637.200          28.500  
G27  23220813.178 1     -3028.500          21.000  
G30  24092139.871 1      3392.000          19.000  
R 9  21048669.322 1      2700.300          20.000  
R15  23311716.247 1     -2393.150          23.250  
R16  20171475.990 1       109.850          12.500  
R19  19372686.481 1     -1143.500          20.750  
R20  20865259.294 1      3293.400          17.750  
> 2021  5 17  2 34  4.4462125  0 17                     
C 1  37405183.524 1       -12.100          24.500  
C 3  36474374.110 1        91.450          26.000  
G 1  21505532.523 1      3106.650          21.500  
G 4  23682865.487 1     -2836.150          30.000  
G 7  21039431.398 1      2232.687          30.500  
G 8  21067719.215 1     -1892.600          26.000  
G 9  23002212.793 1     -1994.500          24.750  
G16  24285755.315 1     -1693.300          22.000  
G21  20567673.190 1       838.667          33.000  
G22  24953958.527 1      1639.700          27.750  
G27  23221389.860 1     -3028.500          21.000  
G30  24091494.899 1      3392.000          19.000  
R 9  21048162.554 1      2694.750          25.000  
R15  23312274.042 1     -2386.100          25.000  
R16  20171455.785 1       109.850          12.500  
R19  19372900.713 1     -1143.500          20.750  
R20  20864643.701 1      3293.400          17.750  
> 2021  5 17  2 34  5.4462125  0 17                     
C 1  37405101.608 1        65.300          22.750  
C 3  36474356.350 1        91.450          26.000  
G 1  21504944.258 1      3106.400          22.000  
G 4  23683399.645 1     -2835.300          29.750  
G 7  21039004.721 1      2231.841          30.500  
G 8  21068125.961 1     -1898.850          23.000  
G 9  23002628.533 1     -1996.900          25.000  
G16  24286077.520 1     -1693.300          22.000  
G21  20567519.924 1       837.673          32.750  
G22  24953643.374 1      1636.600          27.750  
G27  23221958.794 1     -3027.500          19.000  
G30  24090849.373 1      3392.000          19.000  
R 9  21047600.371 1      2705.950          23.500  
R15  23312680.788 1     -2390.350          25.000  
R16  20171435.327 1       109.850          12.500  
R19  19373114.393 1     -1143.500          20.750  
R20  20864027.855 1      3293.400          17.750  
> 2021  5 17  2 34  6.4462125  0 18                     
C 1  37405088.647 1        65.300          22.750  
C 3  36474338.292 1        91.450          26.000  
G 1  21504344.603 1      3103.900          25.750  
G 4  23683939.501 1     -2840.450          30.000  
G 7  21038589.439 1      2230.841          31.750  
G 8  21068503.030 1     -1899.200          21.000  
G 9  23002980.719 1     -1994.500          25.750  
G16  24286399.127 1     -1693.300          22.000  
G21  20567359.165 1       836.507          33.750  
G22  24953338.115 1      1636.250          28.000  
G27  23222534.625 1     -3027.500          19.000  
G30  24090203.550 1      3392.000          19.000  
R 9  21047130.226 1      2689.000          23.500  
R15  23313089.935 1     -2390.600          22.000  
R16  20171414.272 1       109.850          12.500  
R18  22209481.647 1     -3887.600          19.500  
R19  19373327.776 1     -1143.500          20.750  
R20  20863411.712 1      3293.400          17.750  
> 2021  5 17  2 34  7.4462125  0 18                     
C 1  37405076.395 1        65.300          22.750  
C 3  36474321.243 1        91.450          26.000  
G 1  21503795.123 1      3102.450          25.500  
G 4  23684467.175 1     -2835.400          29.500  
G 7  21038167.970 1      2233.015          32.000  
G 8  21068864.919 1     -1899.200          21.000  
G 9  23003371.987 1     -1993.350          27.000  
G16  24286721.743 1     -1693.300          22.000  
G21  20567198.515 1       838.508          34.000  
G22  24953016.776 1      1641.650          27.000  
G27  23223121.358 1     -3034.500          23.000  
G30  24089558.436 1      3392.000          19.000  
R 9  21046670.983 1      2694.700          22.750  
R15  23313537.864 1     -2390.600          22.000  
R16  20171394.225 1       109.850          12.500  
R18  22210213.479 1     -3888.000          19.750  
R19  19373541.866 1     -1143.500          20.750  
R20  20862795.977 1      3293.400          17.750  
> 2021  5 17  2 34  8.4462126  0 18                     
C 1  37405093.385 1        65.300          22.750  
C 3  36474333.137 1        91.450          26.000  
G 1  21503208.930 1      3107.700          26.000  
G 4  23685037.282 1     -2835.650          29.750  
G 7  21037773.345 1      2232.946          32.500  
G 8  21069255.750 1     -1899.200          21.000  
G 9  23003809.886 1     -1992.300          26.250  
G16  24287032.230 1     -1691.850          16.750  
G21  20567070.705 1       838.164          34.250  
G22  24952736.672 1      1642.900          29.000  
G27  23223688.467 1     -3030.300          22.750  
G30  24088932.671 1      3396.500          12.000  
R 9  21046196.014 1      2694.700          22.750  
R15  23313909.209 1     -2391.500          19.500  
R16  20171403.120 1       109.850          12.500  
R18  22210968.858 1     -3887.300          19.500  
R19  19373785.200 1     -1143.500          20.750  
R20  20862209.785 1      3293.400          17.750  
> 2021  5 17  2 34  9.4462126  0 17                     
C 1  37405125.669 1        39.600          24.000  
C 3  36474315.956 1        91.450          26.000  
G 1  21502618.246 1      3099.050          23.500  
G 4  23685562.126 1     -2835.450          28.500  
G 7  21037351.444 1      2232.183          32.000  
G 8  21069617.506 1     -1899.200          21.000  
G 9  23004133.569 1     -1992.300          26.000  
G16  24287354.414 1     -1691.850          16.750  
G21  20566913.821 1       837.150          33.500  
G22  24952414.902 1      1642.800          27.750  
G27  23224269.372 1     -3032.600          24.750  
G30  24088286.525 1      3396.500          12.000  
R 9  21045630.512 1      2703.350          21.750  
R15  23314364.201 1     -2397.850          20.000  
R16  20171382.641 1       109.850          12.500  
R18  22211698.160 1     -3886.300          20.500  
R20  20861593.918 1      3293.400          17.750  
> 2021  5 17  2 34 10.4462126  0 15                     
G 1  21502017.444 1      3102.050          23.500  
G 4  23686126.616 1     -2834.550          28.750  
G 7  21036924.521 1      2230.845          33.000  
G 8  21069978.738 1     -1899.200          21.000  
G 9  23004510.389 1     -1993.400          27.250  
G16  24287676.372 1     -1691.850          16.750  
G21  20566744.420 1       835.753          34.000  
G22  24952107.296 1      1639.750          29.000  
G27  23224842.557 1     -3034.100          23.500  
G30  24087640.154 1      3396.500          12.000  
R 9  21045124.444 1      2703.350          21.750  
R15  23314812.672 1     -2397.850          20.000  
R16  20171362.237 1       109.850          12.500  
R18  22212423.340 1     -3885.950          20.500  
R20  20860978.126 1      3293.400          17.750  
> 2021  5 17  2 34 11.4462126  0 17                     
C 1  37405110.117 1        39.600          24.000  
C 3  36474280.617 1        91.450          26.000  
G 1  21501426.908 1      3102.050          23.500  
G 4  23686654.906 1     -2836.500          27.500  
G 7  21036504.866 1      2229.754          33.750  
G 8  21070328.950 1     -1893.150          17.500  
G 9  23004887.284 1     -1993.550          27.250  
G16  24287998.104 1     -1691.850          16.750  
G21  20566594.579 1       834.423          33.750  
G22  24951780.278 1      1644.050          27.750  
G27  23225425.408 1     -3037.550          25.250  
G30  24086993.557 1      3396.500          12.000  
R 9  21044617.850 1      2703.350          21.750  
R15  23315261.216 1     -2397.850          20.000  
R16  20171341.307 1       109.850          12.500  
R18  22213147.993 1     -3885.450          20.500  
R20  20860362.107 1      3293.400          17.750  
> 2021  5 17  2 34 12.4462126  0 16                     
C 1  37405093.597 1        54.650          24.000  
G 1  21500836.585 1      3102.050          23.500  
G 4  23687177.113 1     -2835.100          26.500  
G 7  21036072.234 1      2229.873          33.250  
G 8  21070688.970 1     -1893.150          17.500  
G 9  23005273.085 1     -1997.800          24.750  
G16  24288319.750 1     -1691.850          16.750  
G21  20566435.957 1       834.321          33.250  
G22  24951481.053 1      1640.800          27.000  
G27  23226010.572 1     -3035.000          23.500  
G30  24086347.173 1      3396.500          12.000  
R 9  21044111.469 1      2703.350          21.750  
R15  23315821.197 1     -2390.500          20.500  
R16  20171320.889 1       109.850          12.500  
R18  22213876.457 1     -3886.050          19.500  
R20  20859746.002 1      3293.400          17.750  
> 2021  5 17  2 34 13.4462126  0 16                     
C 1  37405083.152 1        54.650          24.000  
G 1  21500246.341 1      3102.050          23.500  
G 4  23687708.393 1     -2836.200          26.750  
G 7  21035665.464 1      2229.444          32.500  
G 8  21071058.662 1     -1894.250          21.000  
G 9  23005613.397 1     -1991.500          24.250  
G16  24288681.348 1     -1688.750          18.500  
G21  20566273.217 1       833.597          33.000  
G22  24951166.019 1      1639.950          29.250  
G27  23226567.634 1     -3033.900          25.000  
G30  24085700.868 1      3396.500          12.000  
R 9  21043605.467 1      2703.350          21.750  
R15  23316268.535 1     -2390.500          20.500  
R16  20171300.252 1       109.850          12.500  
R18  22214607.999 1     -3886.350          19.750  
R20  20859130.277 1      3293.400          17.750  
> 2021  5 17  2 34 14.4462127  0 16                     
C 1  37405102.705 1        54.650          24.000  
G 1  21499668.108 1      3097.550          20.500  
G 4  23688268.172 1     -2836.300          27.250  
G 7  21035271.903 1      2229.945          35.250  
G 8  21071428.672 1     -1894.500          24.250  
G 9  23006018.184 1     -1993.750          25.250  
G16  24289032.771 1     -1688.750          18.500  
G21  20566151.868 1       833.961          35.250  
G22  24950878.585 1      1642.752          31.000  
G27  23227167.286 1     -3027.300          26.000  
G30  24085084.562 1      3396.500          12.000  
R 9  21043114.774 1      2696.800          18.250  
R15  23316808.828 1     -2394.700          19.750  
R16  20171309.612 1       109.850          12.500  
R18  22215342.857 1     -3888.000          23.500  
R20  20858544.549 1      3293.400          17.750  
> 2021  5 17  2 34 15.4462127  0 16                     
C 1  37405100.733 1        54.500          26.000  
G 1  21499124.711 1      3102.650          24.250  
G 4  23688789.038 1     -2832.600          27.250  
G 7  21034845.425 1      2229.784          36.250  
G 8  21071739.384 1     -1898.050          25.250  
G 9  23006392.751 1     -1990.100          26.250  
G16  24289354.575 1     -1688.750          18.500  
G21  20565998.501 1       833.601          35.750  
G22  24950573.223 1      1644.150          29.500  
G27  23227794.578 1     -3033.500          26.500  
G30  24084405.958 1      3405.550          15.750  
R 9  21042610.349 1      2696.800          18.250  
R15  23317257.444 1     -2394.700          19.750  
R16  20171289.652 1       109.850          12.500  
R18  22216071.479 1     -3888.000          23.500  
R20  20857928.902 1      3293.400          17.750  
> 2021  5 17  2 34 16.4462127  0 15                     
C 1  37405090.053 1        54.500          26.000  
G 1  21498542.627 1      3101.200          26.250  
G 4  23689336.572 1     -2835.700          26.750  
G 7  21034417.734 1      2228.141          36.000  
G 8  21072110.639 1     -1899.100          28.250  
G 9  23006823.366 1     -1997.500          26.750  
G16  24289675.765 1     -1688.750          18.500  
G21  20565836.726 1       831.796          37.000  
G22  24950246.862 1      1642.197          30.500  
G27  23228328.021 1     -3028.100          25.750  
G30  24083787.299 1      3391.700          21.750  
R 9  21042175.463 1      2693.700          22.000  
R15  23317705.147 1     -2394.700          19.750  
R18  22216860.346 1     -3886.700          20.000  
R20  20857312.941 1      3293.400          17.750  
> 2021  5 17  2 34 17.4462127  0 15                     
C 1  37405079.534 1        54.500          26.000  
G 1  21497936.120 1      3102.450          27.500  
G 4  23689875.272 1     -2833.650          26.000  
G 7  21033989.304 1      2229.076          36.000  
G 8  21072459.871 1     -1896.800          27.750  
G 9  23007187.287 1     -1991.900          26.500  
G16  24289996.816 1     -1688.750          18.500  
G21  20565683.505 1       832.609          36.500  
G22  24949937.449 1      1643.531          30.500  
G27  23228896.701 1     -3033.500          26.250  
G30  24083174.197 1      3390.350          23.000  
R 9  21041672.385 1      2695.750          23.000  
R15  23318153.310 1     -2394.700          19.750  
R18  22217588.515 1     -3886.700          20.000  
R20  20856697.140 1      3293.400          17.750  
> 2021  5 17  2 34 18.4462127  0 15                     
C 1  37405083.374 1        31.200          25.500  
G 1  21497343.673 1      3104.950          26.000  
G 4  23690389.659 1     -2832.450          25.750  
G 7  21033569.237 1      2229.356          35.750  
G 8  21072844.747 1     -1895.800          28.500  
G 9  23007584.155 1     -1996.300          26.750  
G16  24290318.437 1     -1688.750          18.500  
G21  20565527.256 1       832.560          37.750  
G22  24949628.306 1      1644.661          31.000  
G27  23229468.648 1     -3028.900          26.500  
G30  24082529.286 1      3390.350          23.000  
R 9  21041167.777 1      2695.750          23.000  
R15  23318601.742 1     -2394.700          19.750  
R18  22218316.654 1     -3886.700          20.000  
R20  20856081.309 1      3293.400          17.750  
> 2021  5 17  2 34 19.4462127  0 15                     
C 1  37405076.818 1        31.200          25.500  
G 1  21496772.608 1      3102.650          26.000  
G 4  23690940.118 1     -2832.350          26.000  
G 7  21033137.276 1      2229.121          35.500  
G 8  21073191.347 1     -1895.800          29.750  
G 9  23007972.126 1     -1991.800          27.250  
G16  24290639.254 1     -1688.750          18.500  
G21  20565370.804 1       832.223          37.500  
G22  24949329.153 1      1645.179          30.500  
G27  23230055.681 1     -3027.900          26.500  
G30  24081839.204 1      3392.450          20.500  
R 9  21040662.367 1      2695.750          23.000  
R15  23319049.372 1     -2394.700          19.750  
R18  22218995.424 1     -3880.400          19.250  
R20  20855464.976 1      3293.400          17.750  
> 2021  5 17  2 34 20.4462127  0 15                     
C 1  37405071.272 1        31.200          25.500  
G 1  21496168.976 1      3097.200          24.500  
G 4  23691471.200 1     -2832.300          25.250  
G 7  21032715.918 1      2227.991          35.000  
G 8  21073543.754 1     -1896.893          30.000  
G 9  23008356.011 1     -1994.050          29.250  
G16  24290961.082 1     -1688.750          18.500  
G21  20565213.863 1       830.869          37.500  
G22  24949005.527 1      1645.600          30.000  
G27  23230605.351 1     -3032.400          25.750  
G30  24081194.201 1      3392.450          20.500  
R 9  21040175.354 1      2701.700          20.750  
R15  23319498.012 1     -2394.700          19.750  
R18  22219722.870 1     -3880.400          19.250  
R20  20854849.652 1      3293.400          17.750  
> 2021  5 17  2 34 21.4462128  0 14                     
C 1  37405101.876 1        44.750          25.500  
G 1  21495558.624 1      3101.900          26.500  
G 4  23692047.726 1     -2834.450          25.250  
G 7  21032319.918 1      2227.863          34.500  
G 8  21073938.306 1     -1896.908          30.750  
G 9  23008756.259 1     -1993.900          30.000  
G16  24291312.464 1     -1688.750          18.500  
G21  20565082.279 1       830.502          37.750  
G22  24948727.045 1      1645.144          31.250  
G27  23231237.039 1     -3033.450          26.500  
G30  24080569.458 1      3393.500          21.000  
R 9  21039810.232 1      2691.950          23.500  
R15  23319976.206 1     -2394.700          19.750  
R18  22220479.872 1     -3880.400          19.250  
> 2021  5 17  2 34 22.4462128  0 14                     
C 1  37405092.857 1        44.750          25.500  
G 1  21494968.008 1      3101.900          26.500  
G 4  23692586.728 1     -2834.850          25.000  
G 7  21031890.889 1      2224.751          33.750  
G 8  21074301.329 1     -1899.744          30.000  
G 9  23009139.069 1     -1997.117          30.750  
G16  24291633.516 1     -1688.750          18.500  
G21  20564920.666 1       827.460          37.500  
G22  24948416.735 1      1643.042          31.000  
G27  23231802.122 1     -3031.950          26.500  
G30  24079974.045 1      3388.200          23.000  
R 9  21039305.656 1      2691.950          23.500  
R15  23320423.771 1     -2394.700          19.750  
R18  22221206.543 1     -3880.400          19.250  
> 2021  5 17  2 34 23.4462128  0 14                     
C 1  37405084.564 1        44.750          25.500  
G 1  21494469.853 1      3097.450          22.750  
G 4  23693189.711 1     -2834.800          24.250  
G 7  21031470.081 1      2225.082          33.500  
G 8  21074669.575 1     -1896.940          33.500  
G 9  23009530.399 1     -1996.050          28.500  
G16  24291955.294 1     -1688.750          18.500  
G21  20564756.480 1       829.354          38.000  
G22  24948095.758 1      1646.560          32.250  
G27  23232377.225 1     -3028.750          26.000  
G30  24079329.592 1      3388.200          23.000  
R 9  21038643.515 1      2696.050          21.000  
R15  23320872.361 1     -2394.700          19.750  
R18  22221984.605 1     -3879.450          19.250  
> 2021  5 17  2 34 24.4462128  0 14                     
C 1  37405069.352 1        13.550          24.750  
G 1  21493880.239 1      3097.450          22.750  
G 4  23693745.904 1     -2837.250          25.500  
G 7  21031039.057 1      2223.239          31.250  
G 8  21075020.110 1     -1900.017          32.500  
G 9  23009928.601 1     -1993.800          27.000  
G16  24292276.450 1     -1688.750          18.500  
G21  20564603.964 1       830.108          37.250  
G22  24947771.760 1      1649.450          28.750  
G27  23232906.736 1     -3036.950          23.000  
G30  24078708.500 1      3388.200          19.000  
R 9  21038138.443 1      2696.050          21.000  
R15  23321320.329 1     -2394.700          19.750  
R18  22222711.080 1     -3879.450          19.250  
> 2021  5 17  2 34 25.4462128  0 14                     
C 1  37405066.359 1        13.550          24.750  
G 1  21493201.513 1      3102.250          24.000  
G 4  23694274.143 1     -2837.450          23.500  
G 7  21030629.545 1      2220.915          30.500  
G 8  21075365.175 1     -1901.250          28.750  
G 9  23010277.863 1     -1996.800          28.250  
G16  24292597.532 1     -1688.750          18.500  
G21  20564442.680 1       831.587          36.750  
G22  24947460.280 1      1653.150          26.500  
G27  23233484.441 1     -3036.950          23.000  
G30  24078005.191 1      3382.900          21.250  
R 9  21037668.972 1      2694.650          23.250  
R15  23321771.521 1     -2400.850          15.500  
R18  22223437.482 1     -3879.450          19.250  
> 2021  5 17  2 34 26.4462129  0 14                     
C 1  37405094.448 1        13.550          24.750  
G 1  21492634.215 1      3098.500          24.000  
G 4  23694882.330 1     -2842.150          25.000  
G 7  21030225.634 1      2217.372          30.250  
G 8  21075776.700 1     -1902.250          25.250  
G 9  23010695.083 1     -1997.100          27.000  
G16  24292931.410 1     -1692.350          23.500  
G21  20564311.580 1       828.805          37.750  
G22  24947161.596 1      1649.850          26.500  
G27  23234107.019 1     -3037.250          20.750  
G30  24077392.025 1      3382.900          21.250  
R 9  21037204.802 1      2688.300          25.500  
R15  23322120.688 1     -2393.900          25.750  
R18  22224194.966 1     -3879.450          19.250  
> 2021  5 17  2 34 27.4462129  0 14                     
C 1  37405091.309 1        13.550          24.750  
G 1  21492044.082 1      3098.500          24.000  
G 4  23695446.098 1     -2838.450          27.500  
G 7  21029802.785 1      2217.468          32.000  
G 8  21076125.217 1     -1906.250          23.500  
G 9  23011047.198 1     -1999.127          30.750  
G16  24293235.258 1     -1690.100          26.750  
G21  20564152.548 1       827.536          36.750  
G22  24946847.271 1      1649.850          26.500  
G27  23234684.577 1     -3037.250          20.750  
G30  24076747.929 1      3382.900          21.250  
