     3.03           OBSERVATION DATA    M: Mixed            RINEX VERSION / TYPE
RTKCONV demo5 b33c                      20210520 080636 UTC PGM / RUN BY / DATE 
log: C:\Users\Ivan_PolyU_Dktp\Dropbox\HUAWEI Exp\20210517_  COMMENT             
format: RINEX                                               COMMENT             
                                                            MARKER NAME         
                                                            MARKER NUMBER       
                                                            MARKER TYPE         
                                                            OBSERVER / AGENCY   
                                                            REC # / TYPE / VERS 
                                                            ANT # / TYPE        
        0.0000        0.0000        0.0000                  APPROX POSITION XYZ 
        0.0000        0.0000        0.0000                  ANTENNA: DELTA H/E/N
G    4 C1C L1C D1C S1C                                      SYS / # / OBS TYPES 
R    4 C1C L1C D1C S1C                                      SYS / # / OBS TYPES 
  2021     5    17     2    33   13.0040000     GPS         TIME OF FIRST OBS   
  2021     5    17     2    46   19.0050000     GPS         TIME OF LAST OBS    
G                                                           SYS / PHASE SHIFT   
R                                                           SYS / PHASE SHIFT   
  0                                                         GLONASS SLOT / FRQ #
 C1C    0.000 C1P    0.000 C2C    0.000 C2P    0.000        GLONASS COD/PHS/BIS 
                                                            END OF HEADER       
> 2021  5 17  2 33 13.0040000  0 13                     
R19  20698009.146 4 110720372.748 3     -1529.658          28.000  
R16  21508531.811 9                      -288.563          20.000  
R 9  22410124.333 8 119668709.604 5      2287.226          25.000  
R18  23506539.244 4 125479399.454 3     -4283.406          27.000  
R15  24625387.452 4 131590569.945 2     -2783.769          34.000  
G 9  24320225.512 1 127803691.330 1     -2387.283          39.000  
G21  21913603.389 9                       464.849          20.000  
G 1  22873557.775 8 120201342.790 3      2716.455          30.000  
G 7  22398872.756 9                      1858.373          16.000  
G27  24528897.209 9                     -3437.623          25.000  
G 4  24992637.055 4 131337295.706 4     -3245.081          27.000  
G16  25606690.673 9                     -2099.466          14.000  
G 8  22386614.318 4 117642433.317 2     -2290.071          33.000  
> 2021  5 17  2 33 14.0040000  0 13                     
R19  20698292.822 4 110721903.049 3     -1530.819          28.000  
R16  21508586.098 9                      -290.579          20.000  
R 9  22409694.028 4 119666421.653 5      2287.385          25.000  
R18  23507343.764 4 125483683.384 5     -4284.874          26.000  
R15  24625908.219 4 131593353.710 2     -2783.967          33.000  
G 9  24320680.343 1 127806078.675 1     -2387.399          39.000  
G21  21913517.146 9                       467.543          20.000  
G 1  22873039.722 8 120198626.203 3      2716.742          30.000  
G 7  22398520.248 9                      1858.373          16.000  
G27  24529550.349 9                     -3440.527          24.000  
G 4  24993251.421 4 131340540.821 4     -3244.806          26.000  
G16  25607090.833 9                     -2099.466          15.000  
G 8  22387050.085 4 117644723.073 2     -2290.058          33.000  
> 2021  5 17  2 33 15.0040000  0 13                     
R19  20698578.678 4 110723434.515 3     -1531.978          27.000  
R16  21508642.349 9                      -308.424          21.000  
R 9  22409263.653 9                      2287.235          24.000  
R18  23508146.374 4 125487967.887 5     -4285.538          26.000  
R15  24626429.304 4 131596138.243 2     -2785.332          32.000  
G 9  24321135.471 1 127808466.607 1     -2388.416          39.000  
G21  21913427.967 9                       466.243          20.000  
G 1  22872523.902 8 120195910.322 3      2715.635          30.000  
G 7  22398167.099 9                      1846.062          15.000  
G27  24530204.658 9                     -3440.163          25.000  
G 4  24993865.760 9                     -3246.182          25.000  
G16  25607491.883 9                     -2096.883          16.000  
G 8  22387485.882 4 117647013.485 2     -2291.283          33.000  
> 2021  5 17  2 33 16.0040000  0 13                     
R19  20698865.241 4 110724966.940 4     -1531.495          27.000  
R16  21508698.325 9                      -289.122          21.000  
R 9  22408832.506 9                      2288.195          23.000  
R18  23508948.364 4 125492252.827 5     -4285.458          25.000  
R15  24626949.809 4 131598923.240 2     -2784.059          32.000  
G 9  24321590.350 1 127810854.985 1     -2388.229          39.000  
G21  21913339.411 9                       470.051          19.000  
G 1  22872007.249 8 120193194.971 3      2715.332          30.000  
G 7  22397817.938 9                      1846.062          14.000  
G27  24530858.160 9                     -3440.438          24.000  
G 4  24994478.489 9                     -3243.121          24.000  
G16  25607892.121 9                     -2098.208          17.000  
G 8  22387922.103 4 117649304.306 2     -2291.156          33.000  
> 2021  5 17  2 33 17.0040000  0 13                     
R19  20699152.808 4 110726500.066 4     -1533.042          27.000  
R16  21508753.236 9                      -294.651          22.000  
R 9  22408401.455 9                      2281.706          21.000  
R18  23509750.594 8 125496569.29115     -4285.301          24.000  
R15  24627462.287 4 131601708.435 2     -2786.190          31.000  
G 9  24322044.937 1 127813243.351 1     -2388.646          39.000  
G21  21913248.618 9                       466.903          18.000  
G 1  22871489.776 8 120190479.719 3      2715.208          30.000  
G 7  22397467.106 9                      1846.062          14.000  
G27  24531512.539 9                     -3439.500          25.000  
G 4  24995091.123 9                     -3243.201          23.000  
G16  25608292.608 9                     -2093.371          18.000  
G 8  22388358.079 4 117651595.144 2     -2291.473          33.000  
> 2021  5 17  2 33 18.0040000  0 13                     
R19  20699442.791 4 110728034.006 4     -1534.643          27.000  
R16  21508807.428 9                      -290.350          22.000  
R 9  22407970.370 9                      2292.073          21.000  
R18  23510555.560 9                     -4286.153          23.000  
R15  24627978.089 8 131604493.949 3     -2785.460          31.000  
G 9  24322499.689 1 127815631.900 1     -2388.477          39.000  
G21  21913158.500 9                       460.215          18.000  
G 1  22870972.438 8 120187764.784 3      2714.166          30.000  
G 7  22397114.380 9                      1844.812          14.000  
G27  24532168.750 9                     -3440.097          25.000  
G 4  24995703.905 9                     -3242.657          22.000  
G16  25608692.846 9                     -2098.721          18.000  
G 8  22388794.457 4 117653886.162 2     -2291.090          34.000  
> 2021  5 17  2 33 19.0040000  0 12                     
R19  20699730.824 4 110729568.774 3     -1535.214          27.000  
R16  21508861.864 9                      -290.428          22.000  
R 9  22407539.297 9                      2287.386          21.000  
R15  24628501.325 8 131607279.892 2     -2785.610          31.000  
G 9  24322954.761 1 127818020.782 1     -2388.735          39.000  
G21  21913070.302 9                       462.389          18.000  
G 1  22870453.831 9                      2707.129          30.000  
G 7  22396761.859 9                      1844.812          14.000  
G27  24532826.941 9                     -3440.027          25.000  
G 4  24996320.133 9                     -3254.139          21.000  
G16  25609091.972 9                     -2093.995          19.000  
G 8  22389230.415 4 117656177.513 2     -2291.644          34.000  
> 2021  5 17  2 33 20.0040000  0 12                     
R19  20700018.164 4 110731104.329 4     -1536.108          27.000  
R16  21508915.144 9                      -292.324          22.000  
R 9  22407109.271 9                      2284.831          21.000  
R15  24629032.427 8 131610066.207 2     -2785.898          32.000  
G 9  24323409.509 1 127820409.820 1     -2388.936          38.000  
G21  21912978.802 9                       454.055          19.000  
G 1  22869936.463 9 120182326.44534      2714.554          30.000  
G 7  22396410.521 9                      1844.812          13.000  
G27  24533482.790 9                     -3441.213          26.000  
G 4  24996932.863 9                     -3228.961          19.000  
G16  25609487.420 9                     -2098.191          20.000  
G 8  22389666.732 2 117658469.054 1     -2292.016          34.000  
> 2021  5 17  2 33 21.0040000  0 12                     
R19  20700305.983 4 110732641.017 3     -1537.811          27.000  
R16  21508968.411 9                      -292.084          20.000  
R 9  22406683.045 9                      2288.459          23.000  
R15  24629556.797 8 131612852.490 2     -2786.000          27.000  
G 9  24323863.184 2 127822797.872 1     -2386.730          36.000  
G21  21912889.134 9                       459.246          29.000  
G 1  22869428.146 8 120179611.71524      2715.579          30.000  
G 7  22396058.668 9                      1844.932          14.000  
G27  24534139.311 9                     -3441.248          26.000  
G 4  24997555.059 9                     -3260.211          18.000  
G16  25609883.662 9                     -2097.182          20.000  
G 8  22390095.968 8 117660761.298 3     -2293.246          30.000  
> 2021  5 17  2 33 22.0040000  0 12                     
R19  20700595.208 4 110734179.352 4     -1539.489          28.000  
R16  21509023.222 9                      -291.204          20.000  
R 9  22406254.839 9                      2292.968          23.000  
R15  24630075.300 8                     -2784.194          29.000  
G 9  24324316.458 4 127825182.993 2     -2381.727          37.000  
G21  21912805.177 9 115152567.86335       458.618          30.000  
G 1  22868917.365 9                      2716.805          30.000  
G 7  22395708.852 9                      1838.680          16.000  
G27  24534801.137 9                     -3445.782          27.000  
G 4  24998173.268 9                     -3234.691          21.000  
G16  25610276.143 9                     -2099.891          22.000  
G 8  22390534.252 8 117663055.351 4     -2295.094          30.000  
> 2021  5 17  2 33 23.0040000  0 12                     
R19  20700884.951 4 110735720.252 4     -1542.644          28.000  
R16  21509079.403 9                      -293.079          20.000  
R 9  22405829.197 9                      2279.703          23.000  
R15  24630595.871 9                     -2786.906          27.000  
G 9  24324769.086 4 127827563.226 2     -2378.178          38.000  
G21  21912714.938 9                       451.164          25.000  
G 1  22868397.454 9                      2709.360          25.000  
G 7  22395357.850 9                      1841.235          17.000  
G27  24535459.717 9                     -3451.484          26.000  
G 4  24998791.607 9                     -3247.422          20.000  
G16  25610670.584 9                     -2100.407          22.000  
G 8  22390969.870 8 117665352.609 4     -2297.992          31.000  
> 2021  5 17  2 33 24.0040000  0 12                     
R19  20701165.712 4 110737263.172 4     -1543.711          28.000  
R16  21509135.034 9                      -299.988          21.000  
R 9  22405401.780 9                      2281.423          23.000  
R15  24631115.438 9                     -2785.788          25.000  
G 9  24325220.431 4 127829937.991 2     -2372.114          36.000  
G21  21912633.419 9                       449.043          24.000  
G 1  22867884.417 9                      2719.089          31.000  
G 7  22395007.716 9                      1842.209          18.000  
G27  24536120.037 9                     -3459.359          26.000  
G 4  24999411.016 9                     -3240.282          19.000  
G16  25611059.676 9                     -2113.045          29.000  
G 8  22391414.253 9                     -2302.872          29.000  
> 2021  5 17  2 33 25.0040000  0 12                     
R19  20701455.787 4 110738807.944 3     -1544.972          28.000  
R16  21509191.398 9                      -299.611          21.000  
R 9  22404975.061 9                      2272.077          26.000  
R15  24631651.308 9                     -2797.141          23.000  
G 9  24325671.240 4 127832309.426 2     -2371.221          35.000  
G21  21912540.789 9                       454.868          25.000  
G 1  22867363.725 9                      2721.669          25.000  
G 7  22394656.194 9                      1842.209          17.000  
G27  24536778.495 9                     -3453.359          24.000  
G 4  25000028.392 9                     -3234.673          18.000  
G16  25611454.207 9                     -2116.072          28.000  
G 8  22391858.881 9                     -2293.263          21.000  
> 2021  5 17  2 33 26.0040000  0 12                     
R19  20701746.228 4 110740353.538 2     -1545.763          28.000  
R16  21509247.523 9                      -302.424          23.000  
R 9  22404551.165 9                      2282.069          25.000  
R15  24632192.103 9                     -2796.893          21.000  
G 9  24326122.499 4 127834681.603 3     -2372.387          33.000  
G21  21912451.016 9                       456.571          25.000  
G 1  22866848.407 9                      2719.408          24.000  
G 7  22394304.729 9                      1850.304          16.000  
G27  24537436.024 9                     -3446.772          22.000  
G 4  25000645.501 9                     -3234.673          17.000  
G16  25611835.765 9                     -2114.155          28.000  
G 8  22392301.880 9                     -2289.562          20.000  
> 2021  5 17  2 33 27.0040000  0 12                     
R19  20702036.425 8 110741900.554 5     -1548.038          26.000  
R16  21509302.753 9                      -310.179          23.000  
R 9  22404123.783 9                      2280.820          23.000  
R15  24632720.544 9                     -2789.665          19.000  
G 9  24326575.345 8 127837054.602 5     -2374.099          28.000  
G21  21912364.511 9                       458.596          24.000  
G 1  22866333.071 9                      2724.199          26.000  
G 7  22393948.121 9                      1838.112          17.000  
G27  24538096.750 9                     -3423.498          20.000  
G 4  25001263.361 9                     -3229.315          18.000  
G16  25612239.459 9                     -2111.813          26.000  
G 8  22392738.302 9                     -2271.881          21.000  
> 2021  5 17  2 33 28.0040000  0 12                     
R19  20702326.644 9                     -1545.407          22.000  
R16  21509360.199 9                      -303.731          22.000  
R 9  22403699.490 9                      2288.339          30.000  
R15  24633245.878 9                     -2789.665          17.000  
G 9  24327033.164 9                     -2383.108          18.000  
G21  21912278.250 9                       466.176          25.000  
G 1  22865813.504 9                      2732.363          24.000  
G 7  22393539.031 9 117678841.56435      1832.396          38.000  
G27  24538760.722 9                     -3435.987          22.000  
G 4  25001880.287 9                     -3227.770          18.000  
G16  25612639.278 9                     -2104.867          25.000  
G 8  22393185.202 9                     -2290.047          21.000  
> 2021  5 17  2 33 29.0040000  0 12                     
R19  20702615.153 9                     -1545.407          18.000  
R16  21509417.379 9                      -296.044          21.000  
R 9  22403267.911 9                      2289.460          23.000  
R15  24633767.893 9                     -2789.665          14.000  
G 9  24327492.646 9                     -2385.840          32.000  
G21  21912188.281 9                       463.910          37.000  
G 1  22865294.853 9                      2724.322          24.000  
G 7  22393184.499 9                      1821.914          20.000  
G27  24539423.102 9                     -3431.464          23.000  
G 4  25002495.704 9                     -3227.770          16.000  
G16  25613044.533 9                     -2090.497          25.000  
G 8  22393624.197 9                     -2280.970          22.000  
> 2021  5 17  2 33 30.0040000  0 11                     
R19  20702904.037 9                     -1545.407          12.000  
R16  21509472.744 9                      -288.758          28.000  
R 9  22402838.609 9                      2306.858          20.000  
G 9  24327937.513 9                     -2395.270          29.000  
G21  21912097.052 8 115148860.47632       465.521          36.000  
G 1  22864782.750 9 120155243.34735      2727.517          38.000  
G 7  22392839.993 9                      1840.214          29.000  
G27  24540075.945 9                     -3444.096          22.000  
G 4  25003110.942 9                     -3239.150          16.000  
G16  25613438.803 9                     -2094.026          25.000  
G 8  22394061.504 9                     -2283.986          30.000  
> 2021  5 17  2 33 31.0040000  0 10                     
R19  20703193.292 9                     -1545.407          15.000  
R16  21509526.360 9                      -290.298          28.000  
R 9  22402409.360 9                      2299.746          20.000  
G 9  24328398.753 9                     -2396.490          26.000  
G21  21912008.976 4 115148394.63722       466.156          39.000  
G 1  22864253.498 8 120152462.49324      2727.615          40.000  
G 7  22392485.169 9 117673302.85733      1825.045          42.000  
G27  24540722.327 9                     -3443.595          39.000  
G16  25613833.889 9                     -2097.665          23.000  
G 8  22394484.711 9                     -2303.418          43.000  
> 2021  5 17  2 33 32.0040000  0 12                     
R19  20703481.382 9                     -1546.732          18.000  
R16  21509579.836 8 114900255.19435      -291.797          28.000  
R 9  22401979.588 9                      2297.387          21.000  
R18  23521814.187 9                     -4279.117          29.000  
G 9  24328866.519 9                     -2383.075          23.000  
G21  21911918.165 4 115147928.00922       466.534          39.000  
G 1  22863725.084 8 120149734.29822      2729.832          38.000  
G 7  22392137.395 4 117671478.99521      1821.601          40.000  
G27  24541377.238 9                     -3433.984          33.000  
G16  25614234.215 9                     -2106.788          20.000  
G30  25451415.202 9                      2998.041          18.000  
G 8  22394918.135 9 117686089.00734     -2306.200          41.000  
> 2021  5 17  2 33 33.0040000  0 13                     
R19  20703771.095 9                     -1547.203          19.000  
R16  21509630.044 8 114900546.58324      -290.994          28.000  
R 9  22401544.471 9                      2307.461          20.000  
R18  23522596.175 9                     -4306.933          33.000  
R15  24635850.140 9                     -2789.665          11.000  
G21  21911832.471 4 115147459.98721       468.896          40.000  
G 1  22863207.829 8 120147002.82822      2733.401          37.000  
G 7  22391790.415 4 117669658.00321      1819.861          40.000  
G27  24542026.509 9                     -3450.140          39.000  
G 4  25005027.329 9                     -3254.785          31.000  
G16  25614637.324 9                     -2103.157          20.000  
G30  25450836.824 9                      3024.897          20.000  
G 8  22395359.089 9                     -2307.703          39.000  
> 2021  5 17  2 33 34.0040000  0 12                     
R19  20704060.651 9                     -1558.431          19.000  
R16  21509683.765 8 114900839.24625      -292.833          27.000  
R 9  22401110.702 9                      2290.638          18.000  
R18  23523394.400 9                     -4308.438          27.000  
R15  24636371.059 9                     -2789.665          11.000  
G21  21911740.997 4 115146990.91521       469.733          40.000  
G 1  22862697.170 9                      2733.287          34.000  
G 7  22391445.097 4 117667839.30821      1818.057          40.000  
G27  24542682.650 9                     -3449.413          40.000  
G16  25615041.780 9                     -2115.619          21.000  
G30  25450263.340 9                      3024.897          21.000  
G 8  22395795.170 9                     -2310.449          40.000  
> 2021  5 17  2 33 35.0040000  0 13                     
R19  20704351.812 9                     -1550.569          18.000  
R16  21509738.842 9                      -296.429          10.000  
R 9  22400680.589 9                      2307.812          17.000  
R18  23524194.811 9 125573673.95835     -4307.306          28.000  
R15  24636892.747 9                     -2775.747          12.000  
G 9  24330302.175 9                     -2379.943          25.000  
G21  21911652.520 2 115146520.73921       470.575          40.000  
G 1  22862195.018 9                      2736.125          27.000  
G 7  22391098.719 4 117666022.60121      1815.376          39.000  
G27  24543339.275 9                     -3450.561          38.000  
G16  25615445.897 9                     -2084.549          19.000  
G30  25449683.264 9                      3024.897          18.000  
G 8  22396233.301 8 117692999.63334     -2310.445          37.000  
> 2021  5 17  2 33 36.0040000  0 14                     
R19  20704640.443 9                     -1548.940          17.000  
R20  22220014.770 9                      2908.075          25.000  
R 9  22400257.517 9                      2255.884          22.000  
R18  23524996.195 9                     -4307.631          33.000  
R15  24637413.836 9                     -2775.747          13.000  
G 9  24330731.044 9                     -2379.943          26.000  
G21  21911562.386 4 115146049.78621       470.715          36.000  
G 1  22861680.241 9                      2717.186          25.000  
G 7  22390754.160 4 117664208.27322      1812.417          35.000  
G27  24543993.946 9 128979558.09135     -3449.914          35.000  
G16  25615847.343 9                     -2085.606          18.000  
G30  25449108.764 9                      3024.897          16.000  
G22  26302154.652 9                      1269.091          25.000  
G 8  22396672.379 8 117695310.80223     -2312.074          34.000  
> 2021  5 17  2 33 37.0040000  0 14                     
R19  20704931.321 9                     -1545.912          18.000  
R 9  22399831.723 9 119613781.76635      2254.105          30.000  
R18  23525806.204 8 125582275.54834     -4307.628          34.000  
R15  24637933.185 9                     -2773.149          15.000  
G 9  24331141.225 9                     -2386.377          31.000  
G21  21911472.534 2 115145578.005 1       472.870          36.000  
G 1  22861159.954 9                      2738.389          23.000  
G 7  22390409.108 4 117662396.00721      1811.841          36.000  
G27  24544652.910 9                     -3422.338          24.000  
G 4  25007436.192 9                     -3218.322          20.000  
G16  25616246.015 9                     -2085.606          15.000  
G30  25448533.692 9                      3024.897          15.000  
G22  26301899.735 9 138217415.53435      1271.668          31.000  
G 8  22397113.730 4 117697622.58722     -2312.087          35.000  
> 2021  5 17  2 33 38.0040000  0 13                     
R19  20705222.621 9                     -1564.708          19.000  
R16  21509897.103 9                      -296.429          12.000  
R 9  22399404.808 9                      2273.449          28.000  
R15  24638453.233 9                     -2787.190          15.000  
G 9  24331582.772 9                     -2396.178          28.000  
G21  21911382.849 2 115145105.724 1       472.083          34.000  
G 1  22860621.872 9                      2737.670          30.000  
G 7  22390063.244 4 117660585.70422      1809.558          33.000  
G27  24545318.693 9                     -3406.540          21.000  
G 4  25008044.638 9                     -3258.850          19.000  
G16  25616646.297 9                     -2085.606          15.000  
G30  25447957.913 9                      3024.897          17.000  
G 8  22397556.983 9                     -2319.856          20.000  
> 2021  5 17  2 33 39.0040000  0 11                     
R19  20705514.564 9                     -1550.637          18.000  
R16  21509954.082 9                      -281.703          14.000  
R 9  22398984.886 9                      2251.052          26.000  
R15  24638965.479 9                     -2750.369          17.000  
G 9  24332044.247 9                     -2403.865          27.000  
G 7  22389719.056 4 117658776.89723      1808.840          33.000  
G27  24545980.318 9                     -3406.540          16.000  
G 4  25008663.819 9                     -3258.850          17.000  
G16  25617044.407 9                     -2085.606          13.000  
G30  25447381.157 9                      3024.897          17.000  
G 8  22397993.758 9                     -2313.223          33.000  
> 2021  5 17  2 33 40.0040000  0 11                     
R19  20705805.223 9                     -1550.637          16.000  
R16  21510009.011 9                      -284.149          16.000  
R 9  22398565.771 9                      2252.345          22.000  
G 9  24332551.503 9                     -2385.793          26.000  
G21  21911200.634 9                       471.721          34.000  
G 7  22389375.204 4 117656969.07422      1807.496          35.000  
G27  24546637.497 9                     -3406.540          16.000  
G 4  25009280.069 9                     -3272.399          17.000  
G16  25617441.163 9                     -2078.089          14.000  
G30  25446805.003 9                      3024.897          16.000  
G 8  22398435.161 9                     -2324.515          22.000  
> 2021  5 17  2 33 41.0040000  0 11                     
R19  20706094.705 9                     -1550.637          16.000  
R16  21510064.110 9                      -315.399          16.000  
R 9  22398144.052 9                      2252.345          18.000  
G 9  24333035.751 9                     -2397.468          35.000  
G21  21911111.088 9 115143665.02633       472.021          34.000  
G 1  22859065.605 9                      2736.061          25.000  
G 7  22389031.457 4 117655161.73422      1807.865          35.000  
G 4  25009891.486 9                     -3272.399          20.000  
G16  25617837.070 9                     -2078.089          12.000  
G30  25446230.861 9                      3024.897          15.000  
G 8  22398876.904 9                     -2316.664          22.000  
> 2021  5 17  2 33 42.0040000  0  9                     
R19  20706386.455 9                     -1557.029          15.000  
R16  21510120.417 9                      -297.690          18.000  
R 9  22397723.955 9                      2271.614          17.000  
G 1  22858557.250 9                      2704.322          25.000  
G 7  22388687.587 2 117653353.95422      1807.489          36.000  
G 4  25010513.167 9                     -3272.399          20.000  
G16  25618233.813 9                     -2078.089          13.000  
G30  25445656.199 9                      3024.897          16.000  
G 8  22399319.747 9                     -2311.899          23.000  
> 2021  5 17  2 33 43.0040000  0 10                     
R19  20706678.092 9                     -1556.181          16.000  
R16  21510174.670 9                      -291.740          29.000  
R 9  22397300.866 9                      2250.773          19.000  
G21  21910933.022 9 115142729.44534       469.696          37.000  
G 1  22858050.587 9                      2704.322          24.000  
G 7  22388343.643 4 117651545.69112      1806.908          35.000  
G 4  25011136.877 9                     -3272.399          18.000  
G16  25618629.152 9                     -2078.089          13.000  
G30  25445081.943 9                      3024.897          14.000  
G 8  22399762.154 9                     -2320.115          21.000  
> 2021  5 17  2 33 44.0040000  0 10                     
R19  20706968.210 9                     -1561.600          17.000  
R 9  22396878.387 9                      2254.475          19.000  
G 9  24334409.563 9                     -2427.844          34.000  
G 1  22857536.774 9                      2704.322          22.000  
G 7  22387999.660 2 117649737.628 2      1808.363          35.000  
G27  24549290.070 9                     -3448.451          20.000  
G 4  25011753.337 9                     -3272.399          20.000  
G16  25619026.293 9                     -2088.672          16.000  
G22  26300194.971 9                      1275.193          23.000  
G 8  22400202.763 9                     -2277.304          20.000  
> 2021  5 17  2 33 45.0040000  0 10                     
R19  20707259.228 9                     -1553.874          18.000  
R 9  22396456.018 9                      2241.739          22.000  
G21  21910762.040 9 115141830.92435       462.769          38.000  
G 1  22856990.626 9                      2736.427          33.000  
G 7  22387655.289 4 117647927.080 2      1812.480          39.000  
G27  24549946.730 9                     -3425.672          21.000  
G 4  25012368.187 9                     -3272.399          22.000  
G16  25619426.200 9                     -2063.916          18.000  
G22  26299945.045 9                      1267.314          29.000  
G 8  22400638.369 9                     -2288.766          23.000  
> 2021  5 17  2 33 46.0040000  0  9                     
R19  20707549.290 9                     -1545.944          18.000  
R20  22214587.063 9                      2902.830          27.000  
R 9  22396033.470 9                      2272.826          21.000  
G 1  22856452.212 9                      2721.371          29.000  
G 7  22387309.657 2 117646111.253 1      1818.941          38.000  
G27  24550605.843 9                     -3426.356          22.000  
G 4  25012981.365 9                     -3257.385          30.000  
G16  25619825.832 9                     -2114.267          19.000  
G22  26299702.753 8 138205883.11334      1255.214          31.000  
> 2021  5 17  2 33 47.0040000  0 10                     
R19  20707840.377 9                     -1563.003          18.000  
R20  22214042.934 9                      2899.885          27.000  
R 9  22395608.421 9                      2285.123          20.000  
G21  21910587.411 9 115140913.11125       449.194          39.000  
G 7  22386962.690 2 117644288.204 1      1827.665          38.000  
G27  24551270.622 9                     -3433.196          29.000  
G 4  25013590.906 9                     -3244.689          28.000  
G16  25620225.882 9                     -2094.052          20.000  
G 8  22401516.272 9                     -2308.586          29.000  
G22  26299469.827 8 138204634.59723      1242.009          35.000  
> 2021  5 17  2 33 48.0040000  0 11                     
R19  20708133.798 9                     -1577.870          17.000  
R20  22213501.114 9                      2894.765          27.000  
R 9  22395182.108 9                      2285.123          19.000  
G21  21910496.884 9 115140466.66322       443.524          39.000  
G 1  22855443.559 9                      2708.686          31.000  
G 7  22386614.418 2 117642458.167 1      1832.287          37.000  
G27  24551938.690 9                     -3434.175          28.000  
G 4  25014178.660 9                     -3244.293          36.000  
G16  25620627.831 9                     -2111.531          20.000  
G 8  22401952.121 9 117723052.41534     -2297.885          38.000  
G22  26299229.512 8 138203398.49223      1232.136          34.000  
> 2021  5 17  2 33 49.0040000  0 12                     
R19  20708426.569 9                     -1546.620          16.000  
R20  22212959.529 8 118782647.72635      2893.518          27.000  
R 9  22394755.878 9                      2286.519          19.000  
G 9  24336645.364 9                     -2396.547          30.000  
G21  21910412.900 8 115140024.02621       442.114          39.000  
G 1  22854932.822 9 120103481.72635      2704.959          33.000  
G 7  22386264.794 2 117640624.883 1      1833.082          36.000  
G27  24552607.863 9 129024825.15935     -3439.012          28.000  
G 4  25014743.894 9 131453366.23635     -3243.945          29.000  
G16  25621036.310 9                     -2097.749          23.000  
G 8  22402384.961 9 117725350.11722     -2297.272          38.000  
G22  26299000.102 4 138202168.59922      1229.569          35.000  
> 2021  5 17  2 33 50.0040000  0 12                     
R19  20708715.671 9                     -1546.197          17.000  
R20  22212418.668 8 118779754.55624      2893.091          27.000  
R 9  22394328.361 9                      2279.759          19.000  
G 9  24337082.243 9 127892328.74734     -2395.354          30.000  
G21  21910331.905 4 115139581.92621       442.090          40.000  
G 1  22854415.493 9 120100776.98023      2703.855          32.000  
G 7  22385915.624 2 117638791.724 1      1833.541          36.000  
G27  24553272.546 9 129028264.16724     -3439.216          29.000  
G 4  25015346.481 8 131456609.57423     -3243.219          31.000  
G16  25621443.886 9                     -2097.554          25.000  
G 8  22402825.710 8 117727647.90621     -2297.583          39.000  
G22  26298766.365 4 138200938.47321      1230.474          35.000  
> 2021  5 17  2 33 51.0040000  0 12                     
R19  20709007.787 9                     -1561.096          18.000  
R20  22211877.502 4 118776861.98723      2892.031          27.000  
R 9  22393899.242 9                      2286.617          18.000  
G 9  24337526.465 8 127894724.11023     -2395.453          29.000  
G21  21910245.880 2 115139140.46321       441.528          40.000  
G 1  22853881.922 8 120098072.44523      2705.959          32.000  
G 7  22385566.476 2 117636959.065 1      1832.234          36.000  
G27  24553935.135 8 129031703.16023     -3439.175          29.000  
G 4  25015962.059 8 131459852.94823     -3243.921          31.000  
G16  25621849.158 9                     -2097.687          26.000  
G 8  22403264.413 4 117729945.88021     -2297.876          39.000  
G22  26298529.810 4 138199708.16922      1230.141          36.000  
> 2021  5 17  2 33 52.0040000  0 13                     
R19  20709299.363 9                     -1553.587          18.000  
R20  22211336.004 4 118773969.64923      2892.260          28.000  
R 9  22393471.036 9                      2285.340          18.000  
G 9  24337970.450 8 127897119.31823     -2394.751          28.000  
G21  21910161.033 2 115138699.29921       441.217          40.000  
G 1  22853354.345 8 120095368.05123      2704.993          31.000  
G 7  22385217.188 2 117635126.417 1      1832.546          36.000  
G27  24554595.892 4 129035141.79623     -3438.115          29.000  
G 4  25016579.125 8 131463095.87622     -3242.169          32.000  
G16  25622252.969 8 134645822.52635     -2097.177          27.000  
G30  25439970.704 9                      2992.499          22.000  
G 8  22403702.217 2 117732243.79621     -2297.734          39.000  
G22  26298295.406 2 138198477.25221      1231.656          36.000  
> 2021  5 17  2 33 53.0040000  0 13                     
R19  20709592.549 9                     -1564.521          19.000  
R20  22210795.689 4 118771077.72924      2891.473          28.000  
R 9  22393043.567 9                      2283.536          18.000  
G 9  24338411.614 8 127899514.78124     -2396.441          27.000  
G21  21910076.469 2 115138258.62721       439.789          40.000  
G 1  22852832.012 8 120092663.89923      2703.569          30.000  
G 7  22384868.179 2 117633294.115 1      1831.605          37.000  
G27  24555259.327 4 129038580.35723     -3439.087          30.000  
G 4  25017196.644 8 131466338.67323     -3243.213          32.000  
G16  25622654.604 4 134647919.71624     -2097.389          28.000  
G30  25439400.618 9                      2992.499          22.000  
G 8  22404141.866 2 117734541.82121     -2298.494          39.000  
G22  26298060.836 2 138197246.04821      1231.216          35.000  
> 2021  5 17  2 33 54.0040000  0 13                     
R19  20709882.541 9                     -1552.180          18.000  
R20  22210257.481 4 118768186.88424      2889.774          28.000  
R 9  22392618.362 9                      2281.062          19.000  
G 9  24338869.966 8 127901910.71424     -2396.026          28.000  
G21  21909994.043 1 115137818.98421       438.971          40.000  
G 1  22852304.680 8 120089960.41423      2703.779          29.000  
G 7  22384519.463 2 117631462.630 1      1830.693          37.000  
G27  24555923.016 8 129042019.24823     -3439.073          30.000  
G 4  25017816.537 4 131469581.86022     -3243.756          31.000  
G16  25623054.152 4 134650017.33823     -2097.143          28.000  
G30  25438830.201 9                      2992.499          22.000  
G 8  22404579.064 2 117736840.47021     -2298.864          40.000  
G22  26297827.108 2 138196015.02621      1231.022          35.000  
> 2021  5 17  2 33 55.0040000  0 13                     
R19  20710175.041 9                     -1552.187          18.000  
R20  22209717.030 4 118765296.718 3      2889.583          28.000  
R 9  22392191.883 9                      2282.082          19.000  
G 9  24339335.642 4 127904307.23324     -2396.614          28.000  
G21  21909910.954 1 115137380.15221       438.416          38.000  
G 1  22851790.090 8 120087257.63125      2702.243          28.000  
G 7  22384170.978 2 117629631.757 1      1831.147          35.000  
G27  24556578.930 4 129045458.37123     -3439.484          29.000  
G 4  25018432.704 8 131472825.23323     -3243.719          30.000  
G16  25623454.687 4 134652115.30624     -2098.487          27.000  
G30  25438261.145 9                      2992.499          21.000  
G 8  22405015.651 2 117739139.58421     -2299.034          38.000  
G22  26297593.043 2 138194784.01421      1230.941          34.000  
> 2021  5 17  2 33 56.0040000  0 13                     
R19  20710466.730 9                     -1563.381          18.000  
R20  22209178.769 4 118762407.197 3      2889.629          28.000  
R 9  22391764.758 9                      2290.195          19.000  
G 9  24339807.557 8 127906703.96823     -2396.979          30.000  
G21  21909827.773 1 115136942.00821       437.762          38.000  
G 1  22851286.250 4 120084555.06824      2702.635          28.000  
G 7  22383822.698 2 117627801.374 1      1829.878          35.000  
G27  24557232.114 4 129048897.52223     -3439.020          29.000  
G 4  25019045.521 4 131476068.52423     -3243.146          30.000  
G16  25623855.205 4 134654213.19823     -2097.273          27.000  
G30  25437690.986 9                      2992.499          21.000  
G 8  22405454.223 2 117741438.98221     -2300.011          38.000  
G22  26297358.691 2 138193552.80021      1231.196          34.000  
> 2021  5 17  2 33 57.0040000  0 12                     
R19  20710761.600 9                     -1564.075          18.000  
R20  22208636.613 4 118759518.399 4      2888.080          27.000  
R 9  22391335.670 9                      2292.828          20.000  
G 9  24340280.598 8 127909101.06523     -2397.792          31.000  
G21  21909744.465 1 115136504.56021       437.091          38.000  
G 1  22850782.397 4 120081852.96323      2702.144          29.000  
G 7  22383474.400 2 117625971.505 1      1829.875          35.000  
G27  24557881.707 4 129052336.79523     -3439.018          28.000  
G 4  25019663.564 8 131479311.92023     -3242.657          30.000  
G16  25624252.939 4 134656311.25323     -2097.588          27.000  
G 8  22405891.905 1 117743738.66121     -2299.747          38.000  
G22  26297124.658 4 138192321.46422      1231.457          33.000  
> 2021  5 17  2 33 58.0040000  0 12                     
R19  20711055.152 9                     -1559.944          19.000  
R20  22208093.859 4 118756629.958 4      2888.273          27.000  
R 9  22390907.071 9                      2292.145          21.000  
G 9  24340750.872 8 127911498.17922     -2397.098          32.000  
G21  21909661.577 1 115136067.55421       436.627          38.000  
G 1  22850276.663 4 120079151.05723      2701.356          30.000  
G 7  22383126.334 2 117624141.864 1      1829.241          35.000  
G27  24558535.322 4 129055775.86923     -3439.379          28.000  
G 4  25020281.742 8 131482555.15423     -3244.543          30.000  
G16  25624648.492 4 134658409.24423     -2097.860          27.000  
G 8  22406329.722 1 117746038.38321     -2299.556          39.000  
G22  26296890.323 2 138191089.76921      1231.514          33.000  
> 2021  5 17  2 33 59.0040000  0 12                     
R19  20711348.595 9                     -1566.538          19.000  
R20  22207550.376 8 118753742.032 5      2887.504          26.000  
R 9  22390477.774 9                      2281.543          21.000  
G 9  24341211.047 4 127913895.43121     -2397.186          34.000  
G21  21909578.427 1 115135631.03321       436.169          39.000  
G 1  22849771.196 4 120076449.29522      2702.018          31.000  
G 7  22382778.446 2 117622312.545 1      1828.921          36.000  
G27  24559187.157 4 129059214.76223     -3439.092          29.000  
G 4  25020900.026 4 131485798.15022     -3242.810          31.000  
G16  25625045.331 4 134660507.06323     -2098.065          28.000  
G 8  22406767.343 1 117748338.23121     -2300.139          39.000  
G22  26296655.818 2 138189857.69821      1231.596          34.000  
> 2021  5 17  2 34  0.0040000  0 12                     
R19  20711641.518 9                     -1564.554          20.000  
R20  22207007.103 8                      2887.295          25.000  
R 9  22390050.261 9                      2293.762          22.000  
G 9  24341670.237 4 127916292.81921     -2397.537          37.000  
G21  21909495.329 1 115135195.07021       435.150          40.000  
G 1  22849261.602 4 120073747.84922      2701.378          33.000  
G 7  22382430.266 2 117620483.527 1      1828.426          36.000  
G27  24559851.413 8 129062653.59823     -3439.596          30.000  
G 4  25021518.815 4 131489041.07122     -3243.597          34.000  
G16  25625443.118 8 134662604.86524     -2099.181          29.000  
G 8  22407205.139 1 117750638.19821     -2300.359          41.000  
G22  26296421.318 2 138188625.31722      1232.109          36.000  
> 2021  5 17  2 34  1.0040000  0 12                     
R19  20711934.525 9                     -1570.517          20.000  
R20  22206463.882 8                      2886.613          25.000  
R 9  22389623.285 9                      2282.950          23.000  
G 9  24342128.772 4 127918690.30621     -2397.875          36.000  
G21  21909412.523 1 115134759.55621       435.413          40.000  
G 1  22848736.542 4 120071046.58222      2701.018          32.000  
G 7  22382082.470 2 117618654.787 1      1828.903          37.000  
G27  24560505.190 8 129066091.75413     -3438.524          30.000  
G 4  25022133.054 8 131492283.69623     -3242.053          32.000  
G16  25625841.218 8 134664702.430 3     -2097.422          29.000  
G 8  22407643.109 1 117752938.24021     -2299.993          41.000  
G22  26296186.565 2 138187392.61321      1232.340          35.000  
> 2021  5 17  2 34  2.0040000  0 12                     
R19  20712228.234 9                     -1560.473          19.000  
R20  22205921.376 8                      2887.143          25.000  
R 9  22389195.187 9                      2271.285          24.000  
G 9  24342588.480 4 127921087.78821     -2397.953          35.000  
G21  21909329.621 1 115134324.44821       434.937          40.000  
G 1  22848216.617 4 120068345.36122      2701.548          32.000  
G 7  22381734.788 2 117616826.258 1      1828.427          37.000  
G27  24561155.939 8 129069530.162 3     -3438.285          31.000  
G 4  25022750.342 4 131495526.17522     -3242.175          32.000  
G16  25626237.591 4 134666799.873 3     -2097.237          29.000  
G 8  22408081.118 1 117755238.31521     -2300.140          41.000  
G22  26295951.811 2 138186159.38421      1234.177          35.000  
> 2021  5 17  2 34  3.0040000  0 13                     
R19  20712522.872 9                     -1562.380          19.000  
R20  22205381.327 8                      2885.334          25.000  
R 9  22388767.046 9                      2295.088          24.000  
R15  24651395.540 9                     -2802.709          25.000  
G 9  24343045.951 2 127923485.55921     -2397.641          35.000  
G21  21909246.676 1 115133890.08321       433.838          39.000  
G 1  22847705.212 8 120065644.68823      2700.813          31.000  
G 7  22381387.197 2 117614998.268 1      1827.465          37.000  
G27  24561812.325 8 129072968.668 3     -3438.726          31.000  
G 4  25023368.891 4 131498768.69122     -3243.146          32.000  
G16  25626633.807 4 134668897.453 3     -2097.588          29.000  
G 8  22408518.996 1 117757538.70121     -2300.510          41.000  
G22  26295716.883 2 138184926.12721      1233.602          35.000  
> 2021  5 17  2 34  4.0040000  0 15                     
R19  20712817.811 9                     -1570.907          20.000  
R20  22204840.549 8                      2884.808          26.000  
R 9  22388341.597 9                      2283.437          25.000  
R15  24651915.535 9                     -2801.848          26.000  
G 9  24343502.977 4 127925883.70522     -2397.869          34.000  
G21  21909163.949 1 115133456.41021       433.582          39.000  
G 1  22847188.376 8 120062944.41923      2700.207          30.000  
G 7  22381039.152 2 117613170.776 1      1827.688          37.000  
G27  24562472.711 8 129076407.285 3     -3439.072          31.000  
G 4  25023986.655 4 131502011.26123     -3243.225          32.000  
G16  25627035.568 4 134670995.183 3     -2097.831          29.000  
G30  25433144.829 9                      2986.383          25.000  
G 8  22408956.866 1 117759839.43621     -2301.032          41.000  
G22  26295482.178 2 138183692.72421      1233.896          35.000  
G14  26768800.309 9                      1612.291          14.000  
> 2021  5 17  2 34  5.0040000  0 15                     
R19  20713110.818 9                     -1568.092          20.000  
R20  22204300.600 8                      2884.647          26.000  
R 9  22387916.152 9 119550153.19635      2283.785          26.000  
R15  24652438.592 8                     -2802.597          27.000  
G 9  24343959.884 4 127928282.09823     -2399.149          32.000  
G21  21909081.109 1 115133023.34121       432.648          39.000  
G 1  22846662.082 4 120060244.48623      2699.803          29.000  
G 7  22380691.391 2 117611343.700 1      1826.520          37.000  
G27  24563128.123 8 129079845.851 3     -3438.849          31.000  
G 4  25024604.074 4 131505253.70722     -3242.572          32.000  
G16  25627432.909 4 134673092.843 3     -2097.512          29.000  
G30  25432576.061 9                      2985.720          25.000  
G 8  22409395.097 1 117762140.35821     -2301.383          41.000  
G22  26295247.411 2 138182459.11721      1233.289          35.000  
G14  26768490.476 9                      1612.291          14.000  
> 2021  5 17  2 34  6.0040000  0 15                     
R19  20713405.081 9                     -1584.386          21.000  
R20  22203761.113 4 118733482.63235      2884.084          27.000  
R 9  22387490.589 8 119547869.98224      2283.465          27.000  
R15  24652961.056 8 131737906.52334     -2803.462          29.000  
G 9  24344417.787 8 127930680.78324     -2399.531          30.000  
G21  21908998.443 1 115132590.96621       431.927          39.000  
G 1  22846143.671 9                      2699.563          28.000  
G 7  22380344.049 2 117609517.099 1      1826.322          37.000  
G27  24563781.307 8 129083284.446 3     -3438.840          31.000  
G 4  25025221.275 8 131508496.23123     -3242.694          32.000  
G16  25627834.661 4 134675190.645 3     -2097.885          28.000  
G30  25432009.627 9                      2986.587          25.000  
G 8  22409833.037 1 117764441.56321     -2301.200          40.000  
G22  26295012.453 2 138181225.32421      1234.042          35.000  
G14  26768180.076 9                      1612.291          14.000  
> 2021  5 17  2 34  7.0040000  0 15                     
R19  20713699.911 9                     -1570.918          20.000  
R20  22203222.120 4 118730599.19224      2883.694          27.000  
R 9  22387065.934 8 119545587.02224      2282.974          27.000  
R15  24653485.849 8 131740699.59834     -2802.824          29.000  
G 9  24344878.490 8 127933079.31015     -2399.193          29.000  
G21  21908915.872 1 115132158.84611       431.555          39.000  
G 1  22845627.027 9 120054579.98235      2698.671          28.000  
G 7  22379996.541 2 117607691.064 1      1826.328          37.000  
G27  24564435.917 4 129086723.241 3     -3438.924          32.000  
G 4  25025838.263 8 131511738.33213     -3241.901          32.000  
G16  25628232.121 4 134677288.715 4     -2098.762          28.000  
G30  25431442.748 9                      2986.076          25.000  
G 8  22410271.011 1 117766743.200 1     -2301.977          40.000  
G22  26294777.739 2 138179991.505 1      1233.727          35.000  
G14  26767873.899 9                      1612.291          13.000  
> 2021  5 17  2 34  8.0040000  0 15                     
R19  20713994.510 9                     -1577.758          21.000  
R20  22202682.140 4 118727716.42424      2882.998          27.000  
R 9  22386641.069 4 119543304.15324      2282.755          27.000  
R15  24654009.827 8 131743503.05523     -2802.412          30.000  
G 9  24345345.645 8 127935478.628 5     -2399.513          27.000  
G21  21908833.752 2 115131727.861 1       430.780          37.000  
G 1  22845121.655 8 120051881.25725      2698.624          27.000  
G 7  22379649.094 2 117605865.489 1      1825.096          34.000  
G27  24565090.741 4 129090161.976 3     -3438.752          31.000  
G 4  25026455.451 8 131514980.953 3     -3242.499          31.000  
G16  25628631.609 4 134679386.624 4     -2098.093          27.000  
G30  25430875.009 9                      2985.891          25.000  
G 8  22410709.221 1 117769045.007 1     -2301.784          38.000  
G22  26294542.872 2 138178757.462 1      1233.660          34.000  
G14  26767572.376 9                      1612.291          13.000  
> 2021  5 17  2 34  9.0040000  0 15                     
R19  20714290.448 9                     -1577.145          20.000  
R20  22202142.235 4 118724833.903 4      2882.880          27.000  
R 9  22386213.163 4 119541021.13324      2282.826          26.000  
R15  24654530.284 8 131746306.69224     -2802.872          30.000  
G 9  24345816.156 8 127937877.874 5     -2399.470          26.000  
G21  21908751.819 2 115131297.224 1       430.701          37.000  
G 1  22844615.006 8 120049182.65424      2698.375          26.000  
G 7  22379301.874 2 117604040.021 1      1826.109          35.000  
G27  24565745.119 4 129093600.443 3     -3437.697          30.000  
G 4  25027072.477 4 131518223.177 2     -3241.125          31.000  
G16  25629027.589 9                     -2097.507          26.000  
G30  25430310.918 9                      2986.341          24.000  
G 8  22411146.986 1 117771346.817 1     -2301.983          38.000  
G22  26294308.254 4 138177522.922 2      1234.877          34.000  
G14  26767265.968 9                      1612.291          10.000  
> 2021  5 17  2 34 10.0040000  0 14                     
R19  20714584.995 9                     -1574.135          20.000  
R20  22201603.726 4 118721951.772 3      2881.841          28.000  
R 9  22385785.585 4 119538737.98424      2282.579          26.000  
R15  24655051.740 8 131749110.38724     -2803.877          30.000  
G 9  24346282.652 9                     -2399.743          26.000  
G21  21908670.060 1 115130866.989 1       429.938          39.000  
G 1  22844106.903 8 120046484.17325      2697.388          26.000  
G 7  22378954.698 2 117602214.825 1      1825.077          35.000  
G27  24566399.507 4 129097038.701 3     -3437.993          31.000  
G 4  25027689.395 4 131521465.245 3     -3241.541          34.000  
G16  25629423.992 9                     -2098.438          25.000  
G30  25429746.347 9                      2984.692          25.000  
G 8  22411585.117 1 117773648.619 1     -2301.681          40.000  
G22  26294073.256 4 138176287.942 2      1235.213          34.000  
> 2021  5 17  2 34 11.0040000  0 14                     
R19  20714880.610 9                     -1580.195          20.000  
R20  22201065.823 4 118719070.158 4      2881.451          28.000  
R 9  22385358.124 4 119536454.91724      2282.474          25.000  
R15  24655573.004 8 131751914.54224     -2804.268          30.000  
G 9  24346741.370 8 127942977.59834     -2400.034          32.000  
G21  21908588.489 1 115130437.376 1       428.821          40.000  
G 1  22843598.971 4 120043785.89124      2697.803          27.000  
G 7  22378607.639 2 117600390.014 1      1824.014          36.000  
G27  24567053.986 4 129100476.923 2     -3437.817          32.000  
G 4  25028306.587 4 131524707.198 2     -3241.711          33.000  
G16  25629817.120 9                     -2097.288          25.000  
G30  25429178.364 9                      2985.003          26.000  
G 8  22412023.070 1 117775950.680 1     -2302.771          40.000  
G22  26293838.044 2 138175052.751 1      1234.819          36.000  
> 2021  5 17  2 34 12.0040000  0 14                     
R19  20715175.296 9                     -1578.195          20.000  
R20  22200525.756 4 118716189.441 3      2880.423          27.000  
R 9  22384931.427 9                      2283.716          24.000  
R15  24656095.577 8 131754719.24224     -2804.692          30.000  
G 9  24347194.535 8 127945377.52124     -2400.179          30.000  
G21  21908507.297 2 115130008.599 1       428.332          38.000  
G 1  22843091.091 4 120041088.28324      2697.141          27.000  
G 7  22378260.375 2 117598565.849 1      1823.445          34.000  
G27  24567708.269 4 129103915.390 3     -3438.688          31.000  
G 4  25028923.797 8 131527949.356 4     -3241.553          30.000  
G16  25630212.123 9                     -2098.243          24.000  
G30  25428613.736 9                      2983.969          25.000  
G 8  22412461.236 2 117778253.174 1     -2302.321          37.000  
G22  26293603.069 4 138173817.596 2      1234.020          35.000  
> 2021  5 17  2 34 13.0040000  0 14                     
R19  20715470.816 9                     -1574.498          20.000  
R20  22199986.012 4 118713309.208 4      2880.748          27.000  
R 9  22384502.902 9                      2288.341          22.000  
R15  24656625.894 8 131757524.29124     -2805.059          30.000  
G 9  24347643.464 8 127947777.63223     -2400.745          30.000  
G21  21908425.840 1 115129580.398 1       427.808          39.000  
G 1  22842582.622 4 120038390.96725      2697.007          27.000  
G 7  22377913.146 4 117596742.078 2      1823.188          35.000  
G27  24568364.611 8 129107353.850 3     -3438.909          30.000  
G 4  25029540.902 8 131531191.493 3     -3242.139          31.000  
G16  25630606.759 9                     -2098.194          23.000  
G30  25428048.759 9                      2984.341          26.000  
G 8  22412899.467 1 117780555.879 1     -2303.075          38.000  
G22  26293368.123 2 138172582.187 1      1235.123          35.000  
> 2021  5 17  2 34 14.0040000  0 14                     
R19  20715767.081 9                     -1575.676          19.000  
R20  22199446.360 4 118710429.568 4      2879.499          27.000  
R 9  22384073.714 9                      2284.339          23.000  
R15  24657152.873 8 131760329.70823     -2805.731          31.000  
G 9  24348090.137 8 127950177.91023     -2401.488          31.000  
G21  21908344.504 1 115129152.809 1       427.100          39.000  
G 1  22842074.930 4 120035693.92624      2696.694          27.000  
G 7  22377565.883 2 117594918.676 1      1823.732          35.000  
G27  24569017.559 8 129110792.153 3     -3438.503          31.000  
G 4  25030158.068 4 131534433.510 3     -3242.371          32.000  
G16  25630998.447 9                     -2098.359          23.000  
G30  25427481.823 9                      2985.126          26.000  
G 8  22413337.573 1 117782858.760 1     -2303.102          38.000  
G22  26293133.016 2 138171346.485 1      1235.579          35.000  
> 2021  5 17  2 34 15.0040000  0 14                     
R19  20716061.144 9                     -1582.325          19.000  
R20  22198906.315 9                      2880.026          27.000  
R 9  22383646.241 9                      2280.203          23.000  
R15  24657679.403 8 131763134.95513     -2805.700          31.000  
G 9  24348541.893 8 127952578.42422     -2400.524          32.000  
G21  21908263.204 1 115128725.844 1       426.819          39.000  
G 1  22841564.267 9                      2695.960          26.000  
G 7  22377218.850 4 117593095.774 2      1823.173          35.000  
G27  24569673.443 8 129114230.547 3     -3438.113          30.000  
G 4  25030775.283 4 131537675.479 2     -3241.913          32.000  
G16  25631391.644 9                     -2097.312          22.000  
G30  25426917.706 9                      2984.184          26.000  
G 8  22413775.556 2 117785161.901 1     -2302.879          38.000  
G22  26292897.683 2 138170110.616 1      1236.669          35.000  
> 2021  5 17  2 34 16.0040000  0 14                     
R19  20716358.735 9                     -1588.337          19.000  
R20  22198368.058 9                      2878.353          27.000  
R 9  22383216.756 9                      2283.059          24.000  
R15  24658202.050 8 131765941.286 3     -2805.948          31.000  
G 9  24348995.075 8 127954979.31622     -2401.440          32.000  
G21  21908182.239 1 115128299.674 1       425.800          39.000  
