     3.03           OBSERVATION DATA    M: Mixed            RINEX VERSION / TYPE
RTKCONV demo5 b33c                      20210520 074755 UTC PGM / RUN BY / DATE 
log: C:\Users\Ivan_PolyU_Dktp\Dropbox\HUAWEI Exp\20210517_  COMMENT             
format: RINEX                                               COMMENT             
                                                            MARKER NAME         
                                                            MARKER NUMBER       
                                                            MARKER TYPE         
                                                            OBSERVER / AGENCY   
BFN16413056         NOV CDSR0G55N       OEM060710RN0000     REC # / TYPE / VERS 
                                                            ANT # / TYPE        
 -2419234.5990  5385473.8219  2405342.6599                  APPROX POSITION XYZ 
        0.0000        0.0000        0.0000                  ANTENNA: DELTA H/E/N
G    8 C1C L1C D1C S1C C2W L2W D2W S2W                      SYS / # / OBS TYPES 
R    8 C1C L1C D1C S1C C2P L2P D2P S2P                      SYS / # / OBS TYPES 
C    8 C2I L2I D2I S2I C7I L7I D7I S7I                      SYS / # / OBS TYPES 
  2021     5    17     2    33   13.0000000     GPS         TIME OF FIRST OBS   
  2021     5    17     2    46   19.0000000     GPS         TIME OF LAST OBS    
G                                                           SYS / PHASE SHIFT   
R                                                           SYS / PHASE SHIFT   
C                                                           SYS / PHASE SHIFT   
  1 R18 -3                                                  GLONASS SLOT / FRQ #
 C1C    0.000 C1P    0.000 C2C    0.000 C2P    0.000        GLONASS COD/PHS/BIS 
                                                            END OF HEADER       
> 2021  5 17  2 33 13.0000000  0  1                     
C27  21620209.550 7 112582095.654 7     -1091.118          44.000                                                                  
> 2021  5 17  2 33 14.0000000  0  1                     
C27  21620419.173 7 112583187.199 7     -1091.336          44.000                                                                  
> 2021  5 17  2 33 15.0000000  0  1                     
C27  21620628.817 7 112584278.952 7     -1091.972          44.000                                                                  
> 2021  5 17  2 33 16.0000000  0  1                     
C27  21620838.503 7 112585370.942 7     -1092.536          44.000                                                                  
> 2021  5 17  2 33 17.0000000  0  1                     
C27  21621048.271 7 112586463.327 7     -1092.344          44.000                                                                  
> 2021  5 17  2 33 18.0000000  0  1                     
C27  21621258.115 7 112587556.097 7     -1093.104          44.000                                                                  
> 2021  5 17  2 33 19.0000000  0  1                     
C27  21621468.083 7 112588649.430 7     -1093.372          44.000                                                                  
> 2021  5 17  2 33 20.0000000  0  1                     
C27  21621678.100 7 112589743.137 7     -1093.879          43.750                                                                  
> 2021  5 17  2 33 21.0000000  0  1                     
C27  21621888.259 7 112590837.633 7     -1095.022          44.000                                                                  
> 2021  5 17  2 33 22.0000000  0  1                     
C27  21622098.652 7 112591933.344 7     -1096.897          43.250                                                                  
> 2021  5 17  2 33 23.0000000  0  1                     
C27  21622309.435 7 112593031.371 7     -1098.872          43.500                                                                  
> 2021  5 17  2 33 24.0000000  0  1                     
C27  21622520.661 7 112594131.390 7     -1100.778          44.750                                                                  
> 2021  5 17  2 33 25.0000000  0  1                     
C27  21622732.186 6 112595233.005 6     -1101.938          41.750                                                                  
> 2021  5 17  2 33 26.0000000  0  1                     
C27  21622943.880 6 112596335.207 6     -1102.372          40.250                                                                  
> 2021  5 17  2 33 27.0000000  0  1                     
C27  21623155.688 6 112597438.049 6     -1103.040          39.750                                                                  
> 2021  5 17  2 33 28.0000000  0  1                     
C27  21623367.603 6 112598541.701 6     -1104.614          41.000                                                                  
> 2021  5 17  2 33 40.0000000  0  1                     
C27  21625912.934 5 112611797.75715     -1109.658          33.500                                                                  
> 2021  5 17  2 33 41.0000000  0  1                     
C27  21626126.837 5 112612907.33125     -1110.554          30.750                                                                  
> 2021  5 17  2 33 42.0000000  0  1                     
C27  21626339.324 5 112614022.31915     -1108.135          32.750                                                                  
> 2021  5 17  2 33 43.0000000  0  1                     
C27  21626552.461 7 112615131.72627     -1109.376          43.500                                                                  
> 2021  5 17  2 33 44.0000000  0  2                     
G 7  21047974.275 6 110607850.564 6      2189.015          40.250                                                                  
C27  21626765.425 7 112616241.55727     -1109.865          44.000                                                                  
> 2021  5 17  2 33 45.0000000  0  2                     
G 7  21047557.341 6 110605659.816 6      2192.837          40.000                                                                  
C27  21626978.551 7 112617351.34627     -1110.163          43.000                                                                  
> 2021  5 17  2 33 46.0000000  0  2                     
G 7  21047139.482 7 110603463.819 7      2199.381          42.000                                                                  
C27  21627191.175 6 112618460.42426     -1108.501          41.000                                                                  
> 2021  5 17  2 33 47.0000000  0  2                     
G 7  21046720.262 6 110601260.842 6      2206.800          42.000                                                                  
C27  21627403.394 7 112619568.25827     -1106.690          43.250                                                                  
> 2021  5 17  2 33 48.0000000  0  2                     
G 7  21046299.682 7 110599050.573 7      2212.660          42.250                                                                  
C27  21627615.557 7 112620674.50827     -1105.892          43.500                                                                  
> 2021  5 17  2 33 49.0000000  0  2                     
G 7  21045878.320 6 110596836.714 6      2213.742          40.250                                                                  
C27  21627827.729 7 112621779.93027     -1105.489          44.000                                                                  
> 2021  5 17  2 33 50.0000000  0  3                     
G21  20569872.092 7 108095406.316 7       822.594          42.500                                                                  
G 7  21045456.913 6 110594622.933 6      2213.832          39.750    21045454.321 6  86177619.141 6      1725.064          39.500  
C27  21628039.870 7 112622885.53427     -1105.703          42.000                                                                  
> 2021  5 17  2 33 51.0000000  0  3                     
G21  20569715.622 7 108094584.052 7       822.176          43.500                                                                  
G 7  21045035.500 6 110592409.431 6      2213.413          41.250    21045033.431 6  86175894.299 6      1724.737          40.750  
C27  21628252.038 7 112623991.379 7     -1105.893          42.000                                                                  
> 2021  5 17  2 33 52.0000000  0  3                     
G21  20569559.253 7 108093762.361 7       821.454          43.000                                                                  
G 7  21044614.347 6 110590196.307 6      2212.885          41.000    21044611.846 6  86174169.790 6      1724.326          41.250  
C27  21628464.280 7 112625097.602 7     -1106.533          42.750                                                                  
> 2021  5 17  2 33 53.0000000  0  3                     
G21  20569402.991 7 108092941.259 7       820.862          42.750                                                                  
G 7  21044193.312 6 110587983.576 6      2212.311          41.000    21044191.039 6  86172445.580 6      1723.879          39.250  
C27  21628676.500 7 112626204.182 7     -1106.868          42.750                                                                  
> 2021  5 17  2 33 54.0000000  0  3                     
G21  20569246.943 7 108092120.957 7       820.114          42.500                                                                  
G 7  21043772.277 6 110585771.410 6      2212.061          41.250    21043769.959 6  86170721.813 6      1723.683          40.500  
C27  21628888.888 7 112627311.361 7     -1107.143          42.250                                                                  
> 2021  5 17  2 33 55.0000000  0  3                     
G21  20569090.951 7 108091301.135 7       819.403          42.000                                                                  
G 7  21043351.258 6 110583559.559 6      2211.386          41.000    21043348.501 6  86168998.293 6      1723.159          40.500  
C27  21629101.287 7 112628418.833 7     -1107.783          42.500                                                                  
> 2021  5 17  2 33 56.0000000  0  3                     
G21  20568935.075 7 108090482.120 7       819.131          42.250    20568937.130 4  84226331.498 4       638.284          29.000  
G 7  21042930.418 6 110581348.306 6      2211.033          41.250    21042927.910 6  86167275.238 6      1722.883          41.000  
C27  21629313.855 6 112629526.908 6     -1108.090          41.750                                                                  
> 2021  5 17  2 33 57.0000000  0  3                     
G21  20568779.368 7 108089663.785 7       818.151          42.250    20568780.281 4  84225693.745 4       637.520          26.750  
G 7  21042509.748 6 110579137.538 6      2210.677          41.250    21042507.168 6  86165552.569 6      1722.607          41.000  
C27  21629526.461 6 112630635.453 6     -1108.454          41.750                                                                  
> 2021  5 17  2 33 58.0000000  0  3                     
G21  20568623.846 7 108088846.199 7       817.125          42.000    20568620.365 5  84225056.600 5       636.721          30.250  
G 7  21042089.187 6 110576927.317 6      2209.636          41.750    21042086.691 6  86163830.322 6      1721.796          40.250  
C27  21629739.338 6 112631744.541 6     -1109.281          41.750                                                                  
> 2021  5 17  2 33 59.0000000  0  3                     
G21  20568468.388 7 108088029.274 7       816.903          42.000    20568463.829 5  84224420.077 5       636.548          32.000  
G 7  21041668.601 6 110574717.577 6      2209.728          41.750    21041666.220 6  86162108.452 6      1721.869          41.000  
C27  21629952.266 6 112632854.104 6     -1109.520          41.750                                                                  
> 2021  5 17  2 34  0.0000000  0  3                     
G21  20568312.865 7 108087212.678 7       816.286          42.500    20568306.306 4  84223783.781 4       636.066          25.000  
G 7  21041248.198 6 110572507.938 6      2209.425          41.500    21041245.957 6  86160386.657 6      1721.631          41.000  
C27  21630165.301 6 112633963.750 6     -1109.742          42.000                                                                  
> 2021  5 17  2 34  1.0000000  0  3                     
G21  20568157.626 7 108086396.551 7       815.911          42.250    20568153.878 4  84223147.836 4       635.773          25.000  
G 7  21040827.806 6 110570298.577 6      2209.581          41.500    21040825.478 6  86158665.072 6      1721.752          40.250  
C27  21630378.292 6 112635073.687 6     -1109.904          42.000                                                                  
> 2021  5 17  2 34  2.0000000  0  4                     
G21  20568002.417 7 108085580.737 7       815.986          42.250    20567999.023 4  84222512.129 4       635.831          26.000  
G 7  21040407.468 6 110568089.337 6      2209.322          41.250    21040405.378 6  86156943.582 6      1721.549          40.750  
C27  21630591.367 6 112636183.748 6     -1110.046          42.000                                                                  
C 1  37405865.406 6 194782149.975 6        13.181          37.250                                                                  
> 2021  5 17  2 34  3.0000000  0  4                     
G21  20567847.264 7 108084765.448 7       815.005          42.500    20567842.556 4  84221876.828 4       635.065          26.250  
G 7  21039987.117 6 110565880.440 6      2208.575          41.750    21039984.967 6  86155222.358 6      1720.966          39.750  
C27  21630804.552 7 112637294.114 7     -1110.536          42.000                                                                  
C 1  37405862.540 6 194782136.975 6        12.696          37.250    37405861.880 5 150617921.69915         9.952          30.250  
> 2021  5 17  2 34  4.0000000  0  4                     
G21  20567692.213 7 108083950.939 7       814.121          42.750    20567687.539 4  84221242.143 4       634.374          26.250  
G 7  21039566.837 6 110563672.105 6      2208.016          41.750    21039564.436 6  86153501.578 6      1720.532          40.750  
C27  21631017.832 7 112638405.056 7     -1111.155          42.500                                                                  
C 1  37405861.193 6 194782124.097 6        12.796          37.250    37405859.783 5 150617911.72725        10.060          30.250  
> 2021  5 17  2 34  5.0000000  0  4                     
G21  20567537.339 7 108083137.020 7       813.631          42.750    20567532.104 4  84220607.909 4       633.991          28.750  
G 7  21039146.671 6 110561464.191 6      2207.570          41.750    21039144.414 6  86151781.128 6      1720.184          41.250  
C27  21631231.240 7 112639516.391 7     -1111.372          42.500                                                                  
C 1  37405858.497 6 194782111.158 6        13.171          37.000    37405856.726 5 150617901.70325         9.946          30.750  
> 2021  5 17  2 34  6.0000000  0  4                     
G21  20567382.484 7 108082323.619 7       813.096          43.000    20567376.896 3  84219974.076 3       633.575          20.500  
G 7  21038726.570 6 110559256.585 6      2207.345          41.250    21038724.216 6  86150060.911 6      1720.008          41.000  
C27  21631444.700 7 112640628.033 7     -1111.578          42.500                                                                  
C 1  37405855.493 6 194782098.143 6        12.854          37.500    37405856.223 5 150617891.66125         9.912          30.500  
> 2021  5 17  2 34  7.0000000  0  4                     
G21  20567227.797 7 108081510.626 7       812.769          42.750    20567223.096 4  84219340.585 4       633.324          29.000  
G 7  21038306.552 6 110557049.170 6      2207.468          41.250    21038304.110 6  86148340.845 6      1720.103          40.500  
C27  21631658.261 7 112641739.896 7     -1111.834          42.500                                                                  
C 1  37405852.696 6 194782084.919 6        13.346          37.000    37405853.484 5 150617881.43225        10.355          30.250  
> 2021  5 17  2 34  8.0000000  0  4                     
G21  20567073.150 7 108080698.197 7       811.955          42.500    20567068.788 4  84218707.533 4       632.691          28.250  
G 7  21037886.524 6 110554842.148 6      2206.747          41.000    21037884.247 6  86146621.086 6      1719.542          41.000  
C27  21631871.886 7 112642852.112 7     -1112.545          42.750                                                                  
C 1  37405849.632 6 194782071.610 6        13.371          36.750    37405851.082 5 150617871.12925         9.787          30.500  
> 2021  5 17  2 34  9.0000000  0  4                     
G21  20566918.623 7 108079886.249 7       811.602          42.500    20566914.545 4  84218074.860 4       632.422          28.750  
G 7  21037466.580 6 110552635.416 6      2206.463          41.000    21037464.286 6  86144901.550 6      1719.320          40.750  
C27  21632085.565 7 112643964.608 7     -1112.694          42.750                                                                  
C 1  37405847.145 6 194782058.188 6        13.223          36.750    37405847.256 5 150617860.74625        10.299          30.500  
> 2021  5 17  2 34 10.0000000  0  4                     
G21  20566764.254 7 108079075.161 7       810.570          42.250    20566759.439 4  84217442.862 4       631.619          27.000  
G 7  21037046.850 6 110550429.322 6      2206.054          41.000    21037044.573 6  86143182.518 6      1719.002          41.000  
C27  21632299.373 7 112645077.756 7     -1113.592          43.000                                                                  
C 1  37405844.856 6 194782044.965 6        12.891          37.000    37405844.417 5 150617850.54925         9.926          30.500  
> 2021  5 17  2 34 11.0000000  0  4                     
G21  20566610.030 7 108078264.755 7       809.762          42.500    20566604.722 4  84216811.367 4       630.990          26.000  
G 7  21036627.111 6 110548223.729 6      2205.159          41.000    21036624.917 6  86141463.876 6      1718.306          40.750  
C27  21632513.336 7 112646191.376 7     -1114.348          43.000                                                                  
C 1  37405842.412 6 194782031.825 6        12.843          36.250    37405842.819 5 150617840.35925         9.955          30.750  
> 2021  5 17  2 34 12.0000000  0  4                     
G21  20566455.974 7 108077455.163 7       809.441          42.500    20566451.433 4  84216180.509 4       630.734          27.750  
G 7  21036207.536 6 110546018.762 6      2204.596          41.250    21036205.233 6  86139745.727 6      1717.868          41.250  
C27  21632727.413 7 112647305.587 7     -1114.355          43.000                                                                  
C 1  37405839.928 6 194782018.845 6        13.291          36.250    37405840.602 5 150617830.31525        10.135          30.250  
> 2021  5 17  2 34 13.0000000  0  4                     
G21  20566301.973 7 108076645.805 7       809.006          42.500    20566297.774 4  84215549.839 4       630.396          29.250  
G 7  21035787.914 6 110543813.815 6      2204.703          41.000    21035785.795 6  86138027.588 6      1717.951          40.500  
C27  21632941.496 7 112648419.870 7     -1114.630          43.250                                                                  
C 1  37405837.600 6 194782005.502 6        13.100          36.500    37405837.840 5 150617820.02525        10.020          30.750  
> 2021  5 17  2 34 14.0000000  0  4                     
G21  20566148.059 7 108075837.211 7       808.140          42.500    20566144.726 4  84214919.783 4       629.721          25.750  
G 7  21035368.366 6 110541609.429 6      2204.074          40.750    21035366.280 6  86136309.881 6      1717.461          40.750  
C27  21633155.676 7 112649534.671 7     -1115.139          43.250                                                                  
C 1  37405834.981 6 194781992.250 6        13.085          37.000    37405835.487 5 150617809.75825        10.109          30.750  
> 2021  5 17  2 34 15.0000000  0  4                     
G21  20565994.333 7 108075029.495 7       807.364          42.500    20565991.678 4  84214290.370 4       629.113          26.000  
G 7  21034948.999 6 110539405.724 6      2203.729          41.000    21034946.917 6  86134592.707 6      1717.191          40.500  
C27  21633369.964 7 112650650.162 7     -1115.790          43.500                                                                  
C 1  37405832.438 6 194781979.274 6        13.184          37.000    37405833.225 5 150617799.69425        10.616          31.000  
> 2021  5 17  2 34 16.0000000  0  4                     
G21  20565840.735 7 108074222.274 7       806.696          42.500    20565838.383 4  84213661.370 4       628.592          28.000  
G 7  21034529.707 6 110537202.328 6      2203.069          41.000    21034527.622 6  86132875.779 6      1716.678          40.500  
C27  21633584.376 7 112651765.944 7     -1116.389          43.500                                                                  
C 1  37405830.062 6 194781966.180 6        12.854          36.500    37405830.655 5 150617789.59225        10.180          30.250  
> 2021  5 17  2 34 17.0000000  0  4                     
G21  20565687.326 7 108073415.987 7       805.857          42.500    20565684.891 5  84213033.091 5       627.936          30.500  
G 7  21034110.528 6 110534999.652 6      2202.729          41.000    21034108.627 6  86131159.406 6      1716.412          40.250  
C27  21633798.906 7 112652882.437 7     -1116.877          43.750                                                                  
C 1  37405827.795 6 194781953.341 6        13.006          36.750    37405828.357 5 150617779.67325        10.093          30.750  
> 2021  5 17  2 34 18.0000000  0  4                     
G21  20565534.027 7 108072610.400 7       805.319          42.250    20565531.440 4  84212405.353 4       627.520          25.250  
G 7  21033691.520 6 110532797.499 6      2202.031          40.750    21033689.777 6  86129443.442 6      1715.869          40.250  
C27  21634013.538 7 112653999.417 7     -1117.098          44.000                                                                  
C 1  37405825.402 6 194781940.606 6        13.087          36.250                                                                  
> 2021  5 17  2 34 19.0000000  0  4                     
G21  20565380.801 7 108071805.221 7       804.787          42.250    20565378.330 4  84211777.954 4       627.108          29.000  
G 7  21033272.566 6 110530595.561 6      2201.544          40.750    21033270.767 6  86127727.646 6      1715.488          40.000  
C27  21634228.231 7 112655116.613 7     -1117.495          44.000                                                                  
C 1  37405822.930 6 194781927.691 6        12.690          36.750    37405823.364 5 150617748.81925        10.129          31.000  
> 2021  5 17  2 34 20.0000000  0  5                     
G21  20565227.749 7 108071000.977 7       804.326          42.250    20565225.193 4  84211151.268 4       626.745          29.500  
G 7  21032853.684 6 110528394.341 6      2201.517          40.750    21032851.868 6  86126012.410 6      1715.468          40.000  
G 8  21073329.087 6 110741091.597 6     -1923.254          36.250                                                                  
C27  21634443.039 7 112656234.535 7     -1117.641          44.000                                                                  
C 1  37405820.544 6 194781915.012 6        13.354          36.750    37405821.143 5 150617739.02525        10.566          30.500  
> 2021  5 17  2 34 21.0000000  0  4                     
G21  20565074.778 7 108070197.063 7       803.711          42.250    20565071.784 5  84210524.839 5       626.267          32.000  
G 7  21032434.849 6 110526193.259 6      2201.104          40.500    21032432.994 6  86124297.282 6      1715.146          40.750  
G 8  21073695.307 6 110743015.419 6     -1923.953          36.250                                                                  
C27  21634657.835 7 112657352.596 7     -1118.250          44.500                                                                  
> 2021  5 17  2 34 22.0000000  0  4                     
G21  20564921.922 6 108069393.660 6       803.175          42.000    20564919.183 4  84209898.824 4       625.856          29.750  
G 7  21032015.979 6 110523992.513 6      2200.693          40.250    21032014.169 6  86122582.410 6      1714.825          40.750  
G 8  21074061.555 6 110744939.322 6     -1923.818          36.250                                                                  
C27  21634872.695 7 112658470.928 7     -1118.332          44.250                                                                  
> 2021  5 17  2 34 23.0000000  0  4                     
G21  20564769.135 6 108068590.593 6       803.305          42.000    20564765.705 4  84209273.070 4       625.956          29.750  
G 7  21031597.307 6 110521792.228 6      2199.957          40.500    21031595.554 6  86120867.899 6      1714.251          40.750  
G 8  21074428.055 6 110746863.457 6     -1924.371          37.000                                                                  
C27  21635087.653 7 112659589.585 7     -1118.708          46.250                                                                  
> 2021  5 17  2 34 24.0000000  0  4                     
G21  20564616.171 7 108067786.825 7       804.108          42.750    20564612.840 4  84208646.753 4       626.582          27.750  
G 7  21031178.805 7 110519592.967 7      2198.286          42.250    21031176.846 6  86119154.177 6      1712.946          40.500  
G 8  21074794.419 6 110748788.094 6     -1924.553          37.000                                                                  
C27  21635302.635 7 112660708.512 7     -1119.130          46.250                                                                  
> 2021  5 17  2 34 25.0000000  0  4                     
G21  20564463.063 6 108066982.509 6       805.315          41.500    20564459.994 4  84208020.019 4       627.522          29.500  
G 7  21030760.699 6 110517395.878 6      2195.891          41.000    21030758.727 6  86117442.155 6      1711.079          39.750  
G 8  21075160.814 6 110750714.141 6     -1926.926          38.500    21075159.994 6  86299256.32516     -1501.501          36.250  
C27  21635517.803 7 112661828.315 7     -1119.991          45.750                                                                  
> 2021  5 17  2 34 26.0000000  0  4                     
G21  20564309.777 6 108066176.957 6       805.662          40.500    20564306.996 5  84207392.331 5       627.795          30.250  
G 7  21030343.102 6 110515201.088 6      2193.821          40.500    21030340.949 6  86115731.923 6      1709.467          39.750  
G 8  21075527.765 6 110752641.662 6     -1928.095          40.750    21075527.189 6  86300758.285 6     -1502.411          40.750  
C27  21635733.182 6 112662948.915 6     -1121.137          40.000                                                                  
> 2021  5 17  2 34 27.0000000  0  3                     
G21  20564156.578 6 108065371.956 6       804.555          40.750    20564153.419 4  84206765.049 4       626.928          29.750  
G 7  21029925.702 6 110513007.367 6      2193.550          40.750    21029923.401 6  86114022.529 6      1709.256          39.750  
G 8  21075895.236 7 110754569.888 7     -1928.341          45.000    21075893.620 7  86302260.790 7     -1502.603          43.250  
> 2021  5 17  2 34 28.0000000  0  5                     
G21  20564003.710 6 108064568.534 6       802.054          41.000    20564000.484 5  84206138.996 5       624.977          30.500  
G 7  21029508.203 6 110510813.608 6      2194.517          40.500    21029505.895 6  86112313.105 6      1710.011          40.500  
G 8  21076262.484 5 110756498.406 5     -1928.907          35.250    21076263.691 5  86303763.558 5     -1503.044          34.000  
C27  21636164.247 5 112665183.09025     -1121.894          30.500                                                                  
C 3  36475005.435 6 189934930.959 6        42.642          37.750                                                                  
> 2021  5 17  2 34 29.0000000  0  4                     
G21  20563851.255 6 108063767.421 6       799.852          40.250    20563848.429 4  84205514.755 4       623.262          28.500  
G 7  21029090.402 6 110508618.034 6      2196.507          41.500    21029088.138 6  86110602.283 6      1711.566          41.250  
G 8  21076629.489 6 110758425.512 6     -1926.518          37.500    21076628.085 5  86305265.181 5     -1501.183          32.250  
C 3  36474997.595 6 189934888.284 6        42.031          38.500    36474995.534 5 146869705.88215        32.764          33.750  
> 2021  5 17  2 34 30.0000000  0  4                     
G21  20563699.273 6 108062968.611 6       798.525          40.250    20563695.987 5  84204892.314 5       622.228          30.000  
G 7  21028672.379 6 110506421.191 6      2197.726          41.250    21028670.183 6  86108890.464 6      1712.516          41.250  
G 8  21076997.194 6 110760351.604 6     -1925.272          37.000    21076991.153 4  86306765.970 4     -1500.210          26.250  
C 3  36474989.265 6 189934846.784 6        41.301          36.000    36474985.990 5 146869673.356 5        31.631          33.000  
> 2021  5 17  2 34 31.0000000  0  3                     
G21  20563547.387 6 108062170.447 6       798.289          40.500    20563544.552 4  84204270.341 4       622.038          28.000  
G 7  21028254.292 6 110504224.013 6      2196.912          41.500    21028252.282 6  86107178.384 6      1711.883          41.750  
G 8  21077364.611 6 110762277.353 6     -1925.969          37.000    21077353.985 5  86308266.623 5     -1500.733          33.000  
> 2021  5 17  2 34 32.0000000  0  3                     
G21  20563395.443 6 108061372.277 6       798.102          40.750    20563392.348 4  84203648.386 4       621.896          29.500  
G 7  21027836.496 6 110502028.339 6      2195.085          41.250    21027834.482 6  86105467.473 6      1710.459          40.750  
G 8  21077732.245 5 110764204.060 5     -1926.960          34.750    21077722.626 5  86309768.025 5     -1501.494          31.750  
> 2021  5 17  2 34 33.0000000  0  2                     
G21  20563243.441 6 108060573.578 6       799.728          40.750    20563240.043 5  84203026.049 5       623.170          32.500  
G 7  21027418.978 6 110499834.461 6      2192.356          41.000    21027417.043 6  86103757.964 6      1708.334          40.750  
> 2021  5 17  2 34 34.0000000  0  2                     
G21  20563090.915 6 108059772.418 6       801.432          40.750    20563087.728 5  84202401.788 5       624.498          30.250  
G 7  21027002.211 6 110497644.167 6      2188.464          40.250    21027000.231 6  86102051.249 6      1705.301          40.250  
> 2021  5 17  2 34 35.0000000  0  2                     
G21  20562938.290 6 108058970.172 6       802.395          39.750    20562934.624 5  84201776.655 5       625.249          32.750  
G 7  21026585.785 6 110495455.796 6      2188.577          40.000    21026583.633 6  86100346.019 6      1705.385          39.750  
> 2021  5 17  2 34 36.0000000  0  2                     
G21  20562786.092 6 108058170.176 6       798.174          40.750    20562782.833 5  84201153.307 5       621.964          32.250  
G 7  21026169.255 6 110493266.755 6      2190.419          40.250    21026167.089 6  86098640.274 6      1706.824          39.750  
> 2021  5 17  2 34 37.0000000  0  2                     
G21  20562634.767 6 108057374.866 6       791.962          41.250    20562631.858 4  84200533.593 4       617.121          29.000  
G 7  21025752.225 6 110491075.342 6      2192.172          38.750    21025750.045 6  86096932.699 6      1708.191          38.250  
> 2021  5 17  2 34 38.0000000  0  1                     
G 7  21025335.004 5 110488882.347 5      2190.539          34.000    21025332.789 5  86095223.876 5      1706.922          30.250  
> 2021  5 17  2 34 39.0000000  0  1                     
C27  21638545.770 7 112677586.659 7     -1136.783          43.000                                                                  
> 2021  5 17  2 34 40.0000000  0  1                     
C27  21638763.686 6 112678722.995 6     -1135.875          40.750                                                                  
> 2021  5 17  2 34 41.0000000  0  1                     
C27  21638982.569 6 112679860.960 6     -1138.780          40.750                                                                  
> 2021  5 17  2 34 42.0000000  0  1                     
C27  21639201.751 7 112681000.266 7     -1140.025          43.500                                                                  
> 2021  5 17  2 34 43.0000000  0  1                     
C27  21639420.806 7 112682141.022 7     -1140.810          42.750                                                                  
> 2021  5 17  2 34 44.0000000  0  1                     
C27  21639639.500 6 112683282.856 6     -1142.845          42.000                                                                  
> 2021  5 17  2 34 45.0000000  0  1                     
C27  21639858.810 7 112684425.258 7     -1142.697          42.000                                                                  
> 2021  5 17  2 34 46.0000000  0  1                     
C27  21640078.417 6 112685567.685 6     -1142.481          41.750                                                                  
> 2021  5 17  2 34 47.0000000  0  1                     
C27  21640297.845 7 112686709.953 7     -1142.296          42.000                                                                  
> 2021  5 17  2 34 48.0000000  0  1                     
C27  21640517.107 7 112687852.260 7     -1141.436          42.250                                                                  
> 2021  5 17  2 34 49.0000000  0  1                     
C27  21640736.421 7 112688994.382 7     -1141.834          43.500                                                                  
> 2021  5 17  2 34 50.0000000  0  1                     
C27  21640955.977 7 112690136.593 7     -1143.598          43.000                                                                  
> 2021  5 17  2 34 51.0000000  0  1                     
C27  21641175.278 7 112691279.412 7     -1142.704          42.000                                                                  
> 2021  5 17  2 34 52.0000000  0  1                     
C27  21641395.118 7 112692423.035 7     -1142.144          42.750                                                                  
> 2021  5 17  2 34 56.0000000  0  2                     
G21  20559792.167 6 108042436.74116       780.001          41.500                                                                  
C27  21642275.132 6 112697005.24216     -1147.220          41.250                                                                  
> 2021  5 17  2 34 57.0000000  0  2                     
G21  20559643.785 7 108041657.232 7       779.605          42.250                                                                  
C27  21642494.838 6 112698153.15326     -1148.303          41.000                                                                  
> 2021  5 17  2 34 58.0000000  0  2                     
G21  20559495.074 7 108040878.016 7       778.474          42.500                                                                  
C27  21642716.178 6 112699301.122 6     -1147.978          39.500                                                                  
> 2021  5 17  2 34 59.0000000  0  2                     
G21  20559347.335 7 108040099.379 7       778.733          43.000                                                                  
C27  21642936.791 6 112700450.126 6     -1149.852          42.000                                                                  
> 2021  5 17  2 35  0.0000000  0  1                     
C27  21643157.228 7 112701599.686 7     -1149.360          42.750                                                                  
> 2021  5 17  2 35  1.0000000  0  1                     
C27  21643378.276 7 112702749.147 7     -1148.887          42.500                                                                  
> 2021  5 17  2 35  2.0000000  0  1                     
C27  21643598.515 7 112703898.195 7     -1148.707          42.000                                                                  
> 2021  5 17  2 35  3.0000000  0  1                     
C27  21643818.957 6 112705047.371 6     -1148.862          41.500                                                                  
> 2021  5 17  2 35  4.0000000  0  1                     
C27  21644039.597 6 112706196.657 6     -1149.338          41.000                                                                  
> 2021  5 17  2 35  5.0000000  0  1                     
C27  21644260.598 6 112707346.417 6     -1150.305          41.750                                                                  
> 2021  5 17  2 35  6.0000000  0  1                     
C27  21644481.627 6 112708497.306 6     -1151.189          41.500                                                                  
> 2021  5 17  2 35  7.0000000  0  1                     
C27  21644702.837 6 112709648.742 6     -1151.327          41.250                                                                  
> 2021  5 17  2 35  8.0000000  0  1                     
C27  21644923.999 6 112710800.355 6     -1151.466          42.000                                                                  
> 2021  5 17  2 35  9.0000000  0  1                     
C27  21645145.379 6 112711952.268 6     -1151.145          37.250                                                                  
> 2021  5 17  2 35 10.0000000  0  1                     
C27  21645366.946 6 112713103.934 6     -1151.871          42.000                                                                  
> 2021  5 17  2 35 11.0000000  0  1                     
C27  21645588.189 7 112714256.157 7     -1152.135          42.500                                                                  
> 2021  5 17  2 35 12.0000000  0  1                     
C27  21645809.510 6 112715408.559 6     -1152.043          40.000                                                                  
> 2021  5 17  2 35 13.0000000  0  1                     
C27  21646030.844 6 112716561.787 6     -1154.021          41.750                                                                  
> 2021  5 17  2 35 14.0000000  0  1                     
C27  21646252.255 6 112717714.750 6     -1152.427          40.750                                                                  
> 2021  5 17  2 35 15.0000000  0  1                     
C27  21646473.749 6 112718868.687 6     -1154.085          41.750                                                                  
> 2021  5 17  2 35 16.0000000  0  1                     
C27  21646695.508 6 112720023.370 6     -1155.025          41.750                                                                  
> 2021  5 17  2 35 17.0000000  0  1                     
C27  21646917.397 6 112721178.956 6     -1156.438          41.750                                                                  
> 2021  5 17  2 35 18.0000000  0  1                     
C27  21647139.623 6 112722336.057 6     -1157.267          41.750                                                                  
> 2021  5 17  2 35 23.0000000  0  1                     
C27  21648251.590 7 112728124.38217     -1158.141          42.750                                                                  
> 2021  5 17  2 35 24.0000000  0  2                     
G 8  21097051.934 6 110865749.83226     -1961.286          41.000                                                                  
C27  21648473.127 6 112729282.79826     -1158.075          41.750                                                                  
> 2021  5 17  2 35 25.0000000  0  2                     
G 8  21097424.950 6 110867709.028 6     -1959.161          36.000                                                                  
C27  21648695.996 6 112730441.02826     -1160.043          42.000                                                                  
> 2021  5 17  2 35 26.0000000  0  1                     
C27  21648918.126 6 112731597.81326     -1156.436          41.500                                                                  
> 2021  5 17  2 35 27.0000000  0  1                     
C27  21649139.910 7 112732753.493 7     -1155.579          42.750                                                                  
> 2021  5 17  2 35 28.0000000  0  1                     
C27  21649361.763 7 112733907.360 7     -1153.089          43.750                                                                  
> 2021  5 17  2 35 29.0000000  0  1                     
C27  21649583.158 7 112735060.009 7     -1151.818          43.250                                                                  
> 2021  5 17  2 35 30.0000000  0  1                     
C27  21649804.390 7 112736210.701 7     -1149.760          44.000                                                                  
> 2021  5 17  2 35 31.0000000  0  2                     
G 7  21003308.535 7 110373125.587 7      2183.291          42.000                                                                  
C27  21650025.072 7 112737360.631 7     -1149.723          43.250                                                                  
> 2021  5 17  2 35 32.0000000  0  2                     
G21  20554531.308 7 108014789.657 7       751.180          42.000                                                                  
C27  21650245.871 7 112738510.151 7     -1149.670          44.000                                                                  
> 2021  5 17  2 35 33.0000000  0  3                     
G21  20554388.194 6 108014036.464 6       755.209          42.000                                                                  
G 8  21100387.128 6 110883282.67226     -1939.094          36.750                                                                  
C27  21650466.451 7 112739658.753 7     -1148.837          44.000                                                                  
> 2021  5 17  2 35 34.0000000  0  2                     
G21  20554244.951 6 108013279.895 6       758.192          41.250                                                                  
C27  21650686.874 6 112740806.546 6     -1147.406          41.000                                                                  
> 2021  5 17  2 35 35.0000000  0  3                     
G21  20554100.390 6 108012520.831 6       759.340          41.750                                                                  
C27  21650906.826 6 112741953.298 6     -1146.563          39.750                                                                  
C30  22484886.665 6 117084708.45026      1692.722          41.750                                                                  
> 2021  5 17  2 35 36.0000000  0  3                     
G21  20553955.643 6 108011761.455 6       759.205          41.250                                                                  
C27  21651126.917 6 112743100.082 6     -1146.901          39.750                                                                  
C30  22484562.114 6 117083016.00426      1692.209          41.750                                                                  
> 2021  5 17  2 35 37.0000000  0  4                     
G21  20553811.365 6 108011002.911 6       758.325          41.500                                                                  
C27  21651347.103 6 112744247.489 6     -1147.546          39.500                                                                  
C30  22484236.649 6 117081324.12626      1692.025          41.250                                                                  
C 3  36474265.726 6 189931072.385 6        44.097          40.250                                                                  
> 2021  5 17  2 35 38.0000000  0  4                     
G21  20553667.477 6 108010245.142 6       757.464          41.250    20553668.587 5  84163830.659 5       590.232          30.750  
C27  21651567.411 6 112745395.418 6     -1148.136          39.500                                                                  
C30  22483911.935 6 117079632.83326      1691.034          40.750                                                                  
C 3  36474257.065 6 189931028.643 6        43.649          40.250    36474253.152 5 146866711.20015        34.207          31.500  
> 2021  5 17  2 35 39.0000000  0  5                     
G21  20553523.370 6 108009487.945 6       757.094          41.250    20553521.937 5  84163240.627 5       589.943          32.500  
C27  21651787.977 6 112746543.761 6     -1148.748          39.750                                                                  
C30  22483587.402 6 117077941.91526      1690.920          41.000                                                                  
C 1  37405702.023 6 194781308.184 6        15.866          38.750                                                                  
C 3  36474249.561 6 189930984.852 6        43.924          40.250    36474245.926 5 146866677.357 5        34.079          32.250  
> 2021  5 17  2 35 40.0000000  0  5                     
G21  20553379.162 6 108008731.116 6       756.674          41.500    20553378.388 5  84162650.888 5       589.616          30.250  
C27  21652008.430 6 112747692.217 6     -1148.373          39.500                                                                  
C30  22483262.614 6 117076251.148 6      1690.675          41.000                                                                  
C 1  37405697.859 6 194781292.328 6        15.806          38.250    37405700.112 5 150617258.356 5        12.602          34.000  
C 3  36474240.481 6 189930940.812 6        44.096          40.000    36474237.794 5 146866643.314 5        34.205          32.250  
> 2021  5 17  2 35 41.0000000  0  5                     
G21  20553235.375 6 108007974.718 6       756.078          41.250    20553234.244 5  84162061.486 5       589.151          33.750  
C27  21652228.939 6 112748840.918 6     -1149.029          39.500                                                                  
C30  22482937.763 6 117074560.557 6      1690.700          40.750                                                                  
C 1  37405695.862 6 194781276.251 6        16.333          38.750    37405695.382 5 150617245.909 5        12.688          34.000  
C 3  36474231.301 6 189930896.547 6        44.316          40.000                                                                  
> 2021  5 17  2 35 42.0000000  0  5                     
G21  20553091.543 6 108007219.057 6       755.301          41.500    20553089.950 5  84161472.647 5       588.547          31.250  
C27  21652449.637 6 112749990.118 6     -1149.561          40.000                                                                  
C30  22482613.280 6 117072870.527 6      1689.463          40.750                                                                  
C 1  37405692.969 6 194781260.297 6        16.068          38.500    37405692.320 5 150617233.593 5        12.257          33.750  
C 3  36474223.045 6 189930852.401 6        44.164          40.250    36474224.943 5 146866583.01215        33.040          31.250  
> 2021  5 17  2 35 43.0000000  0  6                     
G21  20552948.001 6 108006464.147 6       754.783          41.500    20552947.368 5  84160884.417 5       588.148          32.750  
G 7  20998348.711 6 110347065.22326      2167.900          37.250                                                                  
C27  21652670.421 6 112751139.871 6     -1149.712          40.000                                                                  
C30  22482288.760 6 117071181.002 6      1689.430          40.250                                                                  
C 1  37405689.968 6 194781244.476 6        16.162          38.500    37405690.895 5 150617221.342 5        12.747          34.000  
C 3  36474214.395 6 189930808.359 6        44.325          40.250    36474214.736 5 146866548.89825        34.123          32.000  
> 2021  5 17  2 35 44.0000000  0  6                     
G21  20552804.396 6 108005710.210 6       752.875          41.500    20552802.482 5  84160296.949 5       586.662          33.000  
G 7  20997932.415 6 110344897.593 6      2166.334          37.250                                                                  
C27  21652891.390 6 112752290.369 6     -1151.461          39.500                                                                  
C30  22481964.429 6 117069492.228 6      1687.910          40.000                                                                  
C 1  37405687.433 6 194781228.981 6        15.082          38.750                                                                  
C 3  36474205.910 6 189930764.662 6        42.977          40.250    36474205.386 5 146866515.11125        33.173          32.250  
> 2021  5 17  2 35 45.0000000  0  6                     
G21  20552661.078 6 108004957.978 6       750.900          41.750    20552659.589 5  84159710.794 5       585.120          30.750  
G 7  20997521.186 6 110342731.472 6      2164.631          37.750                                                                  
C27  21653112.651 6 112753442.357 6     -1153.273          40.250                                                                  
C30  22481640.498 6 117067804.937 6      1686.034          39.750                                                                  
C 1  37405684.334 6 194781214.567 6        13.251          39.000                                                                  
C 3  36474197.655 6 189930722.024 6        41.735          40.250    36474196.545 5 146866482.16125        31.736          31.750  
> 2021  5 17  2 35 46.0000000  0  6                     
G21  20552713.230 6 108005232.210 6       748.766          41.750    20552712.296 5  84159924.473 5       583.455          33.000  
G 7  20997306.341 6 110341591.659 6      2162.474          37.500                                                                  
C27  21653529.219 6 112755611.279 6     -1155.275          39.750                                                                  
C30  22481511.597 6 117067134.579 6      1684.125          39.500                                                                  
C 1  37405876.064 6 194782216.637 6        11.865          38.250    37405877.872 5 150617963.077 5         9.256          34.000  
C 3  36474385.124 6 189931695.919 6        39.996          40.000    36474383.856 5 146867235.21025        30.767          32.250  
> 2021  5 17  2 35 47.0000000  0  6                     
G21  20552571.135 6 108004485.060 6       746.153          41.500    20552569.745 5  84159342.276 5       581.420          32.500  
G 7  20996894.854 6 110339430.181 6      2160.641          37.750                                                                  
C27  21653751.329 6 112756767.868 6     -1157.507          40.250                                                                  
C30  22481188.364 6 117065451.862 6      1682.002          39.000                                                                  
C 1  37405874.221 6 194782205.968 6         9.711          38.000    37405875.219 5 150617954.828 5         7.653          33.500  
C 3  36474377.838 6 189931657.054 6        38.322          40.250    36474377.203 5 146867205.12425        29.794          32.250  
> 2021  5 17  2 35 48.0000000  0  6                     
G21  20552429.452 6 108003739.697 6       743.973          41.750    20552427.940 4  84158761.467 4       579.717          29.750  
G 7  20996483.377 6 110337270.349 6      2159.020          37.750    20996482.642 6  85977089.47216      1682.353          36.750  
C27  21653973.708 6 112757926.031 6     -1159.548          39.750                                                                  
C30  22480865.684 6 117063770.760 6      1679.969          39.000                                                                  
C 1  37405872.080 6 194782196.452 6         8.543          38.250    37405872.443 5 150617947.501 5         6.365          33.750  
C 3  36474370.674 6 189931619.340 6        36.628          40.000    36474369.346 5 146867176.01525        27.913          31.750  
> 2021  5 17  2 35 49.0000000  0  6                     
G21  20552288.030 6 108002996.666 6       741.978          41.750    20552286.787 4  84158182.476 4       578.163          29.500  
G 7  20996073.821 6 110335112.687 6      2156.925          37.750    20996070.245 6  85975408.226 6      1680.720          37.250  
C27  21654196.417 6 112759086.278 6     -1161.098          39.750                                                                  
C30  22480543.161 6 117062091.747 6      1677.960          38.750                                                                  
C 1  37405870.586 6 194782188.648 6         7.094          38.250    37405871.716 5 150617941.471 5         5.126          33.750  
C 3  36474363.685 6 189931583.313 6        35.819          40.250    36474362.005 5 146867148.12325        27.548          31.750  
> 2021  5 17  2 35 50.0000000  0  6                     
G21  20552146.684 6 108002254.348 6       741.610          41.750    20552145.976 5  84157604.062 5       577.880          31.000  
G 7  20995662.922 6 110332955.514 6      2156.828          38.250    20995663.149 6  85973727.325 6      1680.645          36.250  
C27  21654419.375 6 112760247.065 6     -1161.549          39.250                                                                  
C30  22480220.696 6 117060413.194 6      1678.079          38.750                                                                  
C 1  37405868.931 6 194782180.909 6         7.583          38.250    37405870.643 5 150617935.493 5         5.305          33.750  
C 3  36474356.834 6 189931547.386 6        35.792          40.250                                                                  
> 2021  5 17  2 35 51.0000000  0  7                     
G21  20552005.744 6 108001513.682 6       739.779          41.500    20552005.038 5  84157026.926 5       576.454          31.500  
G 7  20995252.218 6 110330799.811 6      2154.862          38.000    20995251.955 5  85972047.559 5      1679.113          35.250  
G 8  21107239.948 5 110919292.61215     -1951.807          31.000                                                                  
C27  21654642.591 6 112761409.246 6     -1163.215          39.750                                                                  
C30  22479898.569 6 117058736.085 6      1676.308          38.750                                                                  
C 1  37405867.763 6 194782174.166 6         6.537          38.250    37405869.488 5 150617930.216 5         5.152          33.750  
C 3  36474350.012 6 189931512.461 6        34.184          40.250    36474347.701 5 146867093.34325        26.581          32.250  
> 2021  5 17  2 35 52.0000000  0  7                     
G21  20551865.017 6 108000774.169 6       738.405          41.250    20551864.329 5  84156450.678 5       575.381          33.000  
G 7  20994842.231 6 110328645.072 6      2153.843          38.000    20994840.444 5  85970368.552 5      1678.319          35.750  
G 8  21107606.649 5 110921244.44625     -1952.736          31.250                                                                  
C27  21654865.895 6 112762572.336 6     -1164.063          39.250                                                                  
C30  22479576.589 6 117057059.876 6      1675.470          38.750                                                                  
C 1  37405866.710 6 194782167.955 6         5.525          38.250    37405868.326 5 150617925.440 5         4.477          33.500  
C 3  36474343.566 6 189931478.024 6        33.859          40.250    36474342.105 5 146867066.69425        26.381          32.000  
> 2021  5 17  2 35 53.0000000  0  7                     
G21  20551724.635 6 108000036.241 6       738.538          41.500    20551724.495 5  84155875.659 5       575.483          32.250  
G 7  20994432.306 6 110326491.759 6      2153.938          38.250    20994430.335 6  85968690.656 6      1678.394          37.750  
G 8  21107984.280 5 110923197.46325     -1951.838          32.000                                                                  
C27  21655089.611 6 112763736.834 6     -1163.839          39.000                                                                  
C30  22479255.040 6 117055385.078 6      1675.499          38.500                                                                  
C 1  37405865.907 6 194782162.744 6         5.981          38.250                                                                  
C 3  36474337.098 6 189931444.575 6        34.325          40.250    36474336.493 5 146867040.83525        26.778          31.500  
> 2021  5 17  2 35 54.0000000  0  7                     
G21  20551583.698 7 107999295.567 7       742.293          42.250    20551584.191 5  84155298.529 5       578.414          30.500  
G 7  20994022.007 6 110324335.477 6      2157.782          38.750    20994020.072 5  85967010.432 5      1681.389          35.750  
G 8  21108353.840 5 110925147.36325     -1948.443          32.250                                                                  
C27  21655312.684 6 112764898.370 6     -1159.914          38.500                                                                  
C30  22478932.879 6 117053707.298 6      1679.555          38.250                                                                  
C 1  37405864.455 6 194782154.095 6        10.512          37.500    37405866.064 5 150617921.736 5         8.020          33.750  
C 3  36474330.032 6 189931407.752 6        38.510          39.500    36474327.881 5 146867012.33225        30.111          31.750  
> 2021  5 17  2 35 55.0000000  0  8                     
G21  20551442.459 6 107998553.384 6       741.861          41.750    20551442.955 5  84154720.219 5       578.080          31.500  
