     3.03           OBSERVATION DATA    M: Mixed            RINEX VERSION / TYPE
RTKCONV demo5 b33c                      20210520 090207 UTC PGM / RUN BY / DATE 
log: C:\Users\Ivan_PolyU_Dktp\Dropbox\HUAWEI Exp\20210517_  COMMENT             
format: RINEX                                               COMMENT             
Geo++                                                       MARKER NAME         
                                                            MARKER NUMBER       
                                                            MARKER TYPE         
                                                            OBSERVER / AGENCY   
unknown             HUAWEI              ELS-AN00            REC # / TYPE / VERS 
unknown             ELS-AN00                                ANT # / TYPE        
 -2419228.7295  5385470.1789  2405343.7143                  APPROX POSITION XYZ 
        0.0000        0.0000        0.0000                  ANTENNA: DELTA H/E/N
G    8 C1C L1C D1C S1C C5Q L5Q D5Q S5Q                      SYS / # / OBS TYPES 
R    4 C1C L1C D1C S1C                                      SYS / # / OBS TYPES 
E    4 C5Q L5Q D5Q S5Q                                      SYS / # / OBS TYPES 
J    8 C1C L1C D1C S1C C5Q L5Q D5Q S5Q                      SYS / # / OBS TYPES 
C    4 C2I L2I D2I S2I                                      SYS / # / OBS TYPES 
  2021     5    17     2    33   12.9992448     GPS         TIME OF FIRST OBS   
  2021     5    17     2    46   18.9987748     GPS         TIME OF LAST OBS    
G                                                           SYS / PHASE SHIFT   
R                                                           SYS / PHASE SHIFT   
E                                                           SYS / PHASE SHIFT   
J                                                           SYS / PHASE SHIFT   
C                                                           SYS / PHASE SHIFT   
  3 R01  1 R09 -2 R17  4                                    GLONASS SLOT / FRQ #
 C1C    0.000 C1P    0.000 C2C    0.000 C2P    0.000        GLONASS COD/PHS/BIS 
                                                            END OF HEADER       
> 2021  5 17  2 33 12.9992448  0  5                     
C 7  36822290.759 1 191743267.320 1      -799.275          25.000  
C27  21620283.189 1 112582476.570 1     -2082.614          33.000  
G 8  21048938.423 1 110612951.824 1     -2910.752          27.000                                                                  
G21  20575912.992 1 108127109.600 1      -156.431          26.000                                                                  
G27  23191278.112 1 121871070.398 1     -4036.570          12.000                                                                  
> 2021  5 17  2 33 13.9992440  0  7                     
C 7  36822205.018 1 191742818.718 1      -799.616          25.000  
C27  21620442.379 1 112583310.698 1     -2082.715          32.000  
C37  22953684.495 1 119525830.05511     -2112.456          22.000  
G 8  21049254.704 1 110614601.787 1     -2910.172          27.000                                                                  
G16  24269237.956 1 127535624.32411     -2715.986          21.000                                                                  
G21  20575708.234 1 108126005.853 1      -156.862          26.000                                                                  
G27  23191804.848 1 121873845.796 1     -4037.151          11.000                                                                  
> 2021  5 17  2 33 14.9992433  0  4                     
C 7  36822148.957 1 191742525.631 1      -798.612          25.000  
C27  21620628.550 1 112584300.778 1     -2082.993          33.000  
G16  24269543.744 1 127537236.864 1     -2714.968          21.000                                                                  
G21  20575528.658 1 108125059.919 1      -157.131          27.000                                                                  
> 2021  5 17  2 33 15.9992428  0  4                     
C 7  36822151.955 1 191742543.216 1      -797.775          26.000  
C27  21620877.678 1 112585603.265 1     -2082.621          33.000  
G 8  21049999.089 1 110618532.44311     -2910.920          27.000                                                                  
G21  20575407.842 1 108124429.261 1      -157.055          27.000                                                                  
> 2021  5 17  2 33 16.9992420  0  4                     
C 7  36822065.015 1 191742092.808 1      -798.657          25.000  
C27  21621041.664 1 112586437.609 1     -2082.937          33.000  
G 8  21050312.672 1 110620182.217 1     -2909.906          27.000                                                                  
G21  20575198.586 1 108123326.159 1      -157.487          26.000                                                                  
> 2021  5 17  2 33 17.9992415  0  6                     
C 7  36822067.713 1 191742109.851 1      -797.108          26.000  
C27  21621295.289 1 112587740.312 1     -2082.533          33.000  
C37  22954552.394 1 119530382.05611     -2114.104          20.000  
G 1  21532894.287 1 113156118.22611      2102.346          17.000                                                                  
G 8  21050715.593 1 110622304.498 1     -2910.323          26.000                                                                  
G21  20575078.969 1 108122696.199 1      -158.073          26.000                                                                  
> 2021  5 17  2 33 18.9992410  0  5                     
C 7  36822072.210 1 191742126.518 1      -797.104          26.000  
C27  21621545.016 1 112589043.206 1     -2082.654          33.000  
G 1  21532343.569 1 113153226.956 1      2103.351          16.000                                                                  
G 8  21051118.814 1 110624426.833 1     -2909.995          25.000                                                                  
G21  20574956.354 1 108122066.894 1      -158.122          25.000                                                                  
> 2021  5 17  2 33 19.9992402  0  5                     
C 7  36821986.769 1 191741675.051 1      -798.885          25.000  
C27  21621703.606 1 112589877.956 1     -2083.889          32.000  
C37  22954970.305 1 119532576.44911     -2109.745          20.000  
G 8  21051430.298 1 110626076.543 1     -2909.413          25.000                                                                  
G21  20574745.600 1 108120965.106 1      -158.932          26.000                                                                  
> 2021  5 17  2 33 20.9992394  0  7                     
C 7  36821901.028 1 191741225.597 1      -798.836          24.000  
C27  21621865.794 1 112590713.096 1     -2083.624          32.000  
C37  22955133.092 1 119533437.559 1     -2109.283          20.000  
G 1  21531066.453 1 113146497.84211      2107.011          13.000                                                                  
G 8  21051742.982 1 110627725.960 1     -2909.767          25.000                                                                  
G16  24271465.414 1 127547383.52011     -2714.026          16.000                                                                  
G21  20574535.745 1 108119864.253 1      -159.130          26.000                                                                  
> 2021  5 17  2 33 21.9992389  0  6                     
C 7  36821903.127 1 191741243.630 1      -797.965          23.000  
C27  21622116.720 1 112592017.767 1     -2087.765          33.000  
G 1  21530519.631 1 113143605.766 1      2101.874          16.000                                                                  
G 8  21052149.200 1 110629849.906 1     -2913.213          25.000                                                                  
G16  24271829.662 1 127549311.539 1     -2717.293          17.000                                                                  
G21  20574416.428 1 108119235.765 1      -158.670          29.000                                                                  
> 2021  5 17  2 33 22.9992381  0  5                     
C27  21622281.006 1 112592856.026 1     -2087.001          32.000  
G 1  21529884.371 1 113140244.991 1      2099.272          29.000                                                                  
G 8  21052464.582 1 110631502.992 1     -2913.473          24.000                                                                  
G16  24272105.771 1 127550768.977 1     -2721.018          18.000                                                                  
G21  20574208.072 1 108118134.011 1      -158.637          27.000                                                                  
> 2021  5 17  2 33 23.9992376  0  5                     
C 7  36821817.686 1 191740810.87911      -799.789          21.000  
C27  21622528.335 1 112594164.609 1     -2089.497          34.000  
G 1  21529336.051 1 113137357.784 1      2099.229          31.000                                                                  
G16  24272474.216 1 127552703.447 1     -2725.406          19.000                                                                  
G21  20574087.855 1 108117505.329 1      -159.626          29.000                                                                  
> 2021  5 17  2 33 24.9992371  0  6                     
C27  21622779.861 1 112595474.526 1     -2089.676          38.000  
C37  22956070.843 1 119538310.00511     -2122.644          20.000  
G 1  21528790.429 1 113134470.786 1      2099.537          25.000                                                                  
G 8  21053283.315 1 110635756.25511     -2912.342          17.000                                                                  
G16  24272843.860 1 127554644.097 1     -2732.228          24.000                                                                  
G21  20573967.938 1 108116877.231 1      -159.755          26.000                                                                  
> 2021  5 17  2 33 25.9992364  0  5                     
C 7  36821772.118 1 191740541.00011      -801.566          16.000  
C27  21622972.328 1 112596472.287 1     -2089.979          38.000  
G 1  21528182.749 1 113131267.850 1      2100.695          20.000                                                                  
G16  24273155.044 1 127556275.166 1     -2735.410          29.000                                                                  
G21  20573788.363 1 108115935.235 1      -160.919          25.000                                                                  
> 2021  5 17  2 33 26.9992356  0  6                     
C 7  36821684.878 1 191740091.872 1      -797.951          15.000  
C27  21623131.518 1 112597314.039 1     -2089.640          37.000  
C37  22956438.688 1 119540215.11111     -2120.681          19.000  
G 1  21527545.690 1 113127906.264 1      2101.224          22.000                                                                  
G16  24273436.550 1 127557750.484 1     -2736.211          29.000                                                                  
G21  20573581.506 1 108114835.230 1      -160.451          21.000                                                                  
> 2021  5 17  2 33 27.9992351  0  6                     
C 7  36821687.276 1 191740110.065 1      -798.460          14.000  
C27  21623384.842 1 112598625.989 1     -2095.049          32.000  
C30  22527089.421 1 117304469.91911       769.723          24.000  
G 1  21526997.969 1 113125016.988 1      2101.957          21.000                                                                  
G 8  21054360.170 1 110641325.45411     -2901.702          19.000                                                                  
G21  20573467.285 1 108114207.094 1      -159.826          20.000                                                                  
> 2021  5 17  2 33 28.9992346  0  3                     
C27  21623633.970 1 112599935.363 1     -2088.691          15.000  
G 1  21526450.249 1 113122126.346 1      2104.328          25.000                                                                  
G 8  21054768.787 1 110643437.119 1     -2898.161          20.000                                                                  
> 2021  5 17  2 33 29.9992340  0  4                     
C37  22957181.574 1 119544051.37311     -2103.094          18.000  
G 1  21525873.148 1 113119073.734 1      2109.625          25.000                                                                  
G 8  21055142.628 1 110645386.299 1     -2894.077          23.000                                                                  
G16  24274508.008 1 127563412.98611     -2711.422          20.000                                                                  
> 2021  5 17  2 33 30.9992333  0  7                     
C 7  36821607.232 1 191739681.72911      -788.952          24.000  
C27  21624044.985 1 112602079.20211     -2086.407          29.000  
C37  22957374.640 1 119545059.780 1     -2100.821          20.000  
G 1  21525263.070 1 113115860.718 1      2110.646          30.000                                                                  
G 8  21055485.591 1 110647177.830 1     -2894.981          26.000                                                                  
G16  24274814.995 1 127565021.169 1     -2710.893          19.000                                                                  
G21  20573007.703 1 108111831.17311      -148.968          28.000                                                                  
> 2021  5 17  2 33 31.9992325  0  7                     
C 7  36821520.592 1 191739223.377 1      -793.395          26.000  
C27  21624205.074 1 112602916.746 1     -2086.639          28.000  
C37  22957541.025 1 119545914.107 1     -2106.621          25.000  
G 1  21524621.515 1 113112489.051 1      2111.343          26.000                                                                  
G 8  21055802.771 1 110648814.167 1     -2897.197          26.000                                                                  
G21  20572795.150 1 108110718.222 1      -146.705          30.000                                                                  
J 3  38630336.974 1 203003790.10711     -1815.837          33.000                                                                  
> 2021  5 17  2 33 32.9992320  0  7                     
C 7  36821524.789 1 191739238.275 1      -796.222          28.000  
C27  21624456.300 1 112604222.772 1     -2086.902          23.000  
G 1  21524064.800 1 113109587.396 1      2116.494          25.000                                                                  
G 8  21056209.889 1 110650923.987 1     -2902.799          28.000                                                                  
G16  24275454.453 1 127568381.77711     -2695.676          18.000                                                                  
G21  20572671.936 1 108110076.140 1      -145.222          31.000                                                                  
J 3  38630529.741 1 203004818.261 1     -1816.534          35.000                                                                  
> 2021  5 17  2 33 33.9992312  0  6                     
C 7  36821440.847 1 191738786.093 1      -797.427          27.000  
G 1  21523417.248 1 113106208.938 1      2120.303          24.000                                                                  
G 8  21056526.170 1 110652569.004 1     -2913.601          31.000                                                                  
G16  24275730.861 1 127569816.430 1     -2694.256          17.000                                                                  
G21  20572455.485 1 108108960.461 1      -144.616          28.000                                                                  
J 3  38630634.668 1 203005375.157 1     -1817.958          34.000                                                                  
> 2021  5 17  2 33 34.9992307  0  7                     
C 7  36821448.342 1 191738805.636 1      -802.127          26.000  
C27  21624873.312 1 112606368.97111     -2090.324          20.000  
G 1  21522864.131 1 113103300.881 1      2120.995          28.000                                                                  
G 8  21056938.685 1 110654700.472 1     -2924.274          31.000                                                                  
G16  24276093.011 1 127571722.214 1     -2693.625          14.000                                                                  
G21  20572331.671 1 108108316.751 1      -143.365          25.000                                                                  
J 3  38630833.730 1 203006405.215 1     -1818.318          32.000                                                                  
> 2021  5 17  2 33 35.9992302  0  7                     
C 7  36821455.237 1 191738829.532 1      -805.191          27.000  
C27  21625126.037 1 112607679.156 1     -2091.364          22.000  
C30  22524478.528 1 117290731.98511       765.149          16.000  
G 1  21522310.115 1 113100391.872 1      2121.953          25.000                                                                  
G 8  21057345.803 1 110656839.133 1     -2928.038          29.000                                                                  
G16  24276463.254 1 127573624.158 1     -2686.303          11.000                                                                  
G21  20572207.857 1 108107671.894 1      -142.364          27.000                                                                  
> 2021  5 17  2 33 36.9992294  0  6                     
C 7  36821370.695 1 191738386.017 1      -804.750          29.000  
C27  21625290.023 1 112608522.209 1     -2093.156          25.000  
C30  22524092.395 1 117288718.855 1       761.807          28.000  
G 8  21057665.082 1 110658776.067 1     -2927.774          21.000                                                                  
G16  24276741.162 1 127575049.667 1     -2685.336          10.000                                                                  
G21  20571992.606 1 108106553.112 1      -140.952          29.000                                                                  
> 2021  5 17  2 33 37.9992287  0  5                     
C 7  36821314.634 1 191738098.364 1      -804.954          30.000  
C27  21625481.890 1 112609521.768 1     -2091.884          27.000  
G 1  21521051.886 1 113093783.02811      2124.184          22.000                                                                  
G 7  21050488.650 1 110621063.73511      1196.824          25.000                                                                  
G21  20571809.433 1 108105590.943 1      -140.477          30.000                                                                  
> 2021  5 17  2 33 38.9992282  0  6                     
C 7  36821320.031 1 191738123.960 1      -806.597          17.000  
C27  21625728.620 1 112610831.222 1     -2087.479          18.000  
G 1  21520495.771 1 113090869.724 1      2126.786          26.000                                                                  
G 7  21050116.907 1 110619079.746 1      1195.078          25.000                                                                  
G 8  21058411.565 1 110662738.44411     -2923.066          17.000                                                                  
G21  20571686.818 1 108104943.360 1      -139.945          28.000                                                                  
> 2021  5 17  2 33 39.9992276  0  4                     
C 7  36821295.747 1 191737993.143 1      -803.182          25.000  
G 1  21519906.679 1 113087796.309 1      2128.290          26.000                                                                  
G 7  21049710.089 1 110616939.802 1      1194.113          27.000                                                                  
G21  20571533.624 1 108104137.980 1      -139.858          29.000                                                                  
> 2021  5 17  2 33 40.9992269  0  6                     
C 7  36821242.384 1 191737703.517 1      -804.662          25.000  
C27  21626146.530 1 112612976.26811     -2087.693          20.000  
G 1  21519290.605 1 113084566.019 1      2120.053          26.000                                                                  
G 7  21049274.790 1 110614643.156 1      1193.549          26.000                                                                  
G 8  21059129.868 1 110666542.72911     -2927.337          30.000                                                                  
G21  20571348.652 1 108103174.879 1      -140.007          28.000                                                                  
> 2021  5 17  2 33 41.9992264  0  6                     
C 7  36821248.680 1 191737728.322 1      -805.599          31.000  
C27  21626399.855 1 112614283.454 1     -2088.369          20.000  
C30  22522502.296 1 117280579.05611       756.875          24.000  
G 7  21048897.352 1 110612661.527 1      1193.951          24.000                                                                  
G 8  21059538.185 1 110668682.517 1     -2927.896          32.000                                                                  
G21  20571223.638 1 108102527.828 1      -141.691          30.000                                                                  
> 2021  5 17  2 33 42.9992256  0  6                     
C 7  36821165.038 1 191737284.813 1      -806.174          32.000  
C27  21626563.841 1 112615124.471 1     -2091.336          26.000  
C30  22522118.562 1 117278570.260 1       758.826          21.000  
G 7  21048431.774 1 110610206.887 1      1194.561          28.000                                                                  
G 8  21059855.066 1 110670349.754 1     -2927.615          24.000                                                                  
G21  20571008.987 1 108101409.428 1      -142.693          28.000                                                                  
> 2021  5 17  2 33 43.9992251  0  8                     
C 7  36821170.434 1 191737309.798 1      -805.134          31.000  
C27  21626815.067 1 112616435.895 1     -2091.286          21.000  
G 1  21517562.302 1 113075400.13311      2108.340          21.000                                                                  
G 7  21048055.534 1 110608224.562 1      1194.617          24.000                                                                  
G 8  21060263.983 1 110672489.500 1     -2927.324          23.000                                                                  
G21  20570888.170 1 108100764.843 1      -143.981          31.000                                                                  
J 2  38516032.705 1 202403117.85411       128.258          31.000                                                                  
J 3  38632263.441 1 203013901.91211     -1813.996          33.000                                                                  
> 2021  5 17  2 33 44.9992243  0  6                     
C 7  36821084.394 1 191736864.708 1      -802.153          31.000  
C27  21626979.054 1 112617276.431 1     -2089.657          23.000  
G 7  21047588.758 1 110605768.448 1      1196.764          28.000                                                                  
G 8  21060582.662 1 110674155.725 1     -2925.438          22.000                                                                  
G21  20570674.718 1 108099649.217 1      -146.496          29.000                                                                  
J 3  38632368.967 1                     -1816.267          36.000                                                                  
> 2021  5 17  2 33 45.9992238  0  5                     
C 7  36821088.291 1 191736883.646 1      -796.739          25.000  
C10  37348894.498 1 194485494.61111      -921.142          24.000  
G 7  21047211.918 1 110603780.823 1      1203.890          29.000                                                                  
G 8  21060989.480 1 110676284.495 1     -2914.070          24.000                                                                  
G21  20570553.302 1 108099010.507 1      -151.878          26.000                                                                  
> 2021  5 17  2 33 46.9992233  0  7                     
C 7  36821092.488 1 191736898.409 1      -793.898          29.000  
C10  37348920.880 1 194485631.441 1      -913.423          25.000  
G 7  21046833.281 1 110601786.709 1      1210.572          26.000                                                                  
G 8  21061393.601 1 110678410.987 1     -2914.005          30.000                                                                  
G21  20570433.985 1 108098377.981 1      -158.493          30.000                                                                  
J 2  38515428.024 1 202399901.59911       125.924          25.000                                                                  
J 3  38632761.696 1 203016526.74211     -1819.655          26.000                                                                  
> 2021  5 17  2 33 47.9992225  0  5                     
C 7  36821004.649 1 191736441.674 1      -789.996          32.000  
C10  37348853.127 1 194485289.712 1      -902.588          24.000  
G 7  21046359.608 1 110599312.493 1      1218.201          24.000                                                                  
G21  20570227.128 1 108097280.712 1      -166.616          31.000                                                                  
J 2  38515166.305 1 202398516.716 1       121.738          19.000                                                                  
> 2021  5 17  2 33 48.9992218  0  7                     
C 7  36820947.089 1 191736137.420 1      -787.460          35.000  
C10  37348815.953 1 194485093.483 1      -892.987          24.000  
G 1  21514535.597 1 113059659.48011      2090.027          28.000                                                                  
G 7  21045919.513 1 110596988.392 1      1224.680          27.000                                                                  
G 8  21062048.647 1 110681869.66411     -2908.041          36.000                                                                  
G21  20570051.450 1 108096348.053 1      -172.032          32.000                                                                  
J 2  38514934.865 1 202397292.258 1       121.412          19.000                                                                  
> 2021  5 17  2 33 49.9992212  0  7                     
C 7  36820917.709 1                      -788.075          34.000  
C10  37348808.158 1 194485045.941 1      -887.917          24.000  
G 1  21513957.297 1 113056624.937 1      2087.709          30.000                                                                  
G 7  21045507.598 1 110594817.035 1      1227.660          27.000                                                                  
G 8  21062420.989 1 110683832.952 1     -2909.647          36.000                                                                  
G21  20569906.950 1 108095576.412 1      -174.549          32.000                                                                  
J 2  38514736.403 1 202396226.155 1       119.980          20.000                                                                  
> 2021  5 17  2 33 50.9992207  0  7                     
C 7  36820920.407 1                      -788.967          34.000  
C10  37348832.142 1 194485154.067 1      -890.920          24.000  
G 1  21513408.677 1 113053749.277 1      2087.940          28.000                                                                  
G 7  21045126.262 1 110592802.210 1      1226.854          22.000                                                                  
G 8  21062826.009 1                     -2910.048          35.000                                                                  
G21  20569789.431 1 108094959.119 1      -169.493          32.000                                                                  
J 2  38514566.720 1 202395319.656 1       117.983          21.000                                                                  
> 2021  5 17  2 33 51.9992200  0 11                     
C 7  36820862.547 1 191735883.66211      -787.765          35.000  
C 8  38526964.338 1 200620013.44411       757.596          26.000  
C10  37348791.969 1 194484953.238 1      -893.046          24.000  
C16  38100494.576 1 198399273.40511     -2589.110          30.000  
C27  21628505.597 1                     -2090.046          35.000  
C30  22519102.350 1 117263077.08711       748.723          31.000  
C37  22961831.955 1 119568421.79811     -2120.028          27.000  
G 7  21044686.767 1 110590474.132 1      1224.241          23.000                                                                  
G 8  21063171.670 1 110687704.39511     -2910.120          35.000                                                                  
G21  20569612.554 1                      -171.021          32.000                                                                  
J 2  38514334.981 1 202394097.130 1       119.922          21.000                                                                  
> 2021  5 17  2 33 52.9992195  0 11                     
C 7  36820861.948 1 191735890.724 1      -787.231          35.000  
C 8  38526669.642 1 200618474.675 1       758.628          27.000  
C10  37348814.454 1 194485065.426 1      -893.007          25.000  
C16  38100842.036 1 198401081.616 1     -2588.679          31.000  
C27  21628755.324 1 112626613.48711     -2091.786          34.000  
C30  22518804.956 1 117261548.223 1       748.662          31.000  
C37  22962090.376 1 119569761.216 1     -2119.907          29.000  
G 1  21512252.977 1 113047679.89311      2090.590          29.000                                                                  
G 8  21063574.891 1 110689826.891 1     -2910.956          35.000                                                                  
G21  20569495.634 1 108093426.67711      -174.654          30.000                                                                  
J 3  38633724.029 1 203021450.72611     -1814.377          22.000                                                                  
> 2021  5 17  2 33 53.9992187  0 11                     
C 7  36820773.509 1 191735429.202 1      -788.336          34.000  
C 8  38526284.708 1 200616466.414 1       759.707          27.000  
C10  37348745.801 1 194484709.333 1      -893.008          25.000  
C16  38101098.958 1 198402421.323 1     -2588.614          31.000  
C27  21628920.810 1 112627454.944 1     -2091.243          35.000  
C30  22518419.123 1 117259550.715 1       748.571          30.000  
C37  22962259.459 1 119570632.037 1     -2119.843          29.000  
G 1  21511615.618 1 113044328.276 1      2092.065          29.000                                                                  
G 8  21063888.174 1 110691476.781 1     -2909.782          35.000                                                                  
G21  20569283.381 1 108092338.302 1      -173.226          30.000                                                                  
J 2  38513903.879 1 202391810.09311       119.360          21.000                                                                  
> 2021  5 17  2 33 54.9992182  0 11                     
C 7  36820773.509 1 191735435.656 1      -786.997          35.000  
C 8  38525988.213 1 200614925.459 1       760.763          27.000  
C10  37348767.986 1 194484821.984 1      -893.105          26.000  
C27  21629170.237 1 112628764.871 1     -2089.806          35.000  
C30  22518126.226 1 117258021.762 1       748.189          30.000  
C37  22962518.779 1 119571970.771 1     -2119.423          31.000  
G 1  21511066.399 1 113041448.359 1      2091.663          28.000                                                                  
G 7  21043449.823 1 110583973.62811      1218.556          23.000                                                                  
G 8  21064292.594 1 110693599.298 1     -2909.594          34.000                                                                  
G21  20569171.859 1 108091722.776 1      -172.965          30.000                                                                  
J 3  38634029.218 1 203023032.14211     -1815.845          22.000                                                                  
> 2021  5 17  2 33 55.9992174  0 11                     
C 7  36820688.967 1 191734973.592 1      -786.329          35.000  
C 8  38525600.282 1 200612914.735 1       762.611          27.000  
C10  37348699.034 1 194484466.395 1      -892.748          26.000  
C16  38101698.243 1 198405569.18811     -2588.698          32.000  
C27  21629330.326 1 112629606.767 1     -2091.434          35.000  
C30  22517743.091 1 117256024.803 1       747.771          31.000  
C37  22962688.761 1 119572841.576 1     -2119.976          32.000  
G 1  21510428.740 1 113038096.535 1      2091.176          28.000                                                                  
G 8  21064608.275 1 110695249.276 1     -2909.860          34.000                                                                  
G21  20568970.098 1 108090635.271 1      -172.536          30.000                                                                  
J 2  38513479.973 1 202389526.50911       119.245          20.000                                                                  
> 2021  5 17  2 33 56.9992169  0 14                     
C 7  36820690.167 1 191734979.470 1      -785.336          35.000  
C 8  38525303.188 1 200611371.424 1       762.242          27.000  
C10  37348720.619 1 194484579.771 1      -895.364          26.000  
C16  38102046.302 1                     -2588.063          31.000  
C27  21629580.953 1 112630917.146 1     -2090.663          34.000  
C30  22517451.693 1 117254496.895 1       746.713          31.000  
C37  22962952.279 1 119574179.899 1     -2118.206          32.000  
G 1  21509879.520 1 113035217.470 1      2091.633          30.000                                                                  
G 4  23678787.417 1 124432867.32811     -3853.836          30.000                                                                  
G 7  21042600.511 1 110579491.65211      1216.923          23.000                                                                  
G 8  21065015.393 1 110697371.839 1     -2909.304          34.000                                                                  
G21  20568848.982 1 108090020.658 1      -174.516          31.000                                                                  
J 1  37357750.667 1 196316303.86511     -1354.833          25.000                                                                  
J 2  38513312.988 1 202388620.825 1       116.694          19.000                                                                  
> 2021  5 17  2 33 57.9992164  0 13                     
C 7  36820688.668 1 191734985.187 1      -785.941          34.000  
C 8  38525005.194 1 200609828.387 1       762.252          27.000  
C10  37348743.703 1 194484694.830 1      -895.584          24.000  
C16  38102397.659 1 198409160.76711     -2588.470          31.000  
C27  21629833.078 1 112632227.863 1     -2089.975          35.000  
C30  22517159.095 1 117252968.420 1       747.306          30.000  
C37  22963212.499 1 119575518.529 1     -2119.538          32.000  
G 1  21509332.399 1 113032337.926 1      2091.814          28.000                                                                  
G 4  23679382.804 1 124435933.453 1     -3853.811          29.000                                                                  
G 7  21042218.875 1 110577487.152 1      1216.467          24.000                                                                  
G 8  21065420.713 1 110699494.520 1     -2910.777          33.000                                                                  
G21  20568736.860 1 108089406.623 1      -175.605          30.000                                                                  
J 1  37357858.293 1 196316871.923 1     -1355.992          23.000                                                                  
> 2021  5 17  2 33 58.9992156  0 12                     
C 7  36820601.728 1 191734522.381 1      -785.821          34.000  
C 8  38524618.162 1 200607817.384 1       761.627          27.000  
C10  37348676.249 1 194484341.031 1      -894.323          26.000  
C16  38102655.181 1 198410500.341 1     -2589.041          31.000  
C27  21629998.564 1 112633070.484 1     -2092.413          34.000  
C30  22516776.860 1 117250971.862 1       747.653          30.000  
C37  22963379.183 1 119576388.878 1     -2119.247          31.000  
G 1  21508695.340 1 113028985.483 1      2092.654          28.000                                                                  
G 8  21065730.698 1 110701144.720 1     -2912.648          33.000                                                                  
G21  20568520.709 1 108088320.454 1      -175.185          29.000                                                                  
G27  23218147.011 1 122012185.89311     -4049.741          23.000                                                                  
J 1  37357877.480 1 196316967.731 1     -1354.947          23.000                                                                  
> 2021  5 17  2 33 59.9992148  0 14                     
C 4  38345408.526 1 199674604.15611      -967.718          29.000  
C 7  36820511.490 1 191734059.339 1      -786.433          35.000  
C 8  38524232.029 1 200605805.921 1       762.855          28.000  
C10  37348608.197 1 194483986.384 1      -895.254          26.000  
C16  38102913.302 1 198411839.797 1     -2588.232          32.000  
C27  21630160.751 1 112633913.423 1     -2092.310          35.000  
C30  22516395.524 1 117248975.913 1       746.415          31.000  
C37  22963545.568 1 119577259.332 1     -2120.202          32.000  
G 1  21508056.482 1 113025632.654 1      2091.565          29.000                                                                  
G 4  23680373.618 1 124441119.99011     -3852.634          29.000                                                                  
G 7  21041272.730 1 110572531.27211      1217.430          24.000                                                                  
G 8  21066044.581 1 110702794.977 1     -2910.311          34.000                                                                  
G21  20568316.551 1 108087234.710 1      -174.283          29.000                                                                  
J 1  37357897.865 1 196317061.310 1     -1352.848          24.000                                                                  
> 2021  5 17  2 34  0.9992143  0 12                     
C 7  36820511.790 1 191734064.354 1      -785.815          35.000  
C 8  38523934.335 1 200604262.131 1       763.440          28.000  
C10  37348630.081 1 194484100.648 1      -894.568          26.000  
C16  38103261.061 1 198413647.429 1     -2588.895          32.000  
C27  21630408.380 1 112635224.970 1     -2091.471          35.000  
C30  22516104.425 1 117247449.092 1       745.841          32.000  
C37  22963800.692 1 119578598.977 1     -2120.290          32.000  
G 1  21507508.462 1 113022753.847 1      2090.326          30.000                                                                  
G 7  21040890.495 1 110570526.536 1      1216.730          25.000                                                                  
G 8  21066448.401 1 110704917.897 1     -2911.635          34.000    21066435.210 1  82669215.81511     -2174.690          26.000  
G21  20568196.934 1 108086622.124 1      -175.975          31.000                                                                  
J 1  37358004.891 1 196317626.025 1     -1352.946          23.000                                                                  
> 2021  5 17  2 34  1.9992136  0 13                     
C 7  36820453.630 1 191733756.998 1      -785.650          35.000  
C 8  38523577.282 1 200602405.808 1       763.671          28.000  
C10  37348592.907 1 194483901.192 1      -892.113          26.000  
C16  38103544.665 1 198415142.878 1     -2587.796          32.000  
C27  21630602.046 1 112636224.531 1     -2091.353          34.000  
C30  22515753.368 1 117245610.240 1       745.829          31.000  
C37  22963996.156 1                     -2119.665          32.000  
G 4  23681476.855 1 124446935.87711     -3853.743          31.000                                                                  
G 7  21040450.699 1 110568207.136 1      1216.851          25.000                                                                  
G 8  21066788.666 1 110706725.906 1     -2911.030          34.000    21066779.672 1  82670567.121 1     -2175.362          25.000  
G21  20568026.651 1 108085694.937 1      -176.313          31.000                                                                  
G22  24954663.646 1                       622.225          25.000                                                                  
J 1  37358053.158 1 196317876.231 1     -1352.550          26.000                                                                  
> 2021  5 17  2 34  2.9992133  0 15                     
C 4  38345513.453 1 199675159.94211      -963.683          29.000  
C 7  36820514.188 1 191734073.793 1      -784.726          36.000  
C 8  38523341.346 1 200601173.348 1       764.283          28.000  
C10  37348673.851 1 194484325.485 1      -892.544          26.000  
C16  38103955.980 1 198417262.551 1     -2586.411          33.000  
C27  21630917.128 1 112637848.858 1     -2093.768          34.000  
C30  22515520.430 1 117244396.314 1       745.501          31.000  
C37  22964302.844 1 119581206.02811     -2122.068          31.000  
G 1  21506415.119 1 113016998.02211      2089.753          30.000                                                                  
G 7  21040128.422 1 110566517.284 1      1217.457          24.000                                                                  
G 8  21067253.644 1 110709164.161 1     -2910.707          34.000    21067243.451 1  82672388.664 1     -2173.178          24.000  
G21  20567973.888 1 108085398.335 1      -175.482          31.000                                                                  
G22  24954573.708 1                       622.225          23.000                                                                  
G27  23220539.955 1 122024764.25611     -4048.859          24.000                                                                  
J 1  37358221.941 1 196318756.303 1     -1352.331          25.000                                                                  
> 2021  5 17  2 34  3.9992125  0 15                     
C 7  36820423.651 1 191733609.753 1      -785.801          36.000  
C 8  38522954.913 1 200599160.631 1       762.951          28.000  
C10  37348606.698 1 194483968.906 1      -892.089          27.000  
C16  38104216.800 1 198418601.486 1     -2587.029          32.000  
C27  21631079.016 1 112638692.809 1     -2093.650          34.000  
C30  22515138.494 1                       746.178          31.000  
C37  22964468.329 1 119582077.613 1     -2120.504          30.000  
G 1  21505778.060 1 113013647.884 1      2089.861          30.000                                                                  
G 4  23682594.181 1 124452908.54811     -3852.721          30.000                                                                  
G 7  21039656.549 1 110564039.415 1      1217.563          25.000                                                                  
G 8  21067569.025 1 110710814.676 1     -2911.565          34.000    21067557.633 1  82673620.515 1     -2172.758          24.000  
G21  20567767.631 1 108084314.477 1      -177.078          32.000                                                                  
G22  24954333.874 1                       622.225          22.000                                                                  
G27  23221075.084 1 122027552.484 1     -4048.210          24.000                                                                  
J 1  37358240.228 1 196318847.253 1     -1351.514          25.000                                                                  
> 2021  5 17  2 34  4.9992118  0 12                     
C 7  36820366.391 1 191733301.589 1      -783.710          35.000  
C 8  38522599.060 1 200597304.810 1       763.064          28.000  
C10  37348569.823 1 194483767.916 1      -891.229          24.000  
C16  38104503.701 1 198420096.539 1     -2588.361          32.000  
C27  21631272.981 1 112639693.183 1     -2092.449          33.000  
C30  22514786.538 1 117240396.05211       744.935          31.000  
C37  22964664.993 1 119583105.331 1     -2121.194          29.000  
G 1  21505171.879 1 113010455.066 1      2089.816          31.000                                                                  
G 7  21039216.753 1 110561718.995 1      1217.539          26.000                                                                  
G 8  21067915.286 1 110712622.807 1     -2911.435          36.000    21067901.495 1  82674969.817 1     -2173.306          24.000  
G21  20567592.252 1 108083388.632 1      -177.106          33.000                                                                  
G27  23221639.893 1 122030496.822 1     -4046.252          25.000                                                                  
> 2021  5 17  2 34  5.9992113  0 14                     
C 7  36820369.089 1 191733305.413 1      -784.367          34.000  
C 8  38522302.865 1 200595761.015 1       763.652          27.000  
C10  37348590.509 1 194483878.113 1      -891.687          24.000  
C16  38104849.362 1 198421903.644 1     -2586.533          31.000  
C27  21631525.706 1 112641006.033 1     -2092.723          31.000  
C30  22514489.743 1 117238870.418 1       743.992          30.000  
C37  22964921.616 1 119584446.688 1     -2122.290          28.000  
G 1  21504625.058 1 113007577.586 1      2089.329          32.000                                                                  
G 7  21038837.516 1 110559713.976 1      1217.021          27.000                                                                  
G 8  21068320.305 1 110714746.160 1     -2911.131          35.000    21068305.316 1  82676556.367 1     -2175.086          24.000  
G21  20567476.832 1 108082778.371 1      -177.716          34.000                                                                  
G22  24953491.757 1                       623.636          26.000                                                                  
G27  23222266.459 1 122033755.793 1     -4046.445          25.000                                                                  
J 1  37358393.722 1 196319661.99411     -1352.550          27.000                                                                  
> 2021  5 17  2 34  6.9992105  0 13                     
C 7  36820281.250 1 191732840.829 1      -783.949          34.000  
C 8  38521916.432 1 200593747.956 1       764.143          26.000  
C10  37348520.657 1 194483520.751 1      -892.367          24.000  
C16  38105108.382 1 198423242.504 1     -2586.818          31.000  
C27  21631689.393 1 112641850.901 1     -2093.831          30.000  
C30  22514106.309 1 117236876.817 1       744.168          28.000  
C37  22965089.799 1 119585319.202 1     -2120.953          29.000  
G 7  21038366.842 1 110557236.763 1      1216.278          26.000                                                                  
G 8  21068631.190 1 110716397.104 1     -2911.724          35.000                                                                  
G21  20567267.577 1 108081696.044 1      -177.849          34.000                                                                  
G22  24953132.006 1 131129598.63011       623.508          25.000                                                                  
G27  23222799.790 1 122036542.128 1     -4047.053          26.000                                                                  
J 1  37358412.010 1 196319754.354 1     -1352.548          27.000                                                                  
> 2021  5 17  2 34  7.9992100  0 14                     
C 7  36820281.849 1 191732844.348 1      -784.001          34.000  
C 8  38521620.237 1 200592203.518 1       763.511          27.000  
C10  37348544.341 1 194483632.341 1      -892.463          25.000  
C16  38105452.544 1 198425049.558 1     -2586.933          31.000  
C27  21631940.919 1 112643164.486 1     -2094.750          30.000  
C30  22513811.613 1 117235351.885 1       744.581          29.000  
C37  22965349.419 1 119586659.680 1     -2121.416          29.000  
G 1  21503439.079 1                      2089.482          32.000                                                                  
G 7  21037985.506 1 110555232.826 1      1216.138          27.000                                                                  
G 8  21069035.310 1 110718520.742 1     -2912.943          35.000                                                                  
G21  20567152.756 1 108081086.865 1      -179.075          34.000                                                                  
G22  24952862.193 1 131128186.544 1       625.290          26.000                                                                  
G27  23223425.157 1 122039801.431 1     -4047.008          25.000                                                                  
J 1  37358521.134 1 196320318.819 1     -1352.772          26.000                                                                  
> 2021  5 17  2 34  8.9992095  0 13                     
C 7  36820282.149 1 191732847.605 1      -784.043          35.000  
C 8  38521324.342 1 200590659.933 1       763.249          27.000  
C10  37348563.827 1 194483743.944 1      -891.783          24.000  
C16  38105792.509 1 198426856.459 1     -2587.172          31.000  
C27  21632193.644 1 112644478.210 1     -2094.667          30.000  
C30  22513516.617 1 117233827.249 1       743.500          29.000  
C37  22965608.440 1 119588000.231 1     -2121.256          31.000  
G 1  21502892.857 1 112998458.23711      2087.215          32.000                                                                  
G 7  21037604.170 1 110553229.189 1      1215.618          28.000                                                                  
G 8  21069443.028 1 110720644.435 1     -2911.078          35.000                                                                  
G21  20567030.441 1 108080478.115 1      -180.962          34.000                                                                  
G27  23224047.826 1 122043061.028 1     -4047.940          24.000                                                                  
J 1  37358627.860 1 196320884.524 1     -1353.609          26.000                                                                  
> 2021  5 17  2 34  9.9992087  0 17                     
C 7  36820192.511 1 191732382.427 1      -784.384          35.000  
C 8  38520938.509 1 200588647.230 1       763.377          28.000  
C 9  36669166.664 1 190945973.40911     -2302.393          24.000  
C10  37348494.875 1 194483385.826 1      -890.053          25.000  
C16  38106053.928 1 198428195.104 1     -2584.948          31.000  
C27  21632360.628 1 112645324.021 1     -2095.474          30.000  
C30  22513131.383 1 117231834.322 1       744.634          27.000  
C37  22965778.422 1 119588872.663 1     -2121.088          30.000  
G 1  21502262.993 1 112995109.236 1      2089.536          32.000                                                                  
G 4  23685852.925 1 124470034.93011     -3852.348          31.000                                                                  
G 7  21037133.795 1 110550752.898 1      1215.523          26.000                                                                  
G 8  21069758.410 1 110722295.786 1     -2911.234          34.000                                                                  
G21  20566829.880 1 108079397.346 1      -180.119          34.000                                                                  
G22  24952233.528 1 131124886.94311       626.011          25.000                                                                  
G27  23224580.857 1 122045848.798 1     -4048.211          23.000                                                                  
G30  24087905.190 1 126582795.38211      2373.834          24.000                                                                  
J 1  37358644.948 1 196320977.133 1     -1352.788          26.000                                                                  
> 2021  5 17  2 34 10.9992082  0 15                     
C 7  36820192.211 1 191732385.412 1      -785.173          35.000  
C 8  38520642.614 1 200587103.528 1       762.521          28.000  
C 9  36669459.861 1 190947492.875 1     -2299.436          26.000  
C10  37348516.460 1 194483495.800 1      -891.049          24.000  
C16  38106398.389 1 198430002.000 1     -2586.912          31.000  
C27  21632612.154 1 112646637.815 1     -2096.032          28.000  
C30  22512837.887 1 117230309.463 1       744.013          26.000  
C37  22966037.743 1 119590212.830 1     -2120.248          31.000  
G 1  21501713.174 1 112992233.048 1      2088.585          32.000                                                                  
G 4  23686437.820 1 124473098.850 1     -3852.698          29.000                                                                  
G 7  21036752.459 1 110548749.629 1      1215.233          26.000                                                                  
G 8  21070158.333 1 110724419.732 1     -2912.351          34.000                                                                  
G21  20566709.663 1 108078789.671 1      -181.621          32.000                                                                  
G30  24087296.312 1 126579632.963 1      2376.093          23.000                                                                  
J 1  37358754.073 1 196321542.370 1     -1353.216          26.000                                                                  
> 2021  5 17  2 34 11.9992074  0 15                     
C 7  36820097.777 1 191731919.695 1      -781.472          31.000  
C 8  38520257.381 1 200585091.791 1       762.700          25.000  
C 9  36669663.120 1 190948542.248 1     -2297.447          24.000  
C10  37348448.107 1 194483139.603 1      -893.001          22.000  
C16  38106654.112 1 198431340.422 1     -2589.089          28.000  
C27  21632771.344 1 112647484.909 1     -2096.056          26.000  
C30  22512451.754 1 117228316.229 1       743.677          22.000  
C37  22966206.526 1 119591084.495 1     -2120.751          29.000  
G 4  23686929.780 1 124475689.974 1     -3850.707          31.000                                                                  
G 7  21036279.687 1 110546274.226 1      1214.784          28.000                                                                  
G 8  21070468.618 1 110726071.303 1     -2912.041          33.000                                                                  
G21  20566507.903 1 108077709.872 1      -179.970          32.000                                                                  
G22  24951601.865 1 131121586.96111       626.695          25.000                                                                  
G30  24086598.095 1 126575996.882 1      2376.501          24.000                                                                  
J 1  37358770.561 1 196321633.461 1     -1351.097          24.000                                                                  
> 2021  5 17  2 34 12.9992067  0 15                     
C 7  36820042.615 1 191731609.996 1      -783.827          31.000  
C 8  38519903.026 1 200583235.867 1       762.645          25.000  
C 9  36669896.659 1 190949746.819 1     -2297.053          24.000  
C10  37348407.635 1 194482938.955 1      -891.510          23.000  
C16  38106948.508 1 198432834.922 1     -2586.209          29.000  
C27  21632962.911 1 112648488.378 1     -2096.460          27.000  
C30  22512098.299 1 117226478.651 1       744.033          22.000  
C37  22966405.588 1 119592113.648 1     -2122.766          27.000  
G 4  23687451.419 1 124478438.583 1     -3851.166          30.000                                                                  
G 7  21035836.593 1 110543956.673 1      1214.263          26.000                                                                  
G16  24288550.287 1 127637192.57511     -2706.007          20.000                                                                  
G21  20566329.227 1 108076788.125 1      -181.422          32.000                                                                  
G22  24951270.895 1 131119857.294 1       626.393          24.000                                                                  
G30  24085930.158 1 126572518.529 1      2375.069          23.000                                                                  
J 1  37358817.629 1 196321882.015 1     -1352.198          25.000                                                                  
> 2021  5 17  2 34 13.9992064  0 14                     
C 7  36820103.173 1 191731924.378 1      -781.411          33.000  
C 8  38519668.289 1 200582004.295 1       764.118          26.000  
C 9  36670250.414 1 190951576.338 1     -2298.873          27.000  
C10  37348490.078 1 194483361.668 1      -890.454          22.000  
C16  38107357.425 1 198434953.681 1     -2591.012          30.000  
C27  21633274.396 1 112650116.491 1     -2096.059          25.000  
C30  22511865.060 1 117225266.503 1       742.966          24.000  
C37  22966724.567 1 119593768.451 1     -2123.108          27.000  
G 4  23688095.972 1 124481816.881 1     -3851.299          29.000                                                                  
G 7  21035517.314 1 110542269.768 1      1214.184          26.000                                                                  
G 8  21071282.255 1 110730319.73711     -2911.886          34.000                                                                  
G27  23226974.700 1 122058417.18211     -4047.080          25.000                                                                  
