     3.03           OBSERVATION DATA    M: Mixed            RINEX VERSION / TYPE
RTKCONV demo5 b33c                      20210520 080405 UTC PGM / RUN BY / DATE 
log: C:\Users\Ivan_PolyU_Dktp\Dropbox\HUAWEI Exp\20210517_  COMMENT             
format: RINEX                                               COMMENT             
                                                            MARKER NAME         
                                                            MARKER NUMBER       
                                                            MARKER TYPE         
                                                            OBSERVER / AGENCY   
                                                            REC # / TYPE / VERS 
                                                            ANT # / TYPE        
 -2419258.6916  5385453.5205  2405358.8546                  APPROX POSITION XYZ 
        0.0000        0.0000        0.0000                  ANTENNA: DELTA H/E/N
G   12 C1C L1C D1C S1C C2L L2L D2L S2L C2S L2S D2S S2S      SYS / # / OBS TYPES 
R    8 C1C L1C D1C S1C C2C L2C D2C S2C                      SYS / # / OBS TYPES 
E    8 C1C L1C D1C S1C C7Q L7Q D7Q S7Q                      SYS / # / OBS TYPES 
J    8 C1C L1C D1C S1C C2L L2L D2L S2L                      SYS / # / OBS TYPES 
S    4 C1C L1C D1C S1C                                      SYS / # / OBS TYPES 
C    8 C2I L2I D2I S2I C7I L7I D7I S7I                      SYS / # / OBS TYPES 
  2021     5    17     2    33   13.0060000     GPS         TIME OF FIRST OBS   
  2021     5    17     2    46   18.0060000     GPS         TIME OF LAST OBS    
G                                                           SYS / PHASE SHIFT   
R                                                           SYS / PHASE SHIFT   
E                                                           SYS / PHASE SHIFT   
J                                                           SYS / PHASE SHIFT   
S                                                           SYS / PHASE SHIFT   
C                                                           SYS / PHASE SHIFT   
  0                                                         GLONASS SLOT / FRQ #
 C1C    0.000 C1P    0.000 C2C    0.000 C2P    0.000        GLONASS COD/PHS/BIS 
                                                            END OF HEADER       
> 2021  5 17  2 33 13.0060000  0 26                     
G 9  24787911.239 2                     -2521.411          28.000    24787916.110 9                     -1967.167          24.000                                                                  
G16  26074319.119 8                     -2231.832          25.000                                                                                                                                  
G21  22381276.788 1 117614401.950 3       329.798          35.000                                                                                                                                  
C10  39154822.095 8                      -425.682          25.000    39154823.906 8                      -329.220          23.000  
C30  24337549.860 1 126732003.110 4      1236.901          35.000                                                                  
C 9  38460205.711 9                     -1822.827          19.000                                                                  
C16  39893987.535 9                     -2117.830          17.000                                                                  
R 9  22877760.592 9                      2160.087          19.000                                                                  
R19  21165700.991 2 113222211.584 5     -1666.725          33.000    21165700.962 4                     -1296.517          31.000  
G 8  22854294.297 2 120100129.097 5     -2424.628          33.000    22854296.461 9                     -1890.296          24.000                                                                  
G27  24996591.031 2 131357967.271 4     -3573.646          33.000    24996592.645 4                     -2785.816          27.000                                                                  
G 1  23341274.181 8                      2581.585          26.000                                                                                                                                  
S28  39117680.087 1 205564794.688 2      -510.000          41.000  
E26  24821540.520 2 130438106.099 5       457.934          32.000    24821543.653 1                       350.365          28.000  
C 7  38627662.133 8                      -319.061          24.000    38627644.649 1 155537510.454 5      -246.479          29.000  
C27  23425651.738 1 121983507.817 1     -1601.225          45.000                                                                  
E27  29254054.114 9                     -1735.221          13.000                                                                  
E21  26456300.628 2                      -480.629          29.000    26456302.174 8                      -368.505          25.000  
E13  27096119.575 1 142391057.051 3     -2299.538          36.000    27096122.020 1                     -1762.270          30.000  
E 1  27173507.554 9                       812.047          23.000                                                                  
J 3  40432786.310 4                     -1341.521          30.000    40432785.268 8                     -1043.885          26.000  
E18  21627366.178 8                      2082.949          25.000    21627360.573 2                      1595.792          26.000  
J 2  40327966.110 8                       596.132          27.000                                                                  
C 8                                                                  40345549.883 4                       955.264          26.000  
R20                                                                  22700259.004 9                      2162.588          21.000  
J 7                                                                  38312286.459 9                      -396.049          23.000  
> 2021  5 17  2 33 14.0060000  0 26                     
G 9  24788390.885 2                     -2521.963          28.000    24788395.434 9                     -1966.371          24.000                                                                  
G16  26074745.921 9                     -2232.135          25.000                                                                                                                                  
G21  22381214.167 1 117614072.596 3       328.941          35.000                                                                                                                                  
C10  39154904.700 8                      -426.374          25.000    39154906.532 8                      -329.108          24.000  
C30  24337312.508 1 126730766.987 4      1235.894          35.000                                                                  
C 9  38460554.822 9                     -1821.579          19.000                                                                  
C16  39894390.975 9                     -2122.559          17.000                                                                  
R 9  22877359.364 9                      2160.738          20.000                                                                  
R19  21166012.554 2 113223879.060 4     -1668.047          34.000    21166012.637 4                     -1297.742          30.000  
G 8  22854755.605 2 120102553.630 5     -2424.889          33.000    22854757.226 8                     -1891.243          24.000                                                                  
G27  24997271.018 2 131361541.752 4     -3574.802          33.000    24997272.712 4                     -2785.529          27.000                                                                  
G 1  23340784.295 8                      2581.986          26.000                                                                                                                                  
S28  39117777.221 1 205565304.872 2      -510.203          41.000  
E26  24821453.489 2 130437648.632 5       457.992          32.000    24821456.579 1                       349.880          28.000  
C 7  38627722.202 8                      -318.081          25.000    38627705.825 1                      -246.739          28.000  
C27  23425959.343 1 121985109.384 1     -1601.493          44.000                                                                  
E27  29254383.489 9                     -1732.673          13.000                                                                  
E21  26456391.728 2                      -480.542          29.000    26456392.751 8                      -368.503          25.000  
E13  27096557.363 1 142393357.309 3     -2300.317          36.000    27096559.612 2                     -1762.408          30.000  
E 1  27173353.315 8                       814.052          23.000                                                                  
J 3  40433041.294 4                     -1340.108          30.000    40433041.013 8                     -1044.383          26.000  
E18  21626969.013 8                      2082.039          25.000    21626964.158 1                      1595.009          26.000  
J 2  40327853.841 8                       595.978          27.000                                                                  
C 8                                                                  40345312.203 4                       955.157          26.000  
R20                                                                  22699739.391 9                      2162.521          21.000  
J 7                                                                  38312383.556 9                      -398.986          23.000  
> 2021  5 17  2 33 15.0060000  0 27                     
G 7  22865923.513 9                      1718.742          20.000                                                                                                                                  
G 9  24788870.628 2                     -2522.345          28.000    24788875.452 8                     -1965.470          24.000                                                                  
G16  26075169.814 9                     -2229.815          25.000                                                                                                                                  
G21  22381151.572 1 117613743.635 4       328.649          35.000                                                                                                                                  
C10  39154987.455 8                      -427.233          25.000    39154988.596 8                      -331.857          23.000  
C30  24337075.152 1 126729531.002 3      1236.026          35.000                                                                  
C 9  38460904.397 9                     -1824.369          19.000                                                                  
C16  39894797.518 9                     -2116.346          18.000                                                                  
R 9  22876958.095 9                      2143.232          19.000                                                                  
R19  21166324.292 2 113225547.114 5     -1668.887          33.000    21166324.545 4                     -1297.776          31.000  
G 8  22855216.986 2 120104978.131 5     -2424.495          33.000    22855217.573 9                     -1890.150          23.000                                                                  
G27  24997951.069 2 131365115.940 5     -3574.586          33.000    24997952.454 8                     -2785.087          27.000                                                                  
G 1  23340294.273 8                      2581.789          26.000                                                                                                                                  
S28  39117874.239 1 205565814.689 2      -509.458          41.000  
E26  24821366.587 4                       456.977          32.000    24821369.648 1                       350.701          27.000  
C 7  38627784.532 8                      -319.031          25.000    38627766.919 1                      -246.456          29.000  
C27  23426267.017 1 121986711.155 1     -1601.992          44.000                                                                  
E27  29254713.032 9                     -1732.673          12.000                                                                  
E21  26456482.575 2                      -480.731          29.000    26456483.954 8                      -369.099          24.000  
E13  27096995.108 1 142395657.659 3     -2300.262          36.000    27096997.365 1                     -1763.455          30.000  
E 1  27173196.838 8                       813.804          23.000                                                                  
J 3  40433296.498 2                     -1340.393          30.000    40433297.035 8                     -1044.292          26.000  
E18  21626571.345 8                      2080.439          25.000    21626568.147 2                      1595.182          26.000  
J 2  40327741.449 8                       596.191          27.000                                                                  
C 8                                                                  40345074.321 4                       954.984          26.000  
R20                                                                  22699219.218 9                      2159.735          21.000  
J 7                                                                  38312481.489 9                      -398.581          23.000  
> 2021  5 17  2 33 16.0060000  0 27                     
G 7  22865588.116 9                      1718.742          21.000                                                                                                                                  
G 9  24789350.529 2                     -2522.557          27.000    24789355.131 8                     -1964.277          25.000                                                                  
G16  26075597.933 8                     -2231.535          26.000                                                                                                                                  
G21  22381089.089 1 117613415.238 3       327.948          35.000                                                                                                                                  
C10  39155068.799 8                      -426.502          25.000    39155070.371 8                      -331.174          23.000  
C30  24336837.727 1 126728295.347 3      1236.250          35.000                                                                  
C 9  38461251.714 9                     -1830.460          19.000                                                                  
C16  39895203.453 9                     -2113.382          18.000                                                                  
R 9  22876557.035 9                      2152.818          19.000                                                                  
R19  21166636.233 2 113227215.863 4     -1669.020          33.000    21166636.603 4                     -1299.120          31.000  
G 8  22855678.138 2 120107402.843 5     -2424.244          33.000    22855678.416 9                     -1883.785          24.000                                                                  
G27  24998631.349 2 131368690.052 4     -3574.335          33.000    24998632.598 8                     -2784.995          27.000                                                                  
G 1  23339804.421 8                      2581.684          26.000                                                                                                                                  
S28  39117971.107 1 205566324.420 2      -509.818          41.000  
E26  24821279.291 4 130436734.494 5       456.713          31.000    24821282.656 1                       349.775          27.000  
C 7  38627845.053 8                      -319.333          25.000    38627827.975 2                      -246.316          29.000  
C27  23426574.605 1 121988313.255 1     -1602.090          44.000                                                                  
E27  29255043.232 9                     -1732.673          10.000                                                                  
E21  26456573.601 2                      -480.765          29.000    26456574.719 8                      -367.704          23.000  
E13  27097432.851 1 142397958.305 3     -2300.663          36.000    27097435.183 2                     -1762.681          30.000  
E 1  27173040.038 9                       812.935          22.000                                                                  
J 3  40433551.983 2                     -1339.269          30.000    40433552.345 8                     -1044.173          26.000  
E18  21626174.527 8                      2081.289          26.000    21626172.150 1                      1594.414          26.000  
J 2  40327629.831 8                       596.771          28.000                                                                  
C 8                                                                  40344837.100 4                       955.904          26.000  
R20                                                                  22698700.572 9                      2157.112          20.000  
J 7                                                                  38312579.287 9                      -403.580          23.000  
> 2021  5 17  2 33 17.0060000  0 27                     
G 7  22865258.997 9                      1718.742          21.000                                                                                                                                  
G 9  24789830.424 2                     -2522.052          28.000    24789833.971 8                     -1965.292          24.000                                                                  
G16  26076023.114 8                     -2232.207          26.000                                                                                                                                  
G21  22381026.673 1 117613087.366 4       327.179          35.000                                                                                                                                  
C10  39155151.085 8                      -423.836          25.000    39155151.611 8                      -330.098          23.000  
C30  24336600.447 1 126727060.025 3      1235.453          36.000                                                                  
C 9  38461604.090 9                     -1830.493          19.000                                                                  
C16  39895608.536 9                     -2116.363          17.000                                                                  
R 9  22876155.052 9                      2152.463          19.000                                                                  
R19  21166948.327 2 113228885.400 4     -1669.788          34.000    21166948.755 4                     -1299.048          30.000  
G 8  22856139.579 2 120109827.758 5     -2425.915          33.000    22856138.887 9                     -1887.718          23.000                                                                  
G27  24999311.554 2 131372264.055 5     -3573.976          33.000    24999312.605 8                     -2785.000          27.000                                                                  
G 1  23339313.666 8                      2581.540          26.000                                                                                                                                  
S28  39118068.171 1 205566834.118 2      -509.979          41.000  
E26  24821192.036 2 130436277.965 5       456.318          31.000    24821195.617 1                       349.847          27.000  
C 7  38627905.318 8                      -319.026          24.000    38627889.003 2                      -246.108          29.000  
C27  23426882.140 1 121989915.697 1     -1602.670          44.000                                                                  
E27  29255373.453 9                     -1732.673           8.000                                                                  
E21  26456664.651 2                      -481.218          29.000    26456667.100 8                      -368.441          23.000  
E13  27097870.807 1 142400259.202 3     -2301.022          36.000    27097873.125 1                     -1762.633          30.000  
E 1  27172885.173 9                       812.876          22.000                                                                  
J 3  40433806.927 4                     -1340.447          30.000    40433807.018 8                     -1043.746          25.000  
E18  21625781.361 8                      2079.820          26.000    21625776.397 1                      1593.416          26.000  
J 2  40327517.236 8                       596.100          28.000                                                                  
C 8                                                                  40344599.964 4                       954.912          26.000  
R20                                                                  22698182.217 9                      2154.625          20.000  
J 7                                                                  38312675.978 9                      -394.835          23.000  
> 2021  5 17  2 33 18.0060000  0 25                     
G 7  22864927.631 9                      1718.742          21.000                                                                                                                                  
G 9  24790310.442 2                     -2522.659          28.000    24790313.304 8                     -1965.272          24.000                                                                  
G16  26076449.070 8                     -2232.020          26.000                                                                                                                                  
G21  22380964.533 1 117612760.183 4       326.746          35.000                                                                                                                                  
C10  39155231.378 8                      -426.996          25.000    39155233.979 8                      -328.750          23.000  
C30  24336363.298 1 126725825.176 3      1235.082          35.000                                                                  
C 9  38461952.580 9                     -1831.417          19.000                                                                  
C16  39896013.312 9                     -2105.948          17.000                                                                  
R 9  22875753.061 9                      2145.380          19.000                                                                  
R19  21167260.490 2 113230555.808 4     -1670.648          33.000    21167261.019 4                     -1299.474          31.000  
G 8  22856601.113 2 120112252.888 4     -2425.401          33.000    22856599.404 8                     -1890.222          23.000                                                                  
G27  24999992.005 2 131375838.108 4     -3573.644          33.000    24999992.764 4                     -2785.195          27.000                                                                  
G 1  23338822.308 8                      2580.884          25.000    23338792.265 9                      2009.849          25.000                                                                  
S28  39118165.181 1 205567343.862 2      -509.707          41.000  
E26  24821105.420 4                       456.510          31.000    24821108.859 1                       349.437          27.000  
C 7  38627967.408 8                      -316.056          24.000    38627950.199 2                      -246.190          29.000  
C27  23427190.068 1 121991518.609 1     -1602.969          44.000                                                                  
E21  26456755.316 2 139031193.203 5      -481.030          29.000    26456758.998 8                      -368.874          23.000  
E13  27098308.683 1 142402560.508 3     -2301.269          36.000    27098310.987 2                     -1763.117          30.000  
J 3  40434061.969 2                     -1340.651          30.000    40434062.859 8                     -1044.587          26.000  
E18  21625385.881 8                      2079.399          27.000    21625380.531 2                      1593.101          26.000  
J 2  40327405.760 8                       596.542          28.000                                                                  
C 8                                                                  40344363.164 4                       955.178          26.000  
R20                                                                  22697661.973 9                      2156.018          19.000  
J 7                                                                  38312773.279 9                      -400.073          23.000  
> 2021  5 17  2 33 19.0060000  0 25                     
G 7  22864590.296 9                      1718.742          21.000                                                                                                                                  
G 9  24790790.361 2                     -2523.070          29.000    24790792.876 9                     -1968.635          24.000                                                                  
G16  26076874.664 8                     -2231.358          26.000                                                                                                                                  
G21  22380902.243 1 117612433.531 4       326.175          35.000                                                                                                                                  
C10  39155311.982 8                      -427.004          25.000    39155314.653 8                      -329.673          24.000  
C30  24336126.208 1 126724590.660 3      1234.550          36.000                                                                  
C 9  38462302.523 9                     -1816.853          19.000                                                                  
C16  39896418.215 9                     -2110.230          15.000                                                                  
R 9  22875351.762 9                      2148.914          19.000                                                                  
R19  21167573.017 2 113232227.028 4     -1671.893          33.000    21167573.672 4                     -1300.140          31.000  
G 8  22857062.733 2 120114678.245 4     -2425.465          33.000    22857058.905 8                     -1890.469          23.000                                                                  
G27  25000672.097 2 131379412.119 5     -3573.765          33.000    25000672.320 8                     -2784.830          27.000                                                                  
G 1  23338329.322 8                      2580.029          25.000    23338301.884 8                      2011.109          26.000                                                                  
S28  39118262.164 1 205567853.616 2      -509.832          41.000  
E26  24821019.116 2 130435366.307 5       455.452          31.000    24821022.066 1                       348.578          27.000  
C 7  38628028.297 8                      -317.166          24.000    38628011.185 2                      -246.195          28.000  
C27  23427497.892 1 121993121.917 1     -1603.521          44.000                                                                  
E21  26456846.294 2 139031673.967 5      -480.675          29.000    26456850.823 4                      -368.958          23.000  
E13  27098746.656 1 142404862.145 3     -2301.917          36.000    27098749.093 2                     -1764.299          30.000  
J 3  40434316.925 2                     -1340.209          30.000    40434317.204 8                     -1044.157          26.000  
E18  21624989.057 8                      2078.277          27.000    21624984.910 2                      1592.586          26.000  
J 2  40327293.609 8                       595.929          28.000                                                                  
C 8                                                                  40344126.622 4                       956.188          26.000  
R20                                                                  22697144.933 9                      2144.051          18.000  
J 7                                                                  38312870.842 9                      -400.979          23.000  
> 2021  5 17  2 33 20.0060000  0 26                     
G 7  22864261.606 9                      1718.742          21.000                                                                                                                                  
G 9  24791270.532 2                     -2523.374          29.000    24791272.640 9                     -1965.640          24.000                                                                  
G16  26077300.352 8                     -2230.899          25.000                                                                                                                                  
G21  22380840.269 1 117612107.694 4       325.740          35.000                                                                                                                                  
C10  39155394.868 8                      -425.840          24.000    39155395.917 8                      -328.086          24.000  
C30  24335889.351 1 126723356.728 3      1233.857          36.000                                                                  
C 9  38462653.888 9                     -1834.848          18.000                                                                  
C16  39896822.887 9                     -2116.613          14.000                                                                  
R 9  22874949.949 9                      2156.929          20.000                                                                  
R19  21167885.580 2 113233899.205 4     -1672.827          34.000    21167886.514 4                     -1300.313          31.000  
G 8  22857524.385 2 120117103.961 4     -2425.589          33.000    22857519.120 8                     -1891.783          23.000                                                                  
G27  25001352.528 2 131382986.316 5     -3573.969          32.000    25001352.835 8                     -2785.160          27.000                                                                  
G 1  23337836.093 8                      2580.102          25.000    23337812.283 8                      2010.114          26.000                                                                  
S28  39118359.165 1 205568363.565 2      -509.934          41.000  
E26  24820932.224 2 130434911.283 5       454.209          31.000    24820935.663 1                       348.259          27.000  
S37  38312961.613 9                      -461.359          26.000  
C 7  38628090.193 8                      -318.374          24.000    38628072.366 2                      -246.328          28.000  
C27  23427805.895 1 121994725.788 1     -1604.107          44.000                                                                  
E21  26456937.677 2 139032155.054 5      -480.970          29.000    26456940.965 8                      -369.211          23.000  
E13  27099184.651 1 142407164.273 3     -2302.084          36.000    27099187.164 1                     -1764.302          30.000  
J 3  40434571.942 2                     -1340.865          30.000    40434572.664 8                     -1044.219          26.000  
E18  21624592.686 8                      2077.984          27.000    21624589.436 2                      1590.836          26.000  
J 2  40327181.752 8                       596.278          28.000                                                                  
C 8                                                                  40343889.597 4                       955.064          26.000  
R20                                                                  22696625.410 9                      2153.549          17.000  
J 7                                                                  38312968.334 9                      -402.598          23.000  
> 2021  5 17  2 33 21.0060000  0 27                     
G 7  22863932.981 9                      1718.742          20.000                                                                                                                                  
G 9  24791750.618 2                     -2519.233          32.000    24791752.385 9                     -1966.525          23.000                                                                  
G16  26077720.435 8                     -2233.263          25.000                                                                                                                                  
G21  22380778.268 1 117611782.578 3       324.939          37.000                                                                                                                                  
C10  39155475.683 8                      -426.279          24.000    39155477.748 8                      -330.594          23.000  
C30  24335652.305 1 126722122.463 4      1234.647          34.000                                                                  
C 9  38463004.370 9                     -1823.762          17.000                                                                  
C16  39897227.500 9                     -2112.590          15.000                                                                  
R 9  22874548.053 9                      2154.773          20.000                                                                  
R19  21168198.423 2 113235572.745 4     -1674.259          33.000    21168199.525 4                     -1301.479          31.000  
G 8  22857986.376 2 120119530.801 5     -2427.685          33.000    22857980.820 9                     -1889.983          23.000                                                                  
G27  25002033.043 2 131386561.842 5     -3577.508          29.000    25002033.167 8                     -2787.302          27.000                                                                  
G 1  23337344.118 9                      2579.930          24.000                                                                                                                                  
S28  39118456.106 1 205568873.055 2      -508.982          41.000  
E26  24820845.897 2 130434456.650 4       454.819          32.000    24820849.056 1                       348.725          27.000  
S37  38313060.609 9                      -554.932          27.000  
C 7  38628150.498 9                      -319.418          24.000    38628133.604 2                      -246.976          28.000  
C27  23428114.002 1 121996330.631 1     -1605.032          44.000                                                                  
E21  26457029.610 2                      -482.772          29.000    26457031.594 8                      -369.606          23.000  
E13  27099623.041 1 142409467.983 3     -2305.254          36.000    27099625.430 2                     -1765.352          30.000  
E 1  27172264.228 9                       813.821          29.000                                                                  
J 3  40434827.285 2                     -1341.822          31.000    40434827.431 8                     -1045.414          26.000  
E18  21624196.704 9                      2077.605          24.000    21624194.147 2                      1591.068          25.000  
J 2  40327069.111 8                       594.944          27.000                                                                  
C 8                                                                  40343653.344 4                       955.464          26.000  
R20                                                                  22696106.045 9                      2165.533          17.000  
J 7                                                                  38313064.700 9                      -401.282          23.000  
> 2021  5 17  2 33 22.0060000  0 25                     
G 7  22863606.640 9                      1718.742          20.000                                                                                                                                  
G 9  24792230.053 2                     -2516.538          30.000    24792230.858 9                     -1958.315          22.000                                                                  
G16  26078143.796 9                     -2238.002          23.000                                                                                                                                  
G21  22380716.598 1 117611458.084 4       324.421          33.000                                                                                                                                  
C10  39155557.956 9                      -427.903          23.000    39155559.977 9                      -328.743          22.000  
C30  24335414.777 1 126720886.138 4      1238.214          36.000                                                                  
C 9  38463355.750 9                     -1822.241          17.000                                                                  
C16  39897634.915 9                     -2115.950          14.000                                                                  
R 9  22874147.305 9                      2137.055          20.000                                                                  
R19  21168511.521 2 113237247.722 4     -1675.662          33.000    21168512.605 4  88073419.070 5     -1303.688          31.000  
G 8  22858448.685 2                     -2430.440          32.000    22858444.083 8                     -1893.640          26.000                                                                  
G27  25002713.713 2                     -3580.848          33.000    25002713.950 8                     -2788.931          26.000                                                                  
G 1  23336844.992 9                      2582.491          31.000                                                                                                                                  
S28  39118552.558 1 205569379.912 2      -504.738          41.000  
E26  24820759.539 4                       455.234          32.000    24820762.554 9                       345.850          25.000  
C 7  38628208.441 9                      -319.593          23.000    38628194.983 2                      -248.016          27.000  
C27  23428422.235 1 121997936.764 1     -1606.928          43.000                                                                  
E21  26457122.559 2                      -486.774          30.000    26457124.597 8                      -371.396          25.000  
E13  27100061.731 1 142411774.713 4     -2309.506          36.000    27100064.525 2                     -1769.643          30.000  
J 3  40435082.672 4                     -1341.718          29.000    40435082.553 9                     -1049.789          25.000  
E18  21623801.001 9                      2077.601          26.000    21623799.244 9                      1586.535          24.000  
J 2  40326957.494 9                       593.505          26.000                                                                  
C 8                                                                  40343415.679 9                       962.031          23.000  
R20                                                                  22695588.390 9                      2162.068          18.000  
J 7                                                                  38313164.406 9                      -392.453          23.000  
> 2021  5 17  2 33 23.0060000  0 26                     
G 7  22863278.570 9                      1718.742          19.000                                                                                                                                  
G 9  24792708.678 4                     -2510.541          30.000    24792710.072 9                     -1962.139          22.000                                                                  
G16  26078569.060 9                     -2233.962          24.000                                                                                                                                  
G21  22380655.022 2                       324.425          29.000                                                                                                                                  
C10  39155640.569 9                      -424.769          22.000    39155641.835 9                      -322.942          20.000  
C30  24335176.718 1 126719646.496 4      1240.861          36.000                                                                  
C 9  38463704.592 9                     -1816.459          20.000                                                                  
C16  39898040.113 9                     -2106.897          12.000                                                                  
R16  21977008.329 9                      -428.415          17.000                                                                  
R 9  22873745.673 9                      2146.380          21.000                                                                  
R19  21168825.061 4                     -1677.875          33.000    21168826.060 4                     -1305.932          31.000  
G 8  22858911.360 2                     -2434.474          32.000    22858907.868 8                     -1896.127          25.000                                                                  
G27  25003395.301 4                     -3585.981          31.000    25003395.520 8                     -2795.513          26.000                                                                  
G 1  23336345.738 9                      2584.593          26.000                                                                                                                                  
S28  39118648.174 1 205569882.573 2      -500.578          40.000  
E26  24820673.459 4                       453.895          32.000    24820676.669 9                       352.849          23.000  
C 7  38628269.353 8                      -323.280          25.000    38628256.866 2                      -250.169          28.000  
C27  23428730.820 1 121999545.079 2     -1609.663          45.000                                                                  
E21  26457215.883 2                      -490.480          33.000    26457217.962 8                      -376.368          25.000  
E13  27100501.630 2 142414086.699 5     -2314.980          32.000    27100504.380 2                     -1773.801          29.000  
J 3  40435336.131 8                     -1346.527          29.000    40435339.018 9                     -1056.391          23.000  
E18  21623407.165 9                      2077.091          24.000    21623404.398 9                      1598.629          20.000  
J 2  40326845.900 9                       590.640          25.000                                                                  
C 8                                                                  40343177.977 9                       959.012          23.000  
R20                                                                  22695070.023 9                      2141.653          18.000  
J 7                                                                  38313261.835 9                      -387.087          21.000  
> 2021  5 17  2 33 24.0060000  0 26                     
G 9  24793186.215 4                     -2505.488          31.000    24793188.546 9                     -1959.615          21.000                                                                  
G16  26078995.799 9                     -2243.056          26.000                                                                                                                                  
G21  22380593.528 4                       323.198          29.000                                                                                                                                  
C10  39155721.069 9                      -426.536          20.000    39155722.926 9                      -327.993          18.000  
C30  24334937.894 1 126718403.391 4      1244.335          37.000                                                                  
C 8  40342947.424 9                      1237.817          26.000    40342940.327 9                       958.630          24.000  
C 9  38464052.447 9                     -1816.545          22.000                                                                  
C16  39898443.415 9                     -2114.293          14.000                                                                  
R16  21977090.622 9                      -446.363          18.000                                                                  
R 9  22873346.518 9                      2146.838          19.000                                                                  
R19  21169139.081 4                     -1682.193          32.000    21169140.321 4                     -1307.568          31.000  
G 8  22859374.783 4                     -2436.385          31.000    22859373.114 9                     -1899.288          25.000                                                                  
G27  25004078.891 4                     -3592.012          29.000    25004078.141 9                     -2801.625          23.000                                                                  
G 1  23335853.079 9                      2568.029          26.000                                                                                                                                  
S28  39118743.075 1 205570381.039 3      -496.302          38.000  
E26  24820590.533 8                       454.601          35.000    24820592.477 9                       346.774          22.000  
S37  38313397.171 9                      -506.219          31.000  
C 7  38628329.478 8                      -324.687          25.000    38628319.415 2                      -252.738          26.000  
C27  23429040.035 1 122001155.573 1     -1611.223          44.000                                                                  
E21  26457309.864 2 139034102.128 5      -494.399          33.000    26457313.185 4                      -379.204          28.000  
E13  27100942.779 1 142416403.933 5     -2318.570          35.000    27100945.273 1                     -1777.526          30.000  
J 3  40435593.393 8                     -1347.604          28.000    40435595.602 9                     -1049.864          23.000  
E18  21623013.441 9                      2079.554          22.000    21623008.913 9                      1591.047          18.000  
J 2  40326733.408 9                       582.253          23.000                                                                  
J 7  38313371.775 9                      -511.810          25.000    38313359.253 9                      -399.959          23.000  
R20                                                                  22694552.750 9                      2139.565          16.000  
> 2021  5 17  2 33 25.0060000  0 26                     
G 9  24793663.513 2                     -2505.623          32.000    24793665.601 9                     -1954.652          21.000                                                                  
G16  26079421.131 8                     -2249.540          32.000                                                                                                                                  
G21  22380533.394 9                       321.959          25.000                                                                                                                                  
C10  39155802.957 9                      -415.073          18.000    39155807.815 9                      -347.691          14.000  
C30  24334698.734 1 126717158.067 3      1245.513          37.000                                                                  
C 9  38464399.308 9                     -1804.547          23.000                                                                  
C16  39898850.441 9                     -2122.909          14.000                                                                  
R16  21977172.730 9                      -445.274          20.000                                                                  
R 9  22872944.581 9                      2142.834          21.000                                                                  
R19  21169453.706 4                     -1682.221          32.000    21169454.620 4                     -1308.954          33.000  
G 8  22859839.023 9                     -2442.203          22.000    22859836.497 9                     -1900.686          22.000                                                                  
G27  25004761.380 8                     -3592.672          28.000    25004761.757 9                     -2796.115          22.000                                                                  
G 1  23335359.304 9                      2591.034          26.000                                                                                                                                  
S28  39118837.376 1 205570876.634 4      -495.534          34.000  
E26  24820499.778 9                       449.784          30.000    24820505.139 8                       346.986          24.000  
S37  38313490.012 9                      -574.463          28.000  
C 7  38628393.326 9                      -325.557          22.000    38628382.414 9                      -244.374          23.000  
C27  23429349.682 1 122002767.528 1     -1612.074          43.000                                                                  
E21  26457404.283 2                      -494.302          32.000    26457406.703 4                      -379.543          30.000  
E13  27101384.300 1 142418724.700 5     -2320.566          36.000    27101387.099 2                     -1778.391          31.000  
J 3  40435849.094 8                     -1348.275          28.000    40435852.083 9                     -1048.790          23.000  
E18  21622619.025 9                      2071.972          20.000    21622616.630 9                      1573.800          17.000  
J 2  40326621.435 9                       587.142          25.000                                                                  
J 7  38313462.123 9                      -511.810          24.000    38313456.332 9                      -401.528          22.000  
C 8                                                                  40342703.274 8                       952.463          25.000  
R20                                                                  22694034.976 9                      2151.913          14.000  
> 2021  5 17  2 33 26.0060000  0 23                     
G 9  24794140.481 2                     -2507.260          32.000    24794143.221 9                     -1956.283          23.000                                                                  
G16  26079846.784 8                     -2248.838          32.000                                                                                                                                  
C10  39155882.562 9                      -415.073          13.000    39155895.332 9                      -347.691          10.000  
C30  24334459.597 1 126715913.389 3      1244.008          38.000                                                                  
C 9  38464747.734 9                     -1823.101          24.000                                                                  
C16  39899258.654 9                     -2111.756          14.000                                                                  
R16  21977254.918 9                      -442.847          22.000    21977241.213 9                      -347.707          15.000  
R 9  22872544.934 9                      2138.973          20.000                                                                  
R19  21169768.063 4                     -1682.894          33.000    21169768.977 4                     -1308.276          32.000  
G 8  22860303.300 9                     -2433.465          21.000    22860300.040 9                     -1896.716          19.000                                                                  
G27  25005443.772 9                     -3576.043          26.000    25005446.455 9                     -2801.763          21.000                                                                  
G 1  23334866.990 9                      2580.354          25.000                                                                                                                                  
S28  39118931.924 4                      -497.920          30.000  
E26  24820412.281 8                       453.104          31.000    24820417.491 4                       346.505          26.000  
C 7  38628456.883 9                      -330.023          20.000    38628444.426 9                      -250.246          20.000  
C27  23429659.398 1 122004379.671 2     -1612.733          36.000                                                                  
E21  26457498.515 2 139035091.537 5      -494.774          33.000    26457502.576 4                      -379.303          31.000  
E13  27101826.059 1 142421045.322 4     -2320.397          37.000    27101828.669 1 109127832.344 5     -1778.233          32.000  
J 3  40436107.365 8                     -1350.446          28.000    40436106.846 8                     -1049.293          25.000  
E18  21622225.272 9                      2079.132          20.000    21622223.374 9                      1584.862          14.000  
J 2  40326509.990 8                       587.064          37.000                                                                  
J 7  38313561.584 9                      -511.810          22.000    38313553.412 9                      -393.673          23.000  
C 8                                                                  40342465.847 9                       952.371          23.000  
> 2021  5 17  2 33 27.0060000  0 24                     
G 9  24794617.470 4                     -2506.794          25.000    24794620.914 9                     -1956.291          22.000                                                                  
G16  26080275.279 8                     -2251.461          31.000                                                                                                                                  
G21  22380409.741 8                       318.489          34.000                                                                                                                                  
C30  24334220.589 1 126714668.755 3      1245.090          38.000                                                                  
C 9  38465094.242 8                     -1809.903          25.000                                                                  
C16  39899661.742 9                     -2096.159          13.000                                                                  
R16  21977338.050 9                      -437.123          23.000    21977326.656 9                      -350.593          17.000  
R 9  22872142.648 9                      2144.325          19.000                                                                  
R19  21170082.823 4                     -1683.266          32.000    21170083.665 4  88079955.866 4     -1309.127          33.000  
G 8  22860766.625 9                     -2412.247          21.000    22860764.272 9                     -1885.604          15.000                                                                  
G27  25006126.957 9                     -3598.080          23.000    25006129.872 9                     -2794.418          21.000                                                                  
G 1  23334374.451 9                      2586.603          31.000                                                                                                                                  
S28  39119026.457 8                      -494.355          30.000  
E26  24820327.914 8                       450.195          32.000    24820333.221 4                       347.636          28.000  
C 7  38628520.155 9                      -322.353          16.000    38628506.003 9                      -228.617          16.000  
C27  23429969.135 1 122005992.380 3     -1612.404          40.000                                                                  
E21  26457593.032 1 139035586.286 4      -494.890          35.000    26457595.326 2                      -379.380          31.000  
E13  27102268.003 1 142423366.573 4     -2321.171          35.000    27102270.228 1 109129610.913 4     -1778.539          34.000  
J 3  40436361.905 4                     -1347.336          36.000    40436363.328 9                     -1052.188          25.000  
E18  21621829.896 9                      2066.558          21.000    21621829.466 9                      1584.862          13.000  
J 2  40326400.385 4 211916664.17935       588.809          36.000    40326409.978 9                       457.400          21.000  
J 7  38313659.658 9                      -511.810          22.000    38313650.884 9                      -395.078          22.000  
C10                                                                  39155983.210 9                      -347.691           9.000  
C 8                                                                  40342226.865 9                       966.504          21.000  
> 2021  5 17  2 33 28.0060000  0 24                     
G 7  22861626.927 9                      1698.014          38.000                                                                                                                                  
