     3.03           OBSERVATION DATA    M: Mixed            RINEX VERSION / TYPE
RTKCONV demo5 b33c                      20210520 080531 UTC PGM / RUN BY / DATE 
log: C:\Users\Ivan_PolyU_Dktp\Dropbox\HUAWEI Exp\20210517_  COMMENT             
format: RINEX                                               COMMENT             
                                                            MARKER NAME         
                                                            MARKER NUMBER       
                                                            MARKER TYPE         
                                                            OBSERVER / AGENCY   
                                                            REC # / TYPE / VERS 
                                                            ANT # / TYPE        
        0.0000        0.0000        0.0000                  APPROX POSITION XYZ 
        0.0000        0.0000        0.0000                  ANTENNA: DELTA H/E/N
G    4 C1C L1C D1C S1C                                      SYS / # / OBS TYPES 
E    4 C1C L1C D1C S1C                                      SYS / # / OBS TYPES 
J    4 C1C L1C D1C S1C                                      SYS / # / OBS TYPES 
  2021     5    17     2    33   12.9970000     GPS         TIME OF FIRST OBS   
  2021     5    17     2    46   18.9960000     GPS         TIME OF LAST OBS    
G                                                           SYS / PHASE SHIFT   
E                                                           SYS / PHASE SHIFT   
J                                                           SYS / PHASE SHIFT   
  0                                                         GLONASS SLOT / FRQ #
 C1C    0.000 C1P    0.000 C2C    0.000 C2P    0.000        GLONASS COD/PHS/BIS 
                                                            END OF HEADER       
> 2021  5 17  2 33 12.9970000  0 13                     
G 8  20022298.865 4 105217885.771 3     -1746.027          32.000  
G21  19549271.324 4 102732149.086 3      1007.588          28.000  
G 1  20509240.582 9                      3258.692          26.000  
G27  22164578.991 4 116475671.333 4     -2896.298          27.000  
J 2  37495993.648 9                      1271.136          21.000  
G 4  22628342.861 4 118912648.259 4     -2702.329          27.000  
E 1  24341491.658 9                      1489.154          23.000  
E13  24264124.185 4 127508822.889 2     -1622.746          31.000  
E18  18795371.559 9                      2759.422          22.000  
G 9  21955912.581 2 115379091.986 1     -1844.224          37.000  
E26  21989541.469 2 115555860.836 2      1135.515          29.000  
E21  23624305.290 9                       191.983          20.000  
J 3  37600799.084 4 197593543.875 4      -663.508          27.000  
> 2021  5 17  2 33 13.9970000  0 14                     
G 8  20022631.558 4 105219632.965 2     -1747.204          32.000  
G21  19549081.850 4 102731142.357 3      1006.859          28.000  
G 1  20508621.331 9                      3259.479          25.000  
G27  22165130.492 4 116478568.432 4     -2896.884          27.000  
J 2  37495753.040 9                      1281.213          21.000  
G 4  22628859.004 4 118915350.734 4     -2701.871          26.000  
G16  23242612.993 9                     -1555.639          15.000  
E 1  24341205.191 9                      1490.233          23.000  
E13  24264433.019 4 127510445.743 2     -1623.030          31.000  
E18  18794846.813 9                      2762.811          22.000  
G 9  21956263.797 2 115380936.713 1     -1844.238          37.000  
E26  21989325.187 4 115554726.021 2      1134.634          28.000  
E21  23624269.888 9                       201.335          20.000  
J 3  37600925.005 4 197594207.260 3      -662.671          27.000  
> 2021  5 17  2 33 14.9970000  0 14                     
G 8  20022964.033 4 105221379.379 2     -1746.393          32.000  
G21  19548892.414 4 102730135.227 3      1007.572          28.000  
G 1  20508002.703 9                      3261.884          25.000  
G27  22165684.938 4 116481464.487 3     -2895.618          27.000  
J 2  37495509.265 9                      1272.613          21.000  
G 4  22629372.429 4 118918052.213 4     -2701.076          26.000  
G16  23242911.348 9                     -1554.480          17.000  
E 1  24340918.650 9                      1491.361          23.000  
E13  24264740.553 4 127512067.975 3     -1621.695          31.000  
E18  18794320.755 9                      2745.224          21.000  
G 9  21956614.607 2 115382780.655 1     -1843.589          37.000  
E26  21989107.495 4 115553590.625 3      1135.716          28.000  
E21  23624232.540 9                       204.079          20.000  
J 3  37601050.477 4 197594869.664 4      -661.725          27.000  
> 2021  5 17  2 33 15.9970000  0 14                     
G 8  20023296.534 4 105223125.490 2     -1746.552          33.000  
G21  19548697.657 2 102729128.212 2      1006.702          28.000  
G 1  20507386.994 9                      3260.724          26.000  
G27  22166240.819 4 116484359.980 3     -2895.464          28.000  
J 2  37495267.143 9                      1276.083          22.000  
G 4  22629884.754 4 118920846.16234     -2701.887          25.000  
G16  23243211.112 9                     -1554.664          18.000  
E 1  24340632.505 9                      1491.811          23.000  
E13  24265049.138 4 127513690.031 3     -1622.512          31.000  
E18  18793796.027 9                      2763.705          21.000  
G 9  21956965.570 2 115384624.323 1     -1843.803          37.000  
E26  21988893.373 4 115552455.131 3      1135.037          28.000  
E21  23624194.800 9                       204.099          21.000  
J 3  37601180.673 4 197595531.526 4      -661.896          27.000  
> 2021  5 17  2 33 16.9970000  0 14                     
G 8  20023629.305 4 105224872.183 3     -1747.485          32.000  
G21  19548506.346 2 102728122.151 3      1005.525          29.000  
G 1  20506767.834 9                      3259.069          26.000  
G27  22166798.715 8 116487255.819 4     -2896.318          29.000  
J 2  37495026.326 9                      1258.204          21.000  
G 4  22630395.600 8 118923547.27625     -2701.662          25.000  
G16  23243508.791 9                     -1550.021          18.000  
E 1  24340347.469 9                      1493.177          23.000  
E13  24265358.243 4 127515312.751 2     -1623.680          32.000  
E18  18793271.469 9                      2758.701          21.000  
G 9  21957316.630 2 115386468.567 1     -1845.526          37.000  
E26  21988678.368 4 115551320.413 2      1133.917          28.000  
E21  23624157.426 9                       199.421          21.000  
J 3  37601305.830 4 197596193.690 4      -662.636          27.000  
> 2021  5 17  2 33 17.9970000  0 14                     
G 8  20023962.351 4 105226620.603 3     -1748.425          33.000  
G21  19548315.689 4 102727118.308 3      1002.787          29.000  
G 1  20506149.185 8 107760541.01235      3257.361          26.000  
G27  22167355.237 4 116490153.198 3     -2897.727          29.000  
J 2  37494785.229 9                      1252.753          21.000  
G 4  22630910.844 8 118926250.02025     -2703.095          24.000  
G16  23243808.904 9                     -1554.120          19.000  
E 1  24340064.230 9                      1491.811          23.000  
E13  24265667.530 4 127516937.368 3     -1625.038          31.000  
E18  18792747.347 9                      2754.302          21.000  
G 9  21957667.907 2 115388314.537 1     -1846.482          37.000  
E26  21988462.928 4 115550187.683 3      1132.104          28.000  
E21  23624121.038 9                       194.534          22.000  
J 3  37601431.812 4 197596857.413 4      -664.323          27.000  
> 2021  5 17  2 33 18.9970000  0 14                     
G 8  20024295.432 4 105228370.191 2     -1749.658          33.000  
G21  19548126.075 8 102726115.805 3      1002.756          29.000  
G 1  20505532.106 8 107757284.73125      3255.966          26.000  
G27  22167911.764 8 116493051.403 4     -2897.584          30.000  
J 2  37494542.728 9                      1271.603          21.000  
G 4  22631426.873 8 118928953.53725     -2704.012          24.000  
G16  23244107.678 9                     -1552.681          20.000  
E 1  24339781.833 9                      1486.163          22.000  
E13  24265977.328 4 127518563.200 2     -1625.952          31.000  
E18  18792219.906 9                      2756.775          21.000  
G 9  21958019.337 2 115390161.632 1     -1847.357          37.000  
E26  21988248.456 4 115549056.264 3      1130.514          28.000  
E21  23624085.566 9                       196.883          22.000  
J 3  37601560.006 4 197597521.972 4      -665.242          27.000  
> 2021  5 17  2 33 19.9970000  0 14                     
G 8  20024628.653 4 105230119.641 2     -1748.621          33.000  
G21  19547936.042 4 102725113.757 3      1002.183          29.000  
G 1  20504912.880 8 107754028.36925      3257.401          26.000  
G27  22168464.871 8 116495949.291 3     -2896.645          30.000  
J 2  37494298.800 9                      1284.276          21.000  
G 4  22631937.702 9                     -2702.325          23.000  
G16  23244406.129 9                     -1563.449          19.000  
E 1  24339498.019 9                      1492.352          21.000  
E13  24266287.031 4 127520189.056 3     -1625.316          31.000  
E18  18791693.306 9                      2753.006          22.000  
G 9  21958370.871 2 115392008.587 1     -1845.538          36.000  
E26  21988033.893 4 115547924.874 3      1132.579          27.000  
E21  23624047.563 9                       199.743          23.000  
J 3  37601687.065 4 197598186.149 4      -663.623          26.000  
> 2021  5 17  2 33 20.9970000  0 14                     
G 8  20024961.223 4 105231868.710 3     -1751.202          31.000  
G21  19547747.480 8 102724111.073 3      1003.006          29.000  
G 1  20504294.637 8 107750770.42825      3257.370          26.000  
G27  22169009.522 9                     -2898.532          29.000  
J 2  37494056.281 9                      1272.189          21.000  
G 4  22632449.164 9                     -2695.904          22.000  
G16  23244702.015 9                     -1556.544          19.000  
E 1  24339215.338 9                      1488.890          20.000  
E13  24266599.708 8 127521815.107 4     -1627.334          31.000  
E18  18791172.605 9                      2753.962          20.000  
G 9  21958721.621 2 115393853.485 1     -1843.588          35.000  
E26  21987818.347 4 115546792.749 3      1131.766          29.000  
E21  23624011.660 9                       195.910          24.000  
J 3  37601808.854 8 197598849.710 5      -665.860          27.000  
> 2021  5 17  2 33 21.9970000  0 14                     
G 8  20025292.874 8 105233620.515 3     -1753.590          30.000  
G21  19547557.669 9                      1001.013          28.000  
G 1  20503672.606 4 107747525.81734      3256.871          26.000  
G27  22169561.355 9                     -2904.462          27.000  
J 2  37493815.499 9                      1274.094          22.000  
G 4  22632958.780 9                     -2695.029          22.000  
G16  23244997.709 9                     -1559.474          21.000  
E 1  24338932.527 9                      1496.515          20.000  
E13  24266903.525 8 127523445.356 4     -1633.495          31.000  
E18  18790650.599 9                      2745.993          20.000  
G 9  21959071.943 4 115395696.332 2     -1840.462          36.000  
E26  21987595.875 8 115545662.019 3      1130.217          28.000  
E21  23623973.326 9                       188.480          24.000  
J 3  37601933.279 9                      -669.842          27.000  
> 2021  5 17  2 33 22.9970000  0 14                     
G 8  20025622.041 8 105235375.829 4     -1756.484          30.000  
G21  19547368.753 9                       998.396          27.000  
G 1  20503052.958 9                      3247.384          25.000  
G27  22170116.211 9                     -2909.997          26.000  
J 2  37493570.646 9                      1274.003          22.000  
G 4  22633467.454 9                     -2663.779          18.000  
G16  23245294.407 9                     -1565.573          21.000  
E 1  24338651.653 9                      1483.340          21.000  
E13  24267219.134 8 127525081.211 4     -1638.016          30.000  
E18  18790127.132 9                      2747.853          18.000  
G 9  21959421.475 4 115397534.573 2     -1835.266          35.000  
E26  21987385.059 8 115544532.019 4      1131.253          29.000  
E21  23623936.925 9                       186.628          26.000  
J 3  37602057.821 9                      -668.984          26.000  
> 2021  5 17  2 33 23.9970000  0 14                     
G 8  20025967.106 8 105237132.886 5     -1759.911          29.000  
G21  19547179.021 9 102721118.77835      1000.142          31.000  
G 1  20502435.281 9                      3256.007          24.000  
G27  22170666.037 9                     -2903.878          24.000  
J 2  37493329.506 9                      1262.453          23.000  
G 4  22633976.547 9                     -2663.779          16.000  
G16  23245587.906 9                     -1569.286          23.000  
E 1  24338365.892 9                      1487.646          21.000  
E13  24267529.674 8 127526721.056 4     -1641.914          30.000  
E18  18789604.175 9                      2756.813          18.000  
G 9  21959769.637 4 115399366.402 2     -1829.084          35.000  
E26  21987178.321 9                      1134.743          20.000  
E21  23623899.695 9                       184.530          26.000  
J 3  37602179.567 9                      -669.764          25.000  
> 2021  5 17  2 33 24.9970000  0 14                     
G 8  20026299.468 9                     -1748.429          19.000  
G21  19546988.221 9                       998.538          24.000  
G 1  20501812.125 9                      3255.331          24.000  
G27  22171220.810 9                     -2908.910          22.000  
J 2  37493085.107 9                      1274.969          24.000  
G 4  22634489.273 9                     -2695.029          13.000  
G16  23245880.965 9                     -1573.043          30.000  
E 1  24338085.986 9                      1486.851          21.000  
E13  24267840.183 8 127528364.556 3     -1644.686          31.000  
E18  18789079.002 9                      2758.009          18.000  
G 9  21960117.516 2 115401195.131 2     -1829.261          35.000  
E26  21986954.967 9                      1130.342          19.000  
E21  23623861.701 9                       181.909          25.000  
J 3  37602308.698 9                      -677.802          25.000  
> 2021  5 17  2 33 25.9970000  0 14                     
G 8  20026636.601 9                     -1752.339          18.000  
G21  19546804.068 9                       995.041          29.000  
G 1  20501191.639 9                      3258.402          25.000  
G27  22171774.854 9                     -2894.697          20.000  
J 2  37492843.016 9                      1264.483          30.000  
G 4  22635001.612 9                     -2695.029          10.000  
G16  23246175.272 9                     -1571.758          26.000  
E 1  24337804.754 9                      1480.532          19.000  
E13  24268149.475 8 127530008.767 2     -1644.580          32.000  
E18  18788556.158 9                      2751.147          17.000  
G 9  21960465.587 4 115403025.127 2     -1829.852          31.000  
E26  21986740.775 9                      1128.420          30.000  
E21  23623827.857 9 124144062.98115       182.622          27.000  
J 3  37602435.160 9                      -670.910          31.000  
> 2021  5 17  2 33 26.9970000  0 14                     
G 8  20026975.441 9                     -1736.085          19.000  
G21  19546609.429 9                      1000.816          28.000  
G 1  20500572.723 9                      3255.350          26.000  
G27  22172327.913 9                     -2899.739          19.000  
J 2  37492599.236 9                      1263.538          28.000  
G 4  22635513.727 9                     -2695.029          10.000  
G16  23246473.370 9                     -1570.278          24.000  
E 1  24337521.053 9                      1486.322          16.000  
E13  24268470.485 8 127531653.216 3     -1644.405          30.000  
E18  18788031.635 9                      2751.147          17.000  
G 9  21960814.225 4 115404855.077 4     -1828.701          26.000  
E26  21986527.184 9                      1128.321          24.000  
E21  23623794.134 8 124143880.878 5       183.517          27.000  
J 3  37602563.917 9                      -669.559          26.000  
> 2021  5 17  2 33 27.9970000  0 15                     
G 8  20027310.948 9                     -1747.534          18.000  
G 7  20027669.122 9                      2377.197          35.000  
G21  19546420.129 9                      1006.419          23.000  
G 1  20499952.870 9                      3265.713          23.000  
G27  22172887.956 9                     -2894.149          19.000  
J 2  37492355.404 9                      1275.409          20.000  
G 4  22636026.040 9                     -2695.029          11.000  
G16  23246773.688 9                     -1560.342          23.000  
E 1  24337237.701 9                      1486.322          13.000  
E13  24268785.474 9                     -1617.002          21.000  
E18  18787494.766 9  98728960.95615      2744.371          33.000  
G 9  21961167.251 9                     -1828.447          22.000  
E26  21986316.935 9                      1137.303          22.000  
E21  23623762.676 9                       182.013          23.000  
J 3  37602692.241 9                      -667.672          23.000  
> 2021  5 17  2 33 28.9970000  0 15                     
G 8  20027648.701 9                     -1734.714          20.000  
G 7  20027216.568 9                      2372.082          25.000  
G21  19546218.304 9 102716069.92835      1007.844          37.000  
G 1  20499332.178 9                      3270.578          24.000  
G27  22173446.371 9                     -2901.161          20.000  
J 2  37492116.297 9                      1274.505          32.000  
G 4  22636538.134 9                     -2695.029          11.000  
G16  23247073.962 9                     -1566.267          22.000  
E 1  24336953.563 9                      1486.322          12.000  
E13  24269092.157 9                     -1617.002          19.000  
E18  18786977.149 9                      2742.956          17.000  
G 9  21961520.876 9                     -1844.046          29.000  
E26  21986091.435 9                      1137.978          34.000  
E21  23623720.525 9                       182.013          21.000  
J 3  37602818.402 9                      -665.038          22.000  
> 2021  5 17  2 33 29.9970000  0 13                     
G 8  20027985.224 9                     -1741.659          30.000  
G 7  20026766.156 9                      2374.296          26.000  
G21  19546028.685 8 102715062.33222      1008.013          39.000  
G 1  20498715.409 9                      3269.265          33.000  
J 2  37491872.688 9 197021119.79034      1278.079          37.000  
G16  23247366.664 9                     -1551.050          23.000  
E 1  24336667.210 9                      1486.322          12.000  
E13  24269402.754 9                     -1628.218          34.000  
E18  18786453.442 9                      2740.029          38.000  
G 9  21961867.075 9                     -1851.221          32.000  
E26  21985871.680 9 115536545.16713      1135.711          37.000  
E21  23623683.988 9 124143307.39315       197.849          38.000  
J 3  37602941.326 9 197604789.53834      -659.523          37.000  
> 2021  5 17  2 33 30.9970000  0 14                     
G 8  20028311.417 9                     -1758.099          42.000  
G 7  20026311.818 9 105238978.64934      2368.164          39.000  
G21  19545834.805 4 102714053.63322      1009.241          39.000  
G 1  20498076.134 8 107718116.88833      3270.271          39.000  
G27  22174550.381 9                     -2900.470          34.000  
J 2  37491628.271 8 197019840.24822      1279.163          39.000  
G16  23247663.636 9                     -1553.347          22.000  
E 1  24336384.110 9                      1486.322          12.000  
E13  24269716.805 9 127538209.44714     -1629.282          33.000  
E18  18785932.893 9  98720749.15412      2739.260          39.000  
G 9  21962224.499 9                     -1838.446          25.000  
E26  21985656.885 8 115535408.712 2      1136.890          37.000  
E21  23623647.888 8 124143109.517 2       198.067          37.000  
J 3  37603065.955 8 197605448.98322      -660.178          37.000  
> 2021  5 17  2 33 31.9970000  0 14                     
G 8  20028640.720 9 105251216.40034     -1761.896          40.000  
G 7  20025860.333 8 105236611.12822      2365.839          38.000  
G21  19545641.496 4 102713043.36822      1010.492          36.000  
G 1  20497450.700 8 107714845.04822      3273.271          39.000  
G27  22175103.352 9                     -2900.969          36.000  
J 2  37491380.618 4 197018560.00522      1281.512          38.000  
G16  23247957.864 9                     -1549.121          20.000  
E 1  24336101.705 9                      1486.322          14.000  
E13  24270027.415 9                     -1633.180          33.000  
E18  18785409.906 8  98718010.105 1      2738.173          38.000  
G 9  21962580.265 9                     -1826.398          21.000  
E26  21985440.363 8 115534270.861 1      1138.180          36.000  
E21  23623601.553 8 124142911.851 3       197.626          33.000  
J 3  37603193.573 4 197606107.96122      -659.726          37.000  
> 2021  5 17  2 33 32.9970000  0 13                     
G 8  20028977.509 8 105252980.02024     -1765.283          37.000  
G 7  20025411.727 4 105234246.87721      2362.311          38.000  
G21  19545449.434 4 102712032.04722      1011.629          37.000  
G 1  20496828.714 4 107711570.31122      3276.028          37.000  
G27  22175653.876 9                     -2906.764          34.000  
J 2  37491138.151 8 197017280.52122      1277.848          34.000  
G16  23248256.010 9                     -1557.098          17.000  
E 1  24335817.746 9                      1485.712          16.000  
E13  24270333.588 9                     -1625.132          27.000  
E18  18784889.614 8  98715273.440 1      2735.187          38.000  
E26  21985227.710 4 115533132.307 1      1138.794          36.000  
E21  23623574.100 8 124142715.964 3       193.972          38.000  
J 3  37603317.862 8 197606767.77623      -659.365          37.000  
> 2021  5 17  2 33 33.9970000  0 14                     
G 8  20029311.990 8 105254746.46523     -1767.969          37.000  
G 7  20024961.219 4 105231885.25121      2360.449          37.000  
G21  19545257.774 4 102711020.06521      1011.642          38.000  
G 1  20496211.351 8                      3275.337          31.000  
G27  22176202.210 9                     -2897.038          33.000  
J 2  37490895.388 8 197016001.64623      1277.104          31.000  
G 4  22639138.351 9                     -2707.170          22.000  
E 1  24335536.854 9                      1472.354          17.000  
E13  24270650.471 9                     -1634.117          33.000  
E18  18784375.492 4  98712538.767 1      2733.889          38.000  
G 9  21963300.929 9                     -1850.828          20.000  
E26  21985008.361 4 115531993.247 1      1138.801          36.000  
E21  23623535.129 8 124142521.751 2       194.139          37.000  
J 3  37603444.127 4 197607428.34622      -660.249          38.000  
> 2021  5 17  2 33 34.9970000  0 15                     
G 8  20029649.656 8 105256514.16023     -1768.164          39.000  
G 7  20024512.967 4 105229525.79821      2358.527          37.000  
G21  19545065.595 2 102710007.13721      1013.322          38.000  
G 1  20495604.938 9                      3277.432          24.000  
G27  22176758.313 9                     -2898.145          29.000  
J 2  37490656.674 9                      1281.087          22.000  
G 4  22639646.812 9                     -2647.478          21.000  
G16  23248860.258 9                     -1544.476          16.000  
E 1  24335256.931 9                      1472.354          15.000  
E13  24270956.050 8 127544773.54513     -1634.664          33.000  
E18  18783852.443 4  98709805.836 1      2731.815          38.000  
G 9  21963663.789 9                     -1828.766          23.000  
E26  21984791.363 4 115530853.472 2      1140.244          36.000  
E21  23623499.518 4 124142327.355 2       195.437          39.000  
J 3  37603569.952 4 197608088.53322      -659.861          36.000  
> 2021  5 17  2 33 35.9970000  0 15                     
G 8  20029985.569 4 105258282.72422     -1769.635          36.000  
G 7  20024063.916 4 105227168.86922      2355.499          34.000  
G21  19544872.744 4 102708993.59522      1014.249          34.000  
G 1  20494980.003 9                      3280.694          22.000  
G27  22177305.565 9                     -2907.568          33.000  
J 2  37490412.593 9                      1281.087          19.000  
G 4  22640146.267 9                     -2688.005          19.000  
G16  23249158.875 9                     -1541.667          16.000  
E 1  24334955.679 9                      1453.226          21.000  
E13  24271269.460 8 127546407.032 3     -1632.689          33.000  
E18  18783332.955 4  98707074.785 1      2729.864          35.000  
G 9  21964015.903 9                     -1826.797          22.000  
E26  21984573.131 2 115529713.411 1      1140.426          35.000  
E21  23623460.940 8                       194.914          27.000  
J 3  37603698.146 9                      -656.526          16.000  
> 2021  5 17  2 33 36.9970000  0 15                     
G 8  20030323.056 4 105260051.49522     -1768.945          36.000  
G 7  20023615.567 4 105224813.62122      2354.626          33.000  
G21  19544679.670 4 102707978.795 2      1016.114          34.000  
G 1  20494356.005 9                      3266.831          20.000  
G27  22177860.714 9                     -2906.266          20.000  
J 2  37490170.807 9                      1281.087          14.000  
G 4  22640652.476 9                     -2674.333          17.000  
G16  23249451.847 9                     -1541.667          14.000  
E 1  24334660.356 9                      1457.428          25.000  
E13  24271583.268 9                     -1638.042          18.000  
E18  18782812.991 2  98704344.898 1      2729.324          34.000  
G 9  21964339.679 9 115423383.59735     -1851.885          33.000  
E26  21984357.428 2 115528572.375 1      1141.682          31.000  
E21  23623425.014 9                       196.584          12.000  
J 3  37603821.864 9                      -656.526          13.000  
> 2021  5 17  2 33 37.9970000  0 15                     
G 8  20030658.842 8 105261821.30324     -1768.011          28.000  
G 7  20023167.284 4 105222460.27022      2352.899          33.000  
G21  19544486.426 4 102706963.518 2      1014.482          33.000  
G 1  20493726.628 9                      3285.099          27.000  
G27  22178414.387 9                     -2906.266          17.000  
J 2  37489930.025 9                      1281.087          11.000  
G 4  22641159.252 9                     -2713.518          17.000  
G16  23249745.791 9                     -1541.667          13.000  
E 1  24334374.521 8 127878057.03015      1455.216          27.000  
E13  24271895.949 9                     -1638.042          14.000  
E18  18782294.265 2  98701616.482 1      2728.337          34.000  
G 9  21964696.218 8 115425237.13723     -1855.211          34.000  
E26  21984140.832 4 115527430.901 2      1141.993          32.000  
E21  23623388.399 9                       196.584          11.000  
J 3  37603947.906 9                      -656.526          12.000  
> 2021  5 17  2 33 38.9970000  0 14                     
G 8  20030996.438 9                     -1770.970          32.000  
G 7  20022719.512 4 105220108.60022      2351.410          32.000  
G21  19544293.414 4 102705947.908 2      1015.416          32.000  
G 1  20493114.683 9                      3225.622          26.000  
G27  22178977.157 9                     -2906.266          13.000  
J 2  37489692.689 9                      1284.206          21.000  
G 4  22641670.156 9                     -2713.518          16.000  
G16  23250042.057 9                     -1541.667          11.000  
E 1  24334098.350 8 127876602.555 5      1453.924          26.000  
E18  18781775.449 4  98698889.593 2      2726.400          33.000  
G 9  21965049.048 9                     -1859.749          23.000  
E26  21983923.359 4 115526289.320 2      1141.342          31.000  
E21  23623350.964 9                       196.584          11.000  
J 3  37604073.570 9                      -655.410          25.000  
> 2021  5 17  2 33 39.9970000  0 11                     
G 8  20031332.625 9                     -1772.411          18.000  
G 7  20022272.280 4 105217757.76222      2351.642          33.000  
G21  19544100.336 4 102704932.090 3      1016.499          31.000  
G 1  20492504.685 9                      3287.484          25.000  
J 2  37489445.471 9                      1278.939          24.000  
G 4  22642185.570 9                     -2713.518          15.000  
E 1  24333820.726 8                      1453.717          26.000  
E18  18781256.514 2  98696163.508 2      2726.019          33.000  
G 9  21965440.317 9                     -1853.109          24.000  
E26  21983706.330 4 115525147.492 2      1141.406          31.000  
J 3  37604199.752 9                      -657.184          28.000  
> 2021  5 17  2 33 40.9970000  0 13                     
G 8  20031671.412 9                     -1771.326          28.000  
G 7  20021825.031 4 105215406.56922      2351.495          34.000  
G21  19543906.913 4 102703916.086 2      1015.620          32.000  
G 1  20491868.302 9                      3228.379          26.000  
J 2  37489203.236 9                      1278.726          25.000  
G 4  22642698.536 9                     -2726.945          17.000  
G16  23250629.379 9                     -1541.667          11.000  
E 1  24333540.353 8 127873693.936 5      1454.769          27.000  
E18  18780737.802 2  98693437.416 1      2725.511          34.000  
G 9  21965818.066 9                     -1857.608          31.000  
E26  21983488.944 4 115524005.245 2      1141.445          32.000  
E21  23623286.647 9                       198.404          18.000  
J 3  37604327.680 9                      -653.089          27.000  
> 2021  5 17  2 33 41.9970000  0 11                     
G 8  20032011.103 9                     -1772.304          26.000  
G21  19543713.884 4 102702901.838 3      1014.580          32.000  
G 1  20491258.700 9                      3246.263          25.000  
G27  22180662.839 9                     -2864.603          27.000  
J 2  37488949.419 9 197005757.92135      1283.698          31.000  
G16  23250923.166 9                     -1541.667          11.000  
E13  24273150.917 9                     -1630.103          24.000  
E18  18780219.404 2  98690712.456 2      2725.036          35.000  
E26  21983271.811 4 115522864.454 2      1139.973          33.000  
E21  23623243.702 9                       196.674          30.000  
J 3  37604450.512 9 197612720.40235      -656.639          35.000  
> 2021  5 17  2 33 42.9970000  0 13                     
G 8  20032347.041 9                     -1771.510          24.000  
G 7  20020927.195 9                      2351.609          32.000  
G21  19543521.150 4 102701888.481 3      1011.983          33.000  
G 1  20490641.364 9                      3225.265          23.000  
G27  22181222.734 9                     -2868.274          14.000  
J 2  37488705.355 9 197004474.50324      1284.425          35.000  
G 4  22643723.409 9                     -2685.319          17.000  
G16  23251216.308 9                     -1541.667          12.000  
E13  24273461.469 9                     -1632.358          22.000  
E18  18779700.954 2  98687987.720 1      2724.887          35.000  
E26  21983054.983 4 115521724.225 3      1139.728          32.000  
E21  23623200.704 9 124140796.76815       196.757          30.000  
J 3  37604564.497 9                      -658.040          27.000  
> 2021  5 17  2 33 43.9970000  0 13                     
G 8  20032683.595 9                     -1743.371          23.000  
G 7  20020490.059 9 105208384.53634      2351.636          34.000  
G21  19543329.451 4 102700876.799 2      1010.519          33.000  
G 1  20490014.866 9                      3272.513          22.000  
G27  22181770.636 9                     -2877.712          15.000  
J 2  37488459.046 4 197003191.33222      1283.402          37.000  
G16  23251509.899 9                     -1541.667          11.000  
G 9  21966879.877 9                     -1882.156          34.000  
E13  24273774.086 9                     -1639.771          24.000  
E18  18779182.905 2  98685263.768 1      2724.263          35.000  
E26  21982837.951 4 115520585.376 3      1138.896          32.000  
E21  23623173.835 9                       194.305          23.000  
J 3  37604692.834 8 197613977.04034      -656.600          34.000  
> 2021  5 17  2 33 44.9970000  0 12                     
G 8  20033019.647 9                     -1765.182          22.000  
G 7  20020035.939 9 105206030.25522      2356.641          36.000  
G21  19543137.424 4 102699867.272 2      1007.983          36.000  
G 1  20489386.815 9                      3274.491          29.000  
G27  22182322.743 9                     -2877.426          17.000  
J 2  37488217.421 9                      1281.738          28.000  
G16  23251803.429 9                     -1541.667          11.000  
E13  24274086.951 9                     -1640.249          23.000  
E18  18778663.940 2  98682538.181 1      2727.113          35.000  
E26  21982621.062 4 115519447.866 2      1135.910          34.000  
E21  23623145.575 9                       194.076          23.000  
J 3  37604822.695 8 197614634.37722      -657.652          39.000  
> 2021  5 17  2 33 45.9970000  0 13                     
G 8  20033354.329 9                     -1759.511          21.000  
G 7  20019586.050 8 105203669.62723      2365.856          34.000  
G21  19542944.386 4 102698862.591 2      1001.687          34.000  
G 1  20488758.490 9                      3265.086          26.000  
G27  22182874.855 9                     -2889.836          17.000  
J 2  37487978.510 9                      1284.573          20.000  
G 4  22645263.875 9                     -2721.452          21.000  
G16  23252097.073 9                     -1542.554          11.000  
E13  24274399.297 9                     -1622.761          20.000  
E18  18778144.961 2  98679809.685 2      2730.359          34.000  
E26  21982405.412 4 115518313.598 2      1132.313          34.000  
E21  23623107.930 9                       194.257          23.000  
J 3  37604958.244 8                      -658.572          29.000  
> 2021  5 17  2 33 46.9970000  0 13                     
G 8  20033690.128 9                     -1755.817          34.000  
G 7  20019132.209 4 105201302.19322      2370.978          36.000  
G21  19542754.872 4 102697864.731 2       994.329          35.000  
G 1  20488136.730 9                      3257.599          24.000  
G27  22183431.107 9                     -2897.187          19.000  
J 2  37487739.394 9                      1284.573          18.000  
G 4  22645778.609 9                     -2721.818          21.000  
G16  23252393.923 9                     -1560.801          14.000  
E13  24274715.320 9                     -1625.662          20.000  
E18  18777625.556 2  98677077.995 1      2733.804          37.000  
E26  21982190.644 4 115517184.272 2      1127.700          34.000  
E21  23623072.040 9                       190.270          21.000  
J 3  37605091.760 9                      -671.446          21.000  
> 2021  5 17  2 33 47.9970000  0 14                     
G 8  20034021.128 8 105279506.91233     -1754.205          37.000  
G 7  20018683.743 4 105198927.81421      2376.282          37.000  
G21  19542562.658 4 102696874.074 2       987.230          37.000  
G 1  20487517.365 9                      3257.349          24.000  
G27  22183988.772 9                     -2894.003          21.000  
J 2  37487499.192 9                      1279.324          17.000  
G 4  22646284.600 9                     -2692.733          29.000  
G16  23252690.027 9                     -1527.251          17.000  
G 9  21968283.882 9                     -1852.876          24.000  
E13  24275030.994 9                     -1640.021          20.000  
E18  18777105.282 1  98674343.588 1      2735.195          37.000  
E26  21981976.852 2 115516060.268 2      1121.923          35.000  
E21  23623034.081 9                       199.955          21.000  
J 3  37605218.544 9                      -664.107          20.000  
> 2021  5 17  2 33 48.9970000  0 14                     
G 8  20034356.089 4 105281261.30022     -1755.371          37.000  
G 7  20018229.924 4 105196551.16721      2375.531          37.000  
G21  19542376.909 4 102695888.094 2       983.860          36.000  
G 1  20486896.211 9                      3247.011          30.000  
G27  22184549.823 9                     -2897.093          23.000  
J 2  37487262.201 9                      1279.324          15.000  
G 4  22646788.902 9 119009678.42835     -2701.004          25.000  
G16  23252987.091 9                     -1550.186          21.000  
E 1  24331305.268 9 127861882.22015      1491.637          33.000  
E13  24275343.816 9                     -1640.021          19.000  
E18  18776584.633 2  98671608.984 1      2733.227          37.000  
E26  21981763.453 2 115514939.924 2      1119.152          34.000  
E21  23623001.362 9                       186.773          23.000  
J 3  37605346.533 9                      -664.107          18.000  
> 2021  5 17  2 33 49.9970000  0 14                     
G 8  20034690.736 4 105283017.27221     -1756.976          37.000  
G 7  20017776.506 2 105194176.25421      2374.170          36.000  
G21  19542191.461 4 102694904.196 2       983.128          36.000  
G 1  20486277.640 9 107656119.10534      3245.894          29.000  
G27  22185111.200 9                     -2886.229          23.000  
J 2  37487019.573 9                      1279.324          11.000  
G 4  22647295.709 9 119012379.97624     -2701.272          27.000  
G16  23253286.065 9                     -1561.810          22.000  
E 1  24331022.871 9 127860390.982 3      1490.937          33.000  
E13  24275655.123 9                     -1640.021          16.000  
E18  18776064.786 1  98668876.494 1      2731.709          36.000  
E26  21981550.482 2 115513821.503 1      1117.736          34.000  
E21  23622963.678 9                       193.496          23.000  
J 3  37605471.018 9                      -664.107          15.000  
> 2021  5 17  2 33 50.9970000  0 14                     
G 8  20035027.473 2 105284773.56821     -1756.244          37.000  
G 7  20017326.278 2 105191801.85521      2374.518          36.000  
G21  19542003.575 2 102693921.039 1       983.045          36.000  
G 1  20485660.369 8 107652872.90025      3246.846          28.000  
G27  22185669.978 9                     -2893.401          23.000  
J 2  37486778.729 9                      1279.324          11.000  
G 4  22647804.871 8 119015081.65824     -2701.527          28.000  
G16  23253587.692 9                     -1551.781          24.000  
E 1  24330735.165 9 127858899.741 2      1491.458          34.000  
E13  24275968.224 9                     -1640.021          13.000  
E18  18775544.883 1  98666144.862 1      2731.043          36.000  
E26  21981337.515 2 115512703.618 2      1117.544          34.000  
E21  23622926.771 9                       196.675          23.000  
J 3  37605598.863 9                      -664.107          13.000  
> 2021  5 17  2 33 51.9970000  0 13                     
G 8  20035359.053 2 105286530.26621     -1756.451          37.000  
G 7  20016875.390 2 105189428.00121      2374.182          36.000  
G21  19541816.513 2 102692938.663 1       982.041          36.000  
G 1  20485041.502 8 107649627.25925      3246.215          27.000  
G27  22186228.752 9                     -2925.980          25.000  
J 2  37486532.193 9                      1279.324          12.000  
G 4  22648312.838 8 119017783.46923     -2702.021          28.000  
G16  23253887.635 9                     -1549.165          24.000  
E 1  24330452.668 8 127857408.618 1      1491.640          34.000  
E13  24276280.805 9                     -1635.162          12.000  
E18  18775025.303 1  98663414.096 1      2730.583          36.000  
E26  21981124.941 2 115511586.298 2      1117.259          34.000  
E21  23622890.767 9                       188.673          23.000  
> 2021  5 17  2 33 52.9970000  0 12                     
G 8  20035695.655 2 105288286.42721     -1756.024          38.000  
G 7  20016424.158 2 105187053.86021      2373.901          36.000  
G21  19541629.538 2 102691956.137 1       982.120          36.000  
G 1  20484421.805 8                      3245.440          25.000  
G27  22186788.393 9                     -2895.930          25.000  
J 2  37486289.395 9                      1279.324          11.000  
G 4  22648821.818 4 119020484.36123     -2700.525          28.000  
G16  23254189.114 9                     -1552.488          25.000  
E 1  24330168.290 8 127855916.690 2      1492.427          34.000  
E18  18774505.365 1  98660683.320 1      2730.251          36.000  
E26  21980911.931 2 115510468.663 1      1117.567          34.000  
E21  23622852.407 9                       195.226          24.000  
> 2021  5 17  2 33 53.9970000  0 11                     
G 8  20036029.783 2 105290043.08821     -1756.976          38.000  
G 7  20015972.721 2 105184680.36721      2372.778          37.000  
G21  19541442.855 2 102690974.465 1       981.424          36.000  
G 1  20483799.796 9                      3242.546          22.000  
G27  22187343.450 9                     -2897.816          25.000  
G 4  22649331.787 4 119023185.60523     -2701.840          28.000  
G16  23254493.660 9                     -1556.782          25.000  
E 1  24329891.067 4 127854424.982 2      1491.230          34.000  
E18  18773986.378 2  98657953.548 1      2728.956          36.000  
E26  21980699.221 2 115509351.739 1      1116.411          34.000  
E21  23622812.302 9                       194.769          25.000  
> 2021  5 17  2 33 54.9970000  0 12                     
G 8  20036363.231 2 105291800.053 1     -1756.952          38.000  
G 7  20015521.210 2 105182307.38721      2372.357          36.000  
G21  19541256.413 2 102689993.518 1       980.570          36.000  
G 1  20483179.389 9                      3243.837          20.000  
G27  22187897.917 9                     -2897.196          26.000  
G 4  22649843.174 4 119025886.79923     -2701.393          28.000  
G16  23254793.341 8                     -1555.605          26.000  
G 9  21970729.408 9                     -1854.687          25.000  
E 1  24329605.582 4 127852933.303 1      1491.281          34.000  
E18  18773467.317 1  98655224.629 1      2728.074          37.000  
E26  21980486.966 2 115508235.339 2      1115.904          34.000  
E21  23622775.556 9                       203.825          25.000  
> 2021  5 17  2 33 55.9970000  0 11                     
G 8  20036697.481 1 105293557.142 1     -1756.476          38.000  
G 7  20015069.821 2 105179934.69221      2372.949          36.000  
G21  19541070.123 2 102689013.062 1       980.954          36.000  
G27  22188450.570 9                     -2894.772          26.000  
G 4  22650353.698 4 119028587.81523     -2700.146          28.000  
G16  23255091.936 9                     -1555.800          26.000  
G 9  21971081.584 9                     -1854.230          26.000  
E 1  24329322.814 4 127851441.397 1      1492.668          34.000  
E18  18772948.121 2  98652496.297 1      2728.537          36.000  
E26  21980274.444 2 115507119.259 2      1116.315          34.000  
E21  23622739.495 9                       192.232          25.000  
> 2021  5 17  2 33 56.9970000  0 11                     
G 8  20037031.661 1 105295313.509 1     -1756.476          38.000  
G 7  20014618.305 2 105177561.46621      2373.279          36.000  
G21  19540883.227 2 102688032.287 1       980.387          36.000  
G27  22189003.384 9                     -2895.598          26.000  
G 4  22650866.800 4 119031287.89724     -2699.963          28.000  
G16  23255389.087 9                     -1556.731          26.000  
G 9  21971434.196 9                     -1853.491          26.000  
E 1  24329036.046 2 127849948.544 1      1492.667          34.000  
E18  18772429.060 2  98649767.788 1      2728.166          37.000  
E26  21980061.638 2 115506002.681 1      1116.155          34.000  
E21  23622704.464 9                       194.165          26.000  
> 2021  5 17  2 33 57.9970000  0 12                     
G 8  20037366.300 1 105297070.927 1     -1758.014          38.000  
G 7  20014167.042 2 105175189.52221      2371.362          36.000  
G21  19540697.173 2 102687052.983 1       978.524          36.000  
G27  22189556.342 8 116606905.42735     -2896.764          26.000  
G 4  22651382.266 4 119033988.77824     -2701.179          27.000  
G16  23255685.497 9                     -1556.183          26.000  
G 9  21971789.570 9                     -1854.912          25.000  
E 1  24328753.291 2 127848456.443 1      1492.200          34.000  
E18  18771910.300 1  98647040.864 1      2726.105          36.000  
E26  21979849.679 2 115504887.354 1      1114.785          34.000  
E21  23622667.731 9                       193.613          25.000  
J 3  37606474.061 9                      -659.929          13.000  
> 2021  5 17  2 33 58.9970000  0 12                     
G 8  20037701.134 1 105298829.004 1     -1758.221          38.000  
G 7  20013716.120 2 105172818.41821      2371.344          37.000  
G21  19540511.140 2 102686074.675 1       978.466          36.000  
G27  22190109.663 4 116609802.57524     -2896.973          27.000  
G 4  22651896.768 4 119036690.04524     -2701.308          27.000  
G16  23255981.164 9                     -1555.896          25.000  
G 9  21972139.769 9                     -1855.242          24.000  
E 1  24328469.337 2 127846964.779 1      1491.714          34.000  
E18  18771391.679 1  98644315.101 1      2725.379          37.000  
E26  21979638.008 2 115503772.939 1      1114.101          34.000  
E21  23622633.721 9                       191.456          26.000  
J 3  37606599.000 9                      -659.929          13.000  
> 2021  5 17  2 33 59.9970000  0 12                     
G 8  20038035.633 1 105300586.356 1     -1757.147          39.000  
G 7  20013264.770 1 105170446.81421      2371.759          37.000  
G21  19540325.012 2 102685096.114 1       978.637          37.000  
G 1  20480092.310 9                      3242.926          22.000  
G27  22190659.161 4 116612698.80524     -2896.125          27.000  
G 4  22652412.501 4 119039390.36223     -2700.250          28.000  
G16  23256276.295 9                     -1556.041          25.000  
E 1  24328184.929 2 127845472.087 1      1492.770          34.000  
E18  18770873.107 1  98641589.158 1      2725.963          37.000  
E26  21979425.840 2 115502657.976 1      1115.280          34.000  
E21  23622598.039 9                       193.999          26.000  
J 3  37606724.406 9                      -659.929          13.000  
> 2021  5 17  2 34  0.9970000  0 11                     
G 8  20038370.202 1 105302344.232 1     -1758.325          39.000  
G 7  20012813.717 2 105168075.90321      2370.447          37.000  
G21  19540139.150 2 102684118.439 1       977.079          37.000  
G 1  20479474.223 9                      3244.352          22.000  
G 4  22652924.255 4 119042090.86523     -2700.653          28.000  
G16  23256572.221 9                     -1556.068          25.000  
E 1  24327900.970 2 127843979.623 1      1492.101          34.000  
E18  18770354.669 1  98638864.260 1      2724.172          37.000  
E26  21979214.051 2 115501543.764 1      1114.050          34.000  
E21  23622562.790 9                       191.671          26.000  
J 3  37606850.842 9                      -660.450          13.000  
> 2021  5 17  2 34  1.9970000  0 12                     
G 8  20038704.840 1 105304102.373 1     -1758.386          39.000  
G 7  20012362.550 2 105165705.42821      2370.276          37.000  
G21  19539953.034 2 102683141.395 1       976.910          37.000  
G 1  20478857.109 9                      3236.281          23.000  
G27  22191754.717 9                     -2870.325          27.000  
G 4  22653432.981 4 119044791.39723     -2700.741          28.000  
G16  23256867.321 9                     -1556.184          24.000  
E 1  24327616.929 2 127842487.115 1      1492.868          34.000  
E18  18769836.245 1  98636140.092 1      2723.939          37.000  
E26  21979002.074 2 115500430.022 2      1113.675          34.000  
E21  23622528.247 8 124137233.85915       192.536          27.000  
J 3  37606977.914 9                      -660.450          14.000  
> 2021  5 17  2 34  2.9970000  0 12                     
G 8  20039039.409 1 105305860.856 1     -1758.502          39.000  
G 7  20011911.636 2 105163335.54121      2369.550          37.000  
G21  19539767.320 2 102682165.126 1       975.927          36.000  
G 1  20478240.179 9                      3238.534          23.000  
G27  22192309.132 9                     -2897.184          27.000  
G 4  22653945.555 4 119047491.94423     -2700.039          28.000  
G16  23257162.871 9                     -1556.401          23.000  
E 1  24327332.870 2 127840994.711 1      1492.956          34.000  
E18  18769317.856 1  98633416.844 1      2723.032          37.000  
E26  21978790.329 2 115499316.866 2      1113.235          34.000  
E21  23622491.763 8 124137041.287 4       192.555          27.000  
J 3  37607104.585 9                      -665.099          15.000  
> 2021  5 17  2 34  3.9970000  0 12                     
G 8  20039373.768 1 105307618.509 1     -1757.422          38.000  
G 7  20011460.500 2 105160964.97421      2370.679          37.000  
G21  19539581.371 2 102681188.414 1       976.392          36.000  
G 1  20477624.492 9                      3245.646          23.000  
G27  22192868.590 9 116624266.34235     -2894.626          27.000  
G 4  22654457.706 4 119050191.50524     -2699.959          27.000  
G16  23257457.640 9                     -1549.489          23.000  
E 1  24327048.357 2 127839501.214 1      1493.971          34.000  
E18  18768799.593 1  98630693.280 1      2723.448          37.000  
E26  21978578.462 2 115498203.071 2      1114.035          34.000  
E21  23622456.749 4 124136847.651 4       194.245          27.000  
J 3  37607230.196 9                      -665.099          14.000  
> 2021  5 17  2 34  4.9970000  0 13                     
G 8  20039708.385 1 105309376.537 1     -1758.398          39.000  
G 7  20011009.404 2 105158595.02921      2368.781          37.000  
G21  19539395.766 2 102680212.454 1       974.776          36.000  
G 1  20477006.003 9                      3252.307          22.000  
G27  22193423.132 9 116627162.07925     -2896.150          27.000  
G 4  22654971.287 4 119052891.08724     -2700.060          28.000  
G16  23257754.106 9                     -1555.178          22.000  
G 9  21974251.891 9                     -1857.259          15.000  
E 1  24326764.071 2 127838007.793 1      1492.786          34.000  
E18  18768281.570 1  98627970.615 1      2721.601          37.000  
E26  21978366.899 2 115497089.887 2      1112.356          34.000  
E21  23622421.648 4 124136654.337 3       192.892          27.000  
J 3  37607356.671 9                      -657.770          15.000  
> 2021  5 17  2 34  5.9970000  0 12                     
G 8  20040043.102 1 105311135.761 1     -1759.894          38.000  
G 7  20010558.725 2 105156226.38921      2368.237          37.000  
G21  19539210.379 2 102679238.037 1       973.943          36.000  
G27  22193972.591 8 116630058.63524     -2896.519          27.000  
G 4  22655484.878 4 119055591.55024     -2700.224          28.000  
G16  23258049.861 9                     -1556.781          22.000  
G 9  21974605.594 9                     -1857.259          18.000  
E 1  24326479.934 2 127836515.234 2      1492.546          34.000  
E18  18767764.023 1  98625249.604 1      2720.440          37.000  
E26  21978155.416 2 115495978.059 1      1111.415          34.000  
E21  23622385.535 4 124136462.011 4       192.189          27.000  
J 3  37607482.823 9                      -662.575          16.000  
> 2021  5 17  2 34  6.9970000  0 12                     
G 8  20040377.867 1 105312895.031 1     -1758.472          38.000  
G 7  20010108.130 2 105153858.042 1      2369.037          37.000  
G21  19539024.993 2 102678264.083 1       974.870          36.000  
G27  22194520.864 8 116632955.12224     -2895.823          27.000  
G 4  22655998.451 4 119058291.91824     -2699.485          28.000  
G16  23258351.222 9                     -1558.015          21.000  
G 9  21974959.807 9                     -1857.259          20.000  
E 1  24326195.980 2 127835022.520 1      1493.395          34.000  
E18  18767246.751 1  98622529.220 1      2720.750          37.000  
E26  21977943.509 2 115494866.492 2      1112.756          34.000  
E21  23622350.080 4 124136269.621 3       193.236          27.000  
J 3  37607608.443 9                      -660.300          17.000  
> 2021  5 17  2 34  7.9970000  0 12                     
G 8  20040712.645 1 105314653.474 1     -1758.990          38.000  
G 7  20009657.055 2 105151489.028 1      2368.713          36.000  
G21  19538839.553 2 102677289.712 1       973.775          36.000  
G27  22195073.181 8 116635850.44024     -2895.065          27.000  
G 4  22656514.284 4 119060991.06924     -2699.337          28.000  
G16  23258649.652 9                     -1566.576          20.000  
G 9  21975314.784 9                     -1857.259          21.000  
E 1  24325911.825 2 127833528.620 1      1494.184          34.000  
E18  18766728.937 1  98619808.481 1      2720.361          37.000  
E26  21977731.659 2 115493754.356 1      1111.694          34.000  
E21  23622313.849 4 124136076.246 4       192.980          27.000  
J 3  37607735.297 9                      -658.156          16.000  
> 2021  5 17  2 34  8.9970000  0 12                     
G 8  20041047.078 2 105316412.914 1     -1760.309          38.000  
G 7  20009206.416 2 105149121.263 1      2367.023          36.000  
G21  19538654.594 2 102676316.730 1       972.253          36.000  
G27  22195624.416 4 116638746.66424     -2896.828          27.000  
G 4  22657028.899 4 119063691.00924     -2700.355          28.000  
G16  23258951.710 9                     -1553.485          20.000  
G 9  21975669.194 9                     -1857.259          23.000  
E 1  24325627.757 2 127832035.495 1      1492.619          34.000  
E18  18766211.722 1  98617089.302 1      2717.949          37.000  
E26  21977520.542 4 115492643.405 2      1109.952          34.000  
E21  23622276.955 4 124135883.734 4       191.756          27.000  
J 3  37607860.442 9                      -661.106          17.000  
> 2021  5 17  2 34  9.9970000  0 12                     
G 8  20041381.935 2 105318173.319 1     -1760.583          38.000  
G 7  20008756.031 2 105146754.613 1      2366.284          36.000  
G21  19538469.447 2 102675345.076 2       971.245          36.000  
G27  22196173.845 4 116641643.43424     -2896.948          27.000  
G 4  22657541.015 4 119066391.64223     -2700.462          28.000  
G16  23259253.084 9                     -1547.671          19.000  
G 9  21976022.364 9                     -1857.259          24.000  
E 1  24325344.021 2 127830543.026 1      1492.605          34.000  
E18  18765694.227 1  98614371.584 1      2717.189          37.000  
E26  21977309.578 2 115491533.595 1      1110.038          34.000  
E21  23622241.588 4 124135691.981 4       191.891          27.000  
J 3  37607986.227 9                      -661.106          16.000  
> 2021  5 17  2 34 10.9970000  0 12                     
G 8  20041716.499 2 105319933.718 1     -1760.400          38.000  
G 7  20008305.444 2 105144388.157 1      2366.937          36.000  
G21  19538284.549 2 102674373.836 1       970.652          36.000  
G27  22196727.130 4 116644540.01924     -2895.879          27.000  
G 4  22658053.127 2 119069091.97623     -2700.319          28.000  
G16  23259552.779 9                     -1559.679          18.000  
G 9  21976375.535 9                     -1857.958          25.000  
E 1  24325059.983 2 127829050.294 1      1492.522          34.000  
E18  18765177.399 1  98611654.365 1      2716.968          37.000  
E26  21977098.670 2 115490424.055 1      1109.402          34.000  
E21  23622206.893 4 124135500.138 4       192.307          26.000  
J 3  37608111.812 9                      -661.198          16.000  
> 2021  5 17  2 34 11.9970000  0 12                     
G 8  20042051.330 2 105321693.938 1     -1759.943          37.000  
G 7  20007855.076 2 105142021.728 1      2366.339          35.000  
G21  19538099.664 2 102673402.762 1       970.895          35.000  
G27  22197276.799 4                     -2895.927          26.000  
G 4  22658563.301 4 119071791.82224     -2698.977          27.000  
G16  23259852.264 9                     -1557.944          16.000  
G 9  21976725.604 9                     -1857.286          25.000  
E 1  24324775.462 2 127827557.027 2      1493.794          33.000  
E18  18764660.122 1  98608937.481 1      2716.737          37.000  
E26  21976887.261 2 115489314.493 2      1109.877          33.000  
E21  23622168.254 4 124135307.995 5       192.661          25.000  
J 3  37608238.034 9                      -665.387          16.000  
> 2021  5 17  2 34 12.9970000  0 12                     
G 8  20042386.112 1 105323453.636 1     -1760.150          37.000  
G 7  20007404.568 2 105139654.953 1      2366.235          35.000  
G21  19537914.605 2 102672431.575 1       970.533          36.000  
G27  22197828.553 9                     -2895.098          26.000  
