$GNDTM,W84,,0.0,N,0.0,E,0.0,W84*71
$GNRMC,023255.00,A,2218.07395,N,11410.74198,E,0.064,,170521,,,D,V*17
$GNVTG,,T,,M,0.064,N,0.119,K,D*33
$GNGNS,023255.00,2218.07395,N,11410.74198,E,DDDD,28,0.62,9.0,-1.6,,0000,V*0B
$GNGGA,023255.00,2218.07395,N,11410.74198,E,2,12,0.62,9.0,M,-1.6,M,,0000*51
$GNGSA,A,3,16,09,01,07,21,27,04,08,30,,,,1.23,0.62,1.06,1*03
$GNGSA,A,3,73,79,84,80,82,83,,,,,,,1.23,0.62,1.06,2*0E
$GNGSA,A,3,21,13,04,01,33,,,,,,,,1.23,0.62,1.06,3*04
$GNGSA,A,3,16,10,06,27,07,30,09,08,37,,,,1.23,0.62,1.06,4*03
$GPGSV,3,1,10,01,41,170,27,04,21,197,18,07,55,321,10,08,55,010,27,1*6B
$GPGSV,3,2,10,09,29,234,33,16,17,076,13,21,60,135,24,27,25,036,21,1*61
$GPGSV,3,3,10,30,17,320,09,41,46,238,40,1*62
$GPGSV,1,1,04,01,41,170,20,08,55,010,22,09,29,234,29,27,25,036,20,6*67
$GPGSV,2,1,07,03,00,177,,14,03,291,,17,05,234,,22,07,152,,0*68
$GPGSV,2,2,07,22,07,152,,26,02,096,,40,20,257,,0*5C
$GLGSV,2,1,06,73,38,348,13,79,13,116,26,80,53,065,11,82,26,026,19,1*7E
$GLGSV,2,2,06,83,74,029,26,84,39,204,11,1*79
$GLGSV,2,1,06,73,38,348,22,79,13,116,19,80,53,065,08,82,26,026,11,3*72
$GLGSV,2,2,06,83,74,029,30,84,39,204,10,3*7D
$GLGSV,1,1,01,71,02,267,,0*4F
$GAGSV,1,1,04,13,36,047,25,18,74,324,16,21,50,052,25,26,69,138,21,2*7D
$GAGSV,3,1,09,01,41,335,21,04,16,275,15,13,36,047,31,18,74,324,21,7*77
$GAGSV,3,2,09,19,20,217,10,21,50,052,24,26,69,138,22,27,14,098,16,7*74
$GAGSV,3,3,09,33,29,196,08,7*47
$GAGSV,1,1,01,31,01,301,,0*44
$GBGSV,2,1,07,06,35,189,19,07,56,011,26,09,50,220,18,10,50,325,15,1*7B
$GBGSV,2,2,07,27,71,026,38,30,50,229,37,37,51,106,27,1*44
$GBGSV,1,1,04,07,56,011,26,08,35,158,21,09,50,220,22,16,37,195,18,3*7A
$GBGSV,3,1,10,01,47,123,,02,46,235,,03,62,189,,04,33,110,,0*71
$GBGSV,3,2,10,04,33,110,,05,23,254,,13,22,180,,20,01,208,,0*76
$GBGSV,3,3,10,20,01,208,,23,04,127,,0*7E
$GNGLL,2218.07395,N,11410.74198,E,023255.00,A,D*76
$GNGRS,023255.00,1,-22.2,1.3,5.1,2.2,-4.6,6.9,-59.8,1.8,13.7,,,,1,1*61
$GNGRS,023255.00,1,0.0,,,,,,0.0,,,,,,1,5*57
$GNGRS,023255.00,1,,6.6,-7.6,,,12.9,,-2.9,,,,,1,6*64
$GNGRS,023255.00,1,-84.4,-23.2,7.3,7.1,-40.5,-4.1,,,,,,,2,1*6D
$GNGRS,023255.00,1,-16.3,-8.5,-7.3,-8.7,-42.4,-2.4,,,,,,,2,3*54
$GNGRS,023255.00,1,1.0,0.4,0.0,0.0,0.0,,,,,,,,3,2*79
$GNGRS,023255.00,1,-6.2,-1.1,-112,-96.6,9.8,,,,,,,,3,7*59
$GNGRS,023255.00,1,,-89.5,-69.7,2.0,-2.6,2.3,-6.0,,-3.1,,,,4,1*5A
$GNGRS,023255.00,1,-11.2,,0.0,0.0,3.1,0.0,0.7,-0.4,0.0,,,,4,3*67
$GNGST,023255.00,247828,12,5.5,134,3.6,3.7,6.5*50
$GNZDA,023255.00,17,05,2021,00,00*79
$GNGBS,023255.00,3.6,3.7,6.5,17,,96.4,67.4,1,7*50
$GNVLW,,N,,N,0.000,N,0.000,N*44
$PUBX,00,023255.00,2218.07395,N,11410.74198,E,7.380,D3,5.2,6.5,0.119,227.46,0.015,,0.62,1.06,0.76,28,0,0*5F
$PUBX,03,32,1,U,170,41,27,000,3,-,177,00,,000,4,U,197,21,18,000,7,U,321,55,10,000,8,U,010,55,27,021,9,U,234,29,33,042,14,-,291,03,,000,16,U,076,17,13,000,17,-,234,05,,000,21,U,135,60,24,000,22,-,152,07,,000,26,-,096,02,,000,27,U,036,25,21,000,30,U,320,17,09,000,127,-,257,20,,000,128,-,238,46,40,052,132,-,225,55,,000,137,-,149,60,,000,211,e,335,41,21,000,214,e,275,16,15,000,223,U,047,36,31,051,228,e,324,74,,000,229,e,217,20,,000,231,U,052,50,24,000,236,e,138,69,,000,237,e,098,14,,000,241,-,301,01,,000,243,U,196,29,08,000,159,-,123,47,,000,160,-,235,46,,000,161,-,189,62,,000,162,-,110,33,,000*14
$PUBX,04,023255.00,170521,95575.00,2158,18,915474,330.332,08*26
$GNRMC,023256.00,A,2218.07403,N,11410.74192,E,0.119,,170521,,,D,V*1D
$GNVTG,,T,,M,0.119,N,0.220,K,D*31
$GNGNS,023256.00,2218.07403,N,11410.74192,E,DDDD,29,0.73,8.9,-1.6,,0000,V*03
$GNGGA,023256.00,2218.07403,N,11410.74192,E,2,12,0.73,8.9,M,-1.6,M,,0000*58
$GNGSA,A,3,16,09,01,07,21,27,04,08,,,,,1.38,0.73,1.17,1*0A
$GNGSA,A,3,73,79,84,80,82,83,,,,,,,1.38,0.73,1.17,2*04
$GNGSA,A,3,21,13,04,01,33,19,,,,,,,1.38,0.73,1.17,3*06
$GNGSA,A,3,16,10,06,27,07,30,09,08,37,,,,1.38,0.73,1.17,4*09
$GPGSV,3,1,10,01,41,170,28,04,21,197,18,07,55,321,13,08,55,010,27,1*67
$GPGSV,3,2,10,09,29,234,33,16,17,076,13,21,60,135,24,27,25,036,22,1*62
$GPGSV,3,3,10,30,17,320,07,41,46,238,40,1*6C
$GPGSV,1,1,04,01,41,170,19,08,55,010,22,09,29,234,29,27,25,036,20,6*6D
$GPGSV,2,1,07,03,00,177,,14,03,291,,17,05,234,,22,07,152,,0*68
$GPGSV,2,2,07,22,07,152,,26,02,096,,40,20,257,,0*5C
$GLGSV,2,1,06,73,38,348,12,79,13,116,26,80,53,065,09,82,26,026,19,1*76
$GLGSV,2,2,06,83,74,029,26,84,39,204,11,1*79
$GLGSV,2,1,06,73,38,348,24,79,13,116,17,80,53,065,10,82,26,026,12,3*70
$GLGSV,2,2,06,83,74,029,30,84,39,204,09,3*75
$GLGSV,1,1,02,71,02,267,,74,00,321,,0*7F
$GAGSV,1,1,04,13,36,047,25,18,74,324,16,21,50,052,25,26,69,138,21,2*7D
$GAGSV,3,1,09,01,41,335,20,04,16,275,17,13,36,047,31,18,74,324,22,7*77
$GAGSV,3,2,09,19,20,217,09,21,50,052,24,26,69,138,22,27,14,098,17,7*7D
$GAGSV,3,3,09,33,29,196,11,7*4F
$GAGSV,1,1,01,31,01,301,,0*44
$GBGSV,2,1,07,06,35,189,18,07,56,011,25,09,50,220,18,10,50,325,15,1*79
$GBGSV,2,2,07,27,71,026,37,30,50,229,37,37,51,106,27,1*4B
$GBGSV,1,1,04,07,56,011,25,08,35,158,21,09,50,220,22,16,37,195,19,3*78
$GBGSV,3,1,10,01,47,123,,02,46,235,,03,62,189,,04,33,110,,0*71
$GBGSV,3,2,10,04,33,110,,05,23,254,,13,22,180,,20,01,208,,0*76
$GBGSV,3,3,10,20,01,208,,23,04,127,,0*7E
$GNGLL,2218.07403,N,11410.74192,E,023256.00,A,D*77
$GNGRS,023256.00,1,-23.0,1.5,3.5,2.0,-4.1,4.4,-59.0,2.9,,,,,1,1*7E
$GNGRS,023256.00,1,0.0,,,0.0,0.0,,,,,,,,1,5*7A
$GNGRS,023256.00,1,,6.5,-9.1,,,14.6,,-2.5,,,,,1,6*68
$GNGRS,023256.00,1,-83.4,-22.2,7.3,7.0,-40.0,-3.5,,,,,,,2,1*6F
$GNGRS,023256.00,1,-21.8,-13.0,-7.8,-8.4,-43.2,-2.4,,,,,,,2,3*68
$GNGRS,023256.00,1,1.5,0.1,,0.0,0.0,0.0,,,,,,,3,2*7A
$GNGRS,023256.00,1,-7.9,-1.7,-109,-97.6,9.7,12.3,,,,,,,3,7*4C
$GNGRS,023256.00,1,,-89.2,-71.4,2.0,-3.6,2.3,-4.8,,-3.7,,,,4,1*59
$GNGRS,023256.00,1,-11.0,,,,2.9,,2.2,0.2,,,,,4,3*43
$GNGST,023256.00,372962,12,5.5,134,3.6,3.7,6.5*5B
$GNZDA,023256.00,17,05,2021,00,00*7A
$GNGBS,023256.00,3.6,3.7,6.5,,,,,,*5D
$GNVLW,,N,,N,0.000,N,0.000,N*44
$PUBX,00,023256.00,2218.07403,N,11410.74192,E,7.259,D3,5.2,6.5,0.220,227.46,0.019,,0.73,1.17,0.88,29,0,0*5E
$PUBX,03,32,1,U,170,41,28,001,3,-,177,00,,000,4,U,197,21,18,000,7,U,321,55,13,000,8,U,010,55,27,022,9,U,234,29,33,043,14,-,291,03,,000,16,e,076,17,13,000,17,-,234,05,,000,21,U,135,60,24,000,22,-,152,07,,000,26,-,096,02,,000,27,U,036,25,22,000,30,e,320,17,,000,127,-,257,20,,000,128,-,238,46,40,053,132,-,225,55,,000,137,-,149,60,,000,211,U,335,41,20,000,214,U,275,16,17,000,223,U,047,36,31,052,228,e,324,74,,000,229,U,217,20,09,000,231,U,052,50,24,000,236,e,138,69,,000,237,e,098,14,,000,241,-,301,01,,000,243,U,196,29,11,000,159,-,123,47,,000,160,-,235,46,,000,161,-,189,62,,000,162,-,110,33,,000*21
$PUBX,04,023256.00,170521,95576.00,2158,18,915804,330.344,08*2C
$GNRMC,023257.00,A,2218.07410,N,11410.74185,E,0.084,,170521,,,D,V*1D
$GNVTG,,T,,M,0.084,N,0.156,K,D*36
$GNGNS,023257.00,2218.07410,N,11410.74185,E,DDDD,28,0.82,8.8,-1.6,,0000,V*08
$GNGGA,023257.00,2218.07410,N,11410.74185,E,2,12,0.82,8.8,M,-1.6,M,,0000*52
$GNGSA,A,3,16,09,01,07,21,27,04,08,30,,,,1.51,0.82,1.27,1*0B
$GNGSA,A,3,73,79,84,80,82,83,,,,,,,1.51,0.82,1.27,2*06
$GNGSA,A,3,21,13,04,01,33,,,,,,,,1.51,0.82,1.27,3*0C
$GNGSA,A,3,16,10,06,27,07,30,09,08,37,,,,1.51,0.82,1.27,4*0B
$GPGSV,3,1,10,01,41,170,28,04,21,197,16,07,55,321,09,08,55,010,27,1*62
$GPGSV,3,2,10,09,29,234,33,16,17,076,12,21,60,135,24,27,25,036,22,1*63
$GPGSV,3,3,10,30,17,320,07,41,46,238,40,1*6C
$GPGSV,1,1,04,01,41,170,19,08,55,010,21,09,29,234,29,27,25,036,21,6*6F
$GPGSV,2,1,07,03,00,177,,14,03,291,,17,05,234,,22,07,152,,0*68
$GPGSV,2,2,07,22,07,152,,26,02,096,,40,20,257,,0*5C
$GLGSV,2,1,06,73,38,348,10,79,13,116,27,80,53,065,10,82,26,026,18,1*7C
$GLGSV,2,2,06,83,74,029,27,84,39,204,09,1*71
$GLGSV,2,1,06,73,38,348,24,79,13,116,12,80,53,065,15,82,26,026,07,3*74
$GLGSV,2,2,06,83,74,029,30,84,39,204,12,3*7F
$GLGSV,1,1,02,71,02,267,,74,00,321,,0*7F
$GAGSV,1,1,04,13,36,047,25,18,74,324,16,21,50,052,25,26,69,138,21,2*7D
$GAGSV,3,1,09,01,41,335,19,04,16,275,18,13,36,047,31,18,74,324,22,7*72
$GAGSV,3,2,09,19,20,217,08,21,50,052,24,26,69,138,22,27,14,098,16,7*7D
$GAGSV,3,3,09,33,29,196,10,7*4E
$GAGSV,1,1,01,31,01,301,,0*44
$GBGSV,2,1,07,06,35,189,19,07,56,011,25,09,50,220,17,10,50,325,14,1*76
$GBGSV,2,2,07,27,71,026,37,30,50,229,37,37,51,106,28,1*44
$GBGSV,1,1,04,07,56,011,25,08,35,158,21,09,50,220,22,16,37,195,19,3*78
$GBGSV,3,1,10,01,47,123,,02,46,235,,03,62,189,,04,33,110,,0*71
$GBGSV,3,2,10,04,33,110,,05,23,254,,13,22,180,,20,01,208,,0*76
$GBGSV,3,3,10,20,01,208,,23,04,127,,0*7E
$GNGLL,2218.07410,N,11410.74185,E,023257.00,A,D*72
$GNGRS,023257.00,1,-23.5,1.7,1.2,38.3,-2.0,2.8,-58.8,3.9,-134,,,,1,1*59
$GNGRS,023257.00,1,,,,0.0,0.0,,0.0,,0.0,,,,1,5*55
$GNGRS,023257.00,1,,6.4,-8.6,,,16.2,,-1.9,,,,,1,6*67
$GNGRS,023257.00,1,-82.8,-24.5,-103,6.9,-39.3,-1.3,,,,,,,2,1*56
$GNGRS,023257.00,1,-25.7,-15.6,-8.1,-8.5,-43.3,-2.4,,,,,,,2,3*64
$GNGRS,023257.00,1,1.4,-0.2,0.0,,0.0,,,,,,,,3,2*7A
$GNGRS,023257.00,1,-7.5,-2.2,-105,-97.6,9.7,,,,,,,,3,7*55
$GNGRS,023257.00,1,,-91.2,-73.0,2.3,-4.8,2.2,-6.6,,-7.1,,,,4,1*52
$GNGRS,023257.00,1,-13.2,,0.0,0.0,3.3,0.0,2.8,1.2,0.0,,,,4,3*42
$GNGST,023257.00,199,12,5.5,134,3.6,3.7,6.5*60
$GNZDA,023257.00,17,05,2021,00,00*7B
$GNGBS,023257.00,3.6,3.7,6.5,16,,105.2,58.7,1,7*61
$GNVLW,,N,,N,0.000,N,0.000,N*44
$PUBX,00,023257.00,2218.07410,N,11410.74185,E,7.168,D3,5.2,6.5,0.156,227.46,0.020,,0.82,1.27,0.98,28,0,0*5F
$PUBX,03,32,1,U,170,41,28,003,3,-,177,00,,000,4,U,197,21,16,000,7,U,321,55,09,000,8,U,010,55,27,023,9,U,234,29,33,044,14,-,291,03,,000,16,e,076,17,12,000,17,-,234,05,,000,21,U,135,60,24,000,22,-,152,07,,000,26,-,096,02,,000,27,U,036,25,22,000,30,U,320,17,07,000,127,-,257,20,,000,128,-,238,46,40,054,132,-,225,55,,000,137,-,149,60,,000,211,e,335,41,19,000,214,e,275,16,18,000,223,U,047,36,31,053,228,e,324,74,,000,229,e,217,20,,000,231,U,052,50,24,000,236,e,138,69,,000,237,e,098,14,,000,241,-,301,01,,000,243,U,196,29,10,000,159,-,123,47,,000,160,-,235,46,,000,161,-,189,62,,000,162,-,110,33,,000*2D
$PUBX,04,023257.00,170521,95577.00,2158,18,916134,330.321,08*26
$GNRMC,023258.00,A,2218.07414,N,11410.74179,E,0.043,,170521,,,D,V*1E
$GNVTG,,T,,M,0.043,N,0.080,K,D*37
$GNGNS,023258.00,2218.07414,N,11410.74179,E,DDDD,28,0.70,8.7,-1.6,,0000,V*02
$GNGGA,023258.00,2218.07414,N,11410.74179,E,2,12,0.70,8.7,M,-1.6,M,,0000*58
$GNGSA,A,3,16,09,01,07,21,27,04,08,30,,,,1.39,0.70,1.20,1*0F
$GNGSA,A,3,73,79,84,80,82,83,,,,,,,1.39,0.70,1.20,2*02
$GNGSA,A,3,21,13,04,01,33,,,,,,,,1.39,0.70,1.20,3*08
$GNGSA,A,3,16,10,06,27,07,30,09,08,37,,,,1.39,0.70,1.20,4*0F
$GPGSV,3,1,10,01,41,170,28,04,21,197,16,07,55,321,09,08,55,010,26,1*63
$GPGSV,3,2,10,09,29,234,33,16,17,076,12,21,60,135,24,27,25,036,23,1*62
$GPGSV,3,3,10,30,17,320,10,41,46,238,40,1*6A
$GPGSV,1,1,04,01,41,170,19,08,55,010,21,09,29,234,29,27,25,036,21,6*6F
$GPGSV,2,1,07,03,00,177,,14,03,291,,17,05,234,,22,07,152,,0*68
$GPGSV,2,2,07,22,07,152,,26,02,096,,40,20,257,,0*5C
$GLGSV,2,1,06,73,38,348,09,79,13,116,27,80,53,065,11,82,26,026,17,1*7A
$GLGSV,2,2,06,83,74,029,27,84,39,204,11,1*78
$GLGSV,2,1,06,73,38,348,25,79,13,116,09,80,53,065,12,82,26,026,11,3*7F
$GLGSV,2,2,06,83,74,029,30,84,39,204,09,3*75
$GLGSV,1,1,02,71,02,267,,74,00,321,,0*7F
$GAGSV,1,1,04,13,36,047,25,18,74,324,16,21,50,052,25,26,69,138,21,2*7D
$GAGSV,3,1,09,01,41,335,19,04,16,275,19,13,36,047,30,18,74,324,22,7*72
$GAGSV,3,2,09,19,20,217,10,21,50,052,24,26,69,138,22,27,14,098,17,7*75
$GAGSV,3,3,09,33,29,196,11,7*4F
$GAGSV,1,1,01,31,01,301,,0*44
$GBGSV,2,1,07,06,35,189,19,07,56,011,25,09,50,220,17,10,50,325,13,1*71
$GBGSV,2,2,07,27,71,026,37,30,50,229,37,37,51,106,28,1*44
$GBGSV,1,1,04,07,56,011,25,08,35,158,22,09,50,220,22,16,37,195,18,3*7A
$GBGSV,3,1,10,01,47,123,,02,46,235,,03,62,189,,04,33,110,,0*71
$GBGSV,3,2,10,04,33,110,,05,23,254,,13,22,180,,20,01,208,,0*76
$GBGSV,3,3,10,20,01,208,,23,04,127,,0*7E
$GNGLL,2218.07414,N,11410.74179,E,023258.00,A,D*7A
$GNGRS,023258.00,1,-24.1,1.8,0.8,2.2,0.0,1.1,-58.7,4.2,13.6,,,,1,1*4E
$GNGRS,023258.00,1,0.0,,,,,,0.0,,,,,,1,5*5A
$GNGRS,023258.00,1,,6.3,-8.1,,,14.5,,0.4,,,,,1,6*4C
$GNGRS,023258.00,1,-84.5,-25.6,7.2,7.0,-39.3,-2.3,,,,,,,2,1*6F
$GNGRS,023258.00,1,-30.3,-20.1,65.0,28.0,-6.6,-2.5,,,,,,,2,3*52
$GNGRS,023258.00,1,1.8,0.0,0.0,0.0,,,,,,,,,3,2*56
$GNGRS,023258.00,1,-8.5,-2.2,-104,-96.8,9.7,,,,,,,,3,7*5B
$GNGRS,023258.00,1,,-92.0,-74.3,2.4,-3.6,1.9,-4.4,,-7.7,,,,4,1*58
$GNGRS,023258.00,1,-13.0,,0.0,0.0,4.4,0.0,2.2,1.7,0.0,,,,4,3*40
$GNGST,023258.00,224169,12,5.5,134,3.6,3.7,6.5*54
$GNZDA,023258.00,17,05,2021,00,00*74
$GNGBS,023258.00,3.6,3.7,6.5,,,,,,*53
$GNVLW,,N,,N,0.000,N,0.000,N*44
$PUBX,00,023258.00,2218.07414,N,11410.74179,E,7.057,D3,5.1,6.5,0.080,227.46,0.023,,0.70,1.20,0.85,28,0,0*56
$PUBX,03,32,1,U,170,41,28,004,3,-,177,00,,000,4,U,197,21,16,000,7,U,321,55,09,000,8,U,010,55,26,024,9,U,234,29,33,045,14,-,291,03,,000,16,U,076,17,12,000,17,-,234,05,,000,21,U,135,60,24,000,22,-,152,07,,000,26,-,096,02,,000,27,U,036,25,23,000,30,U,320,17,10,000,127,-,257,20,,000,128,-,238,46,40,055,132,-,225,55,,000,137,-,149,60,,000,211,U,335,41,19,000,214,e,275,16,19,000,223,U,047,36,30,054,228,e,324,74,,000,229,e,217,20,,000,231,U,052,50,24,000,236,e,138,69,,000,237,e,098,14,,000,241,-,301,01,,000,243,U,196,29,11,000,159,-,123,47,,000,160,-,235,46,,000,161,-,189,62,,000,162,-,110,33,,000*2D
$PUBX,04,023258.00,170521,95578.00,2158,18,916464,330.279,08*2A
$êxAžøq«] A@üô?
$GNRMC,023259.00,A,2218.07422,N,11410.74169,E,0.043,,170521,,,D,V*1B
$GNVTG,,T,,M,0.043,N,0.080,K,D*37
$GNGNS,023259.00,2218.07422,N,11410.74169,E,DDDD,29,0.62,8.7,-1.6,,0000,V*05
$GNGGA,023259.00,2218.07422,N,11410.74169,E,2,12,0.62,8.7,M,-1.6,M,,0000*5E
$GNGSA,A,3,09,01,07,21,27,04,08,30,,,,,1.15,0.62,0.97,1*08
$GNGSA,A,3,73,79,84,80,82,83,,,,,,,1.15,0.62,0.97,2*02
$GNGSA,A,3,21,13,19,04,01,33,,,,,,,1.15,0.62,0.97,3*00
$GNGSA,A,3,16,10,06,27,07,30,09,08,37,,,,1.15,0.62,0.97,4*0F
$GPGSV,3,1,10,01,41,170,28,04,21,197,14,07,55,321,11,08,55,010,26,1*68
$GPGSV,3,2,10,09,29,234,33,16,17,076,09,21,60,135,24,27,25,036,24,1*6F
$GPGSV,3,3,10,30,17,320,13,41,46,238,40,1*69
$GPGSV,1,1,04,01,41,170,20,08,55,010,21,09,29,234,29,27,25,036,21,6*65
$GPGSV,2,1,07,03,00,177,,14,03,291,,17,05,234,,22,07,152,,0*68
$GPGSV,2,2,07,22,07,152,,26,02,096,,40,20,257,,0*5C
$GLGSV,2,1,06,73,38,348,10,79,13,116,27,80,53,065,11,82,26,026,15,1*70
$GLGSV,2,2,06,83,74,029,26,84,39,204,12,1*7A
$GLGSV,2,1,06,73,38,348,25,79,13,116,09,80,53,065,13,82,26,026,07,3*79
$GLGSV,2,2,06,83,74,029,30,84,39,204,09,3*75
$GLGSV,1,1,02,71,02,267,,74,00,321,,0*7F
$GAGSV,1,1,04,13,36,047,25,18,74,324,15,21,50,052,25,26,69,138,21,2*7E
$GAGSV,3,1,09,01,41,335,20,04,16,275,19,13,36,047,31,18,74,324,22,7*79
$GAGSV,3,2,09,19,20,217,09,21,50,052,24,26,69,138,21,27,14,098,17,7*7E
$GAGSV,3,3,09,33,29,196,14,7*4A
$GAGSV,1,1,01,31,01,301,,0*44
$GBGSV,2,1,07,06,35,189,18,07,56,011,26,09,50,220,16,10,50,325,13,1*72
$GBGSV,2,2,07,27,71,026,37,30,50,229,37,37,51,106,29,1*45
$GBGSV,1,1,04,07,56,011,25,08,35,158,21,09,50,220,22,16,37,195,18,3*79
$GBGSV,3,1,10,01,47,123,,02,46,235,,03,62,189,,04,33,110,,0*71
$GBGSV,3,2,10,04,33,110,,05,23,254,,13,22,180,,20,01,208,,0*76
$GBGSV,3,3,10,20,01,208,,23,04,127,,0*7E
$GNGLL,2218.07422,N,11410.74169,E,023259.00,A,D*7F
$GNGRS,023259.00,1,1.9,-1.3,1.9,1.3,-1.6,-57.8,6.3,13.2,,,,,1,1*7A
$GNGRS,023259.00,1,,,0.0,0.0,,,,0.0,,,,,1,5*75
$GNGRS,023259.00,1,6.1,-7.3,,,14.7,,1.1,,,,,,1,6*44
$GNGRS,023259.00,1,-85.1,-23.6,7.0,6.7,-41.3,-0.6,,,,,,,2,1*61
$GNGRS,023259.00,1,-34.6,-18.6,-7.7,-8.4,-4.2,-2.6,,,,,,,2,3*5E
$GNGRS,023259.00,1,1.6,0.1,0.0,0.0,0.0,0.0,,,,,,,3,2*58
$GNGRS,023259.00,1,-9.1,-2.8,12.2,-104,-95.4,9.4,,,,,,,3,7*46
$GNGRS,023259.00,1,,-93.4,-74.9,2.4,-3.9,2.0,-3.1,,-9.5,,,,4,1*5D
$GNGRS,023259.00,1,-11.8,,,,3.7,,3.3,2.8,,,,,4,3*43
$GNGST,023259.00,420001,12,5.5,134,3.6,3.7,6.5*58
$GNZDA,023259.00,17,05,2021,00,00*75
$GNGBS,023259.00,3.6,3.7,6.5,16,,103.8,68.2,1,7*65
$GNVLW,,N,,N,0.000,N,0.000,N*44
$PUBX,00,023259.00,2218.07422,N,11410.74169,E,7.103,D3,5.1,6.5,0.080,227.46,0.021,,0.62,0.97,0.68,29,0,0*5D
$PUBX,03,32,1,U,170,41,28,005,3,-,177,00,,000,4,e,197,21,14,000,7,U,321,55,11,000,8,U,010,55,26,025,9,U,234,29,33,046,14,-,291,03,,000,16,e,076,17,,000,17,-,234,05,,000,21,U,135,60,24,000,22,-,152,07,,000,26,-,096,02,,000,27,U,036,25,24,000,30,U,320,17,13,000,127,-,257,20,,000,128,-,238,46,40,056,132,-,225,55,,000,137,-,149,60,,000,211,e,335,41,20,000,214,e,275,16,19,000,223,U,047,36,31,055,228,e,324,74,,000,229,U,217,20,09,000,231,U,052,50,24,000,236,e,138,69,,000,237,e,098,14,,000,241,-,301,01,,000,243,U,196,29,14,000,159,-,123,47,,000,160,-,235,46,,000,161,-,189,62,,000,162,-,110,33,,000*27
$PUBX,04,023259.00,170521,95579.00,2158,18,916794,330.091,08*22
$GNRMC,023300.00,A,2218.07432,N,11410.74157,E,0.041,,170521,,,D,V*18
$GNVTG,,T,,M,0.041,N,0.076,K,D*3C
$GNGNS,023300.00,2218.07432,N,11410.74157,E,DDDD,28,0.75,8.8,-1.6,,0000,V*0C
$GNGGA,023300.00,2218.07432,N,11410.74157,E,2,12,0.75,8.8,M,-1.6,M,,0000*56
$GNGSA,A,3,09,01,07,21,27,04,08,,,,,,1.31,0.75,1.08,1*0C
$GNGSA,A,3,73,79,84,80,82,83,,,,,,,1.31,0.75,1.08,2*05
$GNGSA,A,3,21,13,19,04,01,33,27,,,,,,1.31,0.75,1.08,3*02
$GNGSA,A,3,16,10,06,27,07,30,09,08,37,,,,1.31,0.75,1.08,4*08
$GPGSV,3,1,10,01,41,170,29,04,21,197,14,07,55,321,15,08,55,010,26,1*6D
$GPGSV,3,2,10,09,29,234,33,16,17,076,08,21,60,135,24,27,25,036,25,1*6F
$GPGSV,3,3,10,30,17,320,06,41,46,238,41,1*6C
$GPGSV,1,1,04,01,41,170,19,08,55,010,21,09,29,234,29,27,25,036,22,6*6C
$GPGSV,2,1,07,03,00,177,,14,03,291,,17,05,234,,22,07,152,,0*68
$GPGSV,2,2,07,22,07,152,,26,02,096,,40,20,257,,0*5C
$GLGSV,2,1,06,73,38,348,09,79,13,116,27,80,53,065,11,82,26,026,15,1*78
$GLGSV,2,2,06,83,74,029,27,84,39,204,11,1*78
$GLGSV,2,1,06,73,38,348,25,79,13,116,12,80,53,065,10,82,26,026,09,3*7E
$GLGSV,2,2,06,83,74,029,30,84,39,204,08,3*74
$GLGSV,1,1,02,71,02,267,,74,00,321,,0*7F
$GAGSV,1,1,04,13,36,047,25,18,74,324,14,21,50,052,25,26,69,138,21,2*7F
$GAGSV,3,1,09,01,41,335,20,04,16,275,19,13,36,047,30,18,74,324,22,7*78
$GAGSV,3,2,09,19,20,217,09,21,50,052,23,26,69,138,21,27,14,098,18,7*76
$GAGSV,3,3,09,33,29,196,12,7*4C
$GAGSV,1,1,01,31,01,301,,0*44
$GBGSV,2,1,07,06,35,189,18,07,56,011,25,09,50,220,16,10,50,325,13,1*71
$GBGSV,2,2,07,27,71,026,37,30,50,229,37,37,51,106,29,1*45
$GBGSV,1,1,04,07,56,011,25,08,35,158,21,09,50,220,22,16,37,195,19,3*78
$GBGSV,3,1,10,01,47,123,,02,46,235,,03,62,189,,04,33,110,,0*71
$GBGSV,3,2,10,04,33,110,,05,23,254,,13,22,180,,20,01,208,,0*76
$GBGSV,3,3,10,20,01,208,,23,04,127,,0*7E
$GNGLL,2218.07432,N,11410.74157,E,023300.00,A,D*7E
$GNGRS,023300.00,1,2.2,-2.4,-35.1,1.0,-4.4,-59.8,9.1,,,,,,1,1*70
$GNGRS,023300.00,1,,,0.0,0.0,,0.0,,,,,,,1,5*78
$GNGRS,023300.00,1,5.9,-8.3,,,13.7,,0.6,,,,,,1,6*4C
$GNGRS,023300.00,1,-123,-22.1,6.8,6.4,-41.4,-0.4,,,,,,,2,1*47
$GNGRS,023300.00,1,-38.3,-18.5,-7.8,-8.5,-4.4,-2.6,,,,,,,2,3*51
$GNGRS,023300.00,1,2.2,-0.1,0.0,0.0,0.0,0.0,0.0,,,,,,3,2*51
$GNGRS,023300.00,1,-9.2,-2.8,-24.6,-102,-94.6,9.2,-11.4,,,,,,3,7*50
$GNGRS,023300.00,1,,-95.2,-75.3,2.5,-5.7,2.0,-3.4,,-11.6,,,,4,1*6D
$GNGRS,023300.00,1,-12.8,,0.0,0.0,3.2,0.0,1.9,2.2,0.0,,,,4,3*4A
$GNGST,023300.00,318477,11,5.5,134,3.6,3.7,6.5*5F
$GNZDA,023300.00,17,05,2021,00,00*78
$GNGBS,023300.00,3.6,3.7,6.5,,,,,,*5F
$GNVLW,,N,,N,0.000,N,0.000,N*44
$PUBX,00,023300.00,2218.07432,N,11410.74157,E,7.178,D3,5.1,6.5,0.076,227.46,0.021,,0.75,1.08,0.82,28,0,0*5D
$PUBX,03,32,1,U,170,41,29,006,3,-,177,00,,000,4,U,197,21,14,000,7,U,321,55,15,000,8,U,010,55,26,026,9,U,234,29,33,047,14,-,291,03,,000,16,e,076,17,,000,17,-,234,05,,000,21,U,135,60,24,000,22,-,152,07,,000,26,-,096,02,,000,27,U,036,25,25,000,30,e,320,17,,000,127,-,257,20,,000,128,-,238,46,41,057,132,-,225,55,,000,137,-,149,60,,000,211,U,335,41,20,000,214,U,275,16,19,000,223,U,047,36,30,056,228,e,324,74,,000,229,e,217,20,09,000,231,U,052,50,23,000,236,e,138,69,,000,237,U,098,14,18,000,241,-,301,01,,000,243,U,196,29,12,000,159,-,123,47,,000,160,-,235,46,,000,161,-,189,62,,000,162,-,110,33,,000*2A
$PUBX,04,023300.00,170521,95580.00,2158,18,917124,330.120,08*2E
$GNRMC,023301.00,A,2218.07439,N,11410.74147,E,0.031,,170521,,,D,V*14
$GNVTG,,T,,M,0.031,N,0.058,K,D*37
$GNGNS,023301.00,2218.07439,N,11410.74147,E,DDDD,28,0.61,8.9,-1.6,,0000,V*03
$GNGGA,023301.00,2218.07439,N,11410.74147,E,2,12,0.61,8.9,M,-1.6,M,,0000*59
$GNGSA,A,3,09,01,07,21,27,04,08,30,,,,,1.18,0.61,1.01,1*08
$GNGSA,A,3,73,79,84,80,82,83,,,,,,,1.18,0.61,1.01,2*02
$GNGSA,A,3,21,13,19,04,01,33,,,,,,,1.18,0.61,1.01,3*00
$GNGSA,A,3,16,10,06,27,07,30,09,08,37,,,,1.18,0.61,1.01,4*0F
$GPGSV,3,1,10,01,41,170,29,04,21,197,11,07,55,321,14,08,55,010,26,1*69
$GPGSV,3,2,10,09,29,234,33,16,17,076,08,21,60,135,24,27,25,036,26,1*6C
$GPGSV,3,3,10,30,17,320,11,41,46,238,41,1*6A
$GPGSV,1,1,04,01,41,170,19,08,55,010,21,09,29,234,29,27,25,036,23,6*6D
$GPGSV,2,1,07,03,00,177,,14,03,291,,17,05,234,,22,07,152,,0*68
$GPGSV,2,2,07,22,07,152,,26,02,096,,40,20,257,,0*5C
$GLGSV,2,1,06,73,38,348,11,79,13,117,27,80,53,065,08,82,26,026,14,1*79
$GLGSV,2,2,06,83,74,029,27,84,39,204,09,1*71
$GLGSV,2,1,06,73,38,348,26,79,13,117,15,80,53,065,13,82,26,026,08,3*79
$GLGSV,2,2,06,83,74,029,30,84,39,204,08,3*74
$GLGSV,1,1,02,71,02,267,,74,00,321,,0*7F
$GAGSV,1,1,04,13,36,047,25,18,74,324,15,21,50,052,25,26,69,138,22,2*7D
$GAGSV,3,1,09,01,41,335,21,04,16,275,20,13,36,047,30,18,74,324,23,7*72
$GAGSV,3,2,09,19,20,217,08,21,50,052,23,26,69,138,21,27,14,098,18,7*77
$GAGSV,3,3,09,33,29,196,12,7*4C
$GAGSV,1,1,01,31,01,301,,0*44
$GBGSV,2,1,07,06,35,189,18,07,56,011,25,09,50,220,15,10,50,325,13,1*72
$GBGSV,2,2,07,27,71,026,37,30,50,229,37,37,51,106,29,1*45
$GBGSV,1,1,04,07,56,011,25,08,35,158,21,09,50,220,21,16,37,195,19,3*7B
$GBGSV,3,1,10,01,47,123,,02,46,235,,03,62,189,,04,33,110,,0*71
$GBGSV,3,2,10,04,33,110,,05,23,254,,13,22,180,,20,01,208,,0*76
$GBGSV,3,3,10,20,01,208,,23,04,127,,0*7E
$GNGLL,2218.07439,N,11410.74147,E,023301.00,A,D*75
$GNGRS,023301.00,1,2.3,-4.6,2.2,3.2,-5.7,-63.4,7.7,13.6,,,,,1,1*7B
$GNGRS,023301.00,1,,,,,,0.0,,,,,,,1,5*79
$GNGRS,023301.00,1,5.8,-9.8,,,12.3,,1.1,,,,,,1,6*45
$GNGRS,023301.00,1,7.8,-21.4,7.4,7.3,-38.5,0.8,,,,,,,2,1*59
$GNGRS,023301.00,1,-43.7,-17.9,-155,-8.6,-41.3,-2.8,,,,,,,2,3*70
$GNGRS,023301.00,1,1.6,0.9,,0.0,0.0,0.0,,,,,,,3,2*72
$GNGRS,023301.00,1,-7.6,-2.9,12.4,-101,-93.9,9.8,,,,,,,3,7*46
$GNGRS,023301.00,1,,-95.1,-75.5,2.5,-4.7,2.0,-2.5,,-7.8,,,,4,1*51
$GNGRS,023301.00,1,-14.9,,0.0,0.0,2.6,0.0,2.0,1.4,0.0,,,,4,3*46
$GNGST,023301.00,244457,11,5.5,134,3.6,3.6,6.5*55
$GNZDA,023301.00,17,05,2021,00,00*79
$GNGBS,023301.00,3.6,3.6,6.5,16,,101.3,66.4,1,7*69
$GNVLW,,N,,N,0.000,N,0.000,N*44
$PUBX,00,023301.00,2218.07439,N,11410.74147,E,7.289,D3,5.1,6.5,0.058,227.46,0.019,,0.61,1.01,0.71,28,0,0*5C
$PUBX,03,32,1,U,170,41,29,007,3,-,177,00,,000,4,e,197,21,11,000,7,U,321,55,14,000,8,U,010,55,26,027,9,U,234,29,33,048,14,-,291,03,,000,16,e,076,17,,000,17,-,234,05,,000,21,U,135,60,24,000,22,-,152,07,,000,26,-,096,02,,000,27,U,036,25,26,000,30,U,320,17,11,000,127,-,257,20,,000,128,-,238,46,41,058,132,-,225,55,,000,137,-,149,60,,000,211,U,335,41,21,000,214,e,275,16,20,000,223,U,047,36,30,057,228,e,324,74,,000,229,U,217,20,08,000,231,U,052,50,23,000,236,e,138,69,,000,237,e,098,14,,000,241,-,301,01,,000,243,U,196,29,12,000,159,-,123,47,,000,160,-,235,46,,000,161,-,189,62,,000,162,-,110,33,,000*1F
$PUBX,04,023301.00,170521,95581.00,2158,18,917455,330.145,08*2E
$GNRMC,023302.00,A,2218.07443,N,11410.74138,E,0.079,,170521,,,D,V*1E
$GNVTG,,T,,M,0.079,N,0.147,K,D*34
$GNGNS,023302.00,2218.07443,N,11410.74138,E,DDDD,29,0.66,9.1,-1.6,,0000,V*0A
$GNGGA,023302.00,2218.07443,N,11410.74138,E,2,12,0.66,9.1,M,-1.6,M,,0000*51
$GNGSA,A,3,09,01,07,21,27,04,08,16,,,,,1.24,0.66,1.05,1*00
$GNGSA,A,3,73,79,84,80,82,83,,,,,,,1.24,0.66,1.05,2*0E
$GNGSA,A,3,21,13,19,04,01,33,,,,,,,1.24,0.66,1.05,3*0C
$GNGSA,A,3,16,10,06,27,07,30,09,08,37,,,,1.24,0.66,1.05,4*03
$GPGSV,3,1,10,01,41,170,29,04,21,197,10,07,55,321,14,08,55,010,26,1*68
$GPGSV,3,2,10,09,29,234,32,16,17,076,08,21,60,135,24,27,25,036,26,1*6D
$GPGSV,3,3,10,30,17,320,06,41,46,238,41,1*6C
$GPGSV,1,1,04,01,41,170,18,08,55,010,21,09,29,234,29,27,25,036,22,6*6D
$GPGSV,2,1,07,03,00,177,,14,03,291,,17,05,234,,22,07,152,,0*68
$GPGSV,2,2,07,22,07,152,,26,02,096,,40,20,257,,0*5C
$GLGSV,2,1,06,73,38,348,12,79,13,117,28,80,53,067,16,82,26,026,13,1*7F
$GLGSV,2,2,06,83,74,029,26,84,39,204,10,1*78
$GLGSV,2,1,06,73,38,348,25,79,13,117,17,80,53,067,11,82,26,026,08,3*78
$GLGSV,2,2,06,83,74,029,30,84,39,204,09,3*75
$GLGSV,1,1,02,71,02,267,,74,00,321,,0*7F
$GAGSV,1,1,04,13,36,047,25,18,74,324,15,21,50,052,25,26,69,138,22,2*7D
$GAGSV,3,1,09,01,41,335,21,04,16,275,19,13,36,047,30,18,74,324,23,7*78
$GAGSV,3,2,09,19,20,217,11,21,50,052,22,26,69,138,21,27,14,098,18,7*7E
$GAGSV,3,3,09,33,29,196,08,7*47
$GAGSV,1,1,01,31,01,301,,0*44
$GBGSV,2,1,07,06,35,189,18,07,56,011,25,09,50,220,16,10,50,325,12,1*70
$GBGSV,2,2,07,27,71,026,37,30,50,229,37,37,51,106,30,1*4D
$GBGSV,1,1,04,07,56,011,25,08,35,158,22,09,50,220,21,16,37,195,19,3*78
$GBGSV,3,1,10,01,47,123,,02,46,235,,03,62,189,,04,33,110,,0*71
$GBGSV,3,2,10,04,33,110,,05,23,254,,13,22,180,,20,01,208,,0*76
$GBGSV,3,3,10,20,01,208,,23,04,127,,0*7E
$GNGLL,2218.07443,N,11410.74138,E,023302.00,A,D*73
$GNGRS,023302.00,1,2.5,-7.3,1.9,4.6,-8.6,-62.7,10.2,-22.5,,,,,1,1*62
$GNGRS,023302.00,1,,,0.0,0.0,,,,0.0,,,,,1,5*7A
$GNGRS,023302.00,1,5.7,-11.4,,,11.4,,1.3,,,,,,1,6*7A
$GNGRS,023302.00,1,7.5,-19.5,7.4,7.4,-38.2,1.8,,,,,,,2,1*5C
$GNGRS,023302.00,1,-46.6,-20.4,-7.7,-8.4,-4.1,-3.1,,,,,,,2,3*58
$GNGRS,023302.00,1,1.4,0.7,0.0,0.0,0.0,0.0,,,,,,,3,2*53
$GNGRS,023302.00,1,-8.1,-2.9,12.3,-100,-92.9,9.7,,,,,,,3,7*45
$GNGRS,023302.00,1,,-95.3,-76.8,2.5,-4.2,1.9,-1.2,,-4.7,,,,4,1*59
$GNGRS,023302.00,1,-16.9,,,,2.9,,2.4,0.2,,,,,4,3*4B
$GNGST,023302.00,358561,11,5.5,134,3.6,3.6,6.5*5E
$GNZDA,023302.00,17,05,2021,00,00*7A
$GNGBS,023302.00,3.6,3.6,6.5,17,,92.8,61.8,1,7*50
$GNVLW,,N,,N,0.000,N,0.000,N*44
$PUBX,00,023302.00,2218.07443,N,11410.74138,E,7.445,D3,5.1,6.5,0.147,227.46,0.015,,0.66,1.05,0.75,29,0,0*59
$PUBX,03,32,1,U,170,41,29,008,3,-,177,00,,000,4,U,197,21,10,000,7,U,321,55,14,000,8,U,010,55,26,028,9,U,234,29,32,049,14,-,291,03,,000,16,U,076,17,08,000,17,-,234,05,,000,21,U,135,60,24,000,22,-,152,07,,000,26,-,096,02,,000,27,U,036,25,26,000,30,e,320,17,,000,127,-,257,20,,000,128,-,238,46,41,059,132,-,225,55,,000,137,-,149,60,,000,211,e,335,41,21,000,214,U,275,16,19,000,223,U,047,36,30,058,228,e,324,74,,000,229,U,217,20,11,000,231,U,052,50,22,000,236,e,138,69,,000,237,e,098,14,,000,241,-,301,01,,000,243,U,196,29,08,000,159,-,123,47,,000,160,-,235,46,,000,161,-,189,62,,000,162,-,110,33,,000*20
$PUBX,04,023302.00,170521,95582.00,2158,18,917785,330.180,08*29
$GNRMC,023303.00,A,2218.07436,N,11410.74123,E,0.653,,170521,,,D,V*19
$GNVTG,,T,,M,0.653,N,1.210,K,D*3A
$GNGNS,023303.00,2218.07436,N,11410.74123,E,DDDD,28,0.86,9.0,-1.6,,0000,V*0D
$GNGGA,023303.00,2218.07436,N,11410.74123,E,2,12,0.86,9.0,M,-1.6,M,,0000*57
$GNGSA,A,3,09,01,07,21,27,30,08,16,,,,,1.50,0.86,1.23,1*0E
$GNGSA,A,3,73,79,84,80,82,83,,,,,,,1.50,0.86,1.23,2*07
$GNGSA,A,3,21,13,19,04,01,33,,,,,,,1.50,0.86,1.23,3*05
$GNGSA,A,3,16,10,06,27,07,30,09,08,37,,,,1.50,0.86,1.23,4*0A
$GPGSV,3,1,10,01,41,170,29,04,21,197,09,07,55,321,12,08,55,010,27,1*67
$GPGSV,3,2,10,09,29,234,33,16,17,076,18,21,60,135,26,27,25,036,25,1*6C
$GPGSV,3,3,10,30,17,320,09,41,46,238,41,1*63
$GPGSV,1,1,04,01,41,170,18,08,55,010,21,09,29,234,29,27,25,036,22,6*6D
$GPGSV,2,1,07,03,00,177,,14,03,291,,17,05,234,,22,07,152,,0*68
$GPGSV,2,2,07,22,07,152,,26,02,096,,40,20,257,,0*5C
$GLGSV,2,1,06,73,38,348,23,79,13,117,27,80,53,067,10,82,26,026,14,1*73
$GLGSV,2,2,06,83,74,029,26,84,39,204,11,1*79
$GLGSV,2,1,06,73,38,348,25,79,13,117,18,80,53,067,11,82,26,026,11,3*7F
$GLGSV,2,2,06,83,74,029,30,84,39,204,18,3*75
$GLGSV,1,1,02,71,02,267,,74,00,321,,0*7F
$GAGSV,1,1,04,13,36,047,25,18,74,324,14,21,50,052,25,26,69,138,20,2*7E
$GAGSV,3,1,09,01,41,335,22,04,16,275,19,13,36,047,29,18,74,324,21,7*71
$GAGSV,3,2,09,19,20,217,11,21,50,052,22,26,69,138,21,27,14,098,18,7*7E
$GAGSV,3,3,09,33,29,196,14,7*4A
$GAGSV,1,1,01,31,01,301,,0*44
$GBGSV,2,1,07,06,35,189,18,07,56,011,25,09,50,220,17,10,50,325,13,1*70
$GBGSV,2,2,07,27,71,026,40,30,50,229,38,37,51,106,28,1*4B
$GBGSV,1,1,04,07,56,011,25,08,35,158,23,09,50,220,20,16,37,195,17,3*76
$GBGSV,3,1,10,01,47,123,,02,46,235,,03,62,189,,04,33,110,,0*71
$GBGSV,3,2,10,04,33,110,,05,23,254,,13,22,180,,20,01,208,,0*76
$GBGSV,3,3,10,20,01,208,,23,04,127,,0*7E
$GNGLL,2218.07436,N,11410.74123,E,023303.00,A,D*7A
$GNGRS,023303.00,1,2.4,-7.8,-34.9,4.0,-5.6,49.9,8.3,-22.8,,,,,1,1*66
$GNGRS,023303.00,1,,,0.0,0.0,,0.0,,,,,,,1,5*7B
$GNGRS,023303.00,1,5.7,-9.6,,,11.3,,1.1,,,,,,1,6*45
$GNGRS,023303.00,1,-29.3,-20.3,7.2,44.3,-38.3,1.2,,,,,,,2,1*7B
$GNGRS,023303.00,1,-49.0,-23.8,-8.0,-8.4,-4.2,-3.2,,,,,,,2,3*57
$GNGRS,023303.00,1,2.2,0.6,0.0,0.0,0.0,0.0,,,,,,,3,2*56
$GNGRS,023303.00,1,-7.3,-2.2,-6.6,-102,-92.8,-9.0,,,,,,,3,7*76
$GNGRS,023303.00,1,,-96.0,-77.4,2.4,-2.8,1.8,-0.9,,-2.6,,,,4,1*54
$GNGRS,023303.00,1,-17.6,,0.0,0.0,4.0,0.0,2.0,0.9,0.0,,,,4,3*44
$GNGST,023303.00,271598,11,5.5,134,3.6,3.6,6.5*53
$GNZDA,023303.00,17,05,2021,00,00*7B
$GNGBS,023303.00,3.6,3.6,6.5,16,,101.4,69.2,1,7*65
$GNVLW,,N,,N,0.000,N,0.000,N*44
$PUBX,00,023303.00,2218.07436,N,11410.74123,E,7.422,D3,5.1,6.5,1.210,227.46,0.015,,0.86,1.23,0.88,28,0,0*58
$PUBX,03,32,1,U,170,41,29,009,3,-,177,00,,000,4,e,197,21,,000,7,U,321,55,12,000,8,U,010,55,27,029,9,U,234,29,33,050,14,-,291,03,,000,16,U,076,17,18,000,17,-,234,05,,000,21,U,135,60,26,000,22,-,152,07,,000,26,-,096,02,,000,27,U,036,25,25,000,30,e,320,17,09,000,127,-,257,20,,000,128,-,238,46,41,060,132,-,225,55,,000,137,-,149,60,,000,211,U,335,41,22,000,214,e,275,16,19,000,223,U,047,36,29,059,228,e,324,74,,000,229,U,217,20,11,000,231,U,052,50,22,000,236,e,138,69,,000,237,e,098,14,,000,241,-,301,01,,000,243,U,196,29,14,000,159,-,123,47,,000,160,-,235,46,,000,161,-,189,62,,000,162,-,110,33,,000*1B
$PUBX,04,023303.00,170521,95583.00,2158,18,918115,330.089,08*21
$GNRMC,023304.00,A,2218.07406,N,11410.74072,E,2.345,226.98,170521,,,D,V*01
$GNVTG,226.98,T,,M,2.345,N,4.343,K,D*21
$GNGNS,023304.00,2218.07406,N,11410.74072,E,DDDD,28,0.60,8.9,-1.6,,0000,V*0C
$GNGGA,023304.00,2218.07406,N,11410.74072,E,2,12,0.60,8.9,M,-1.6,M,,0000*56
$GNGSA,A,3,09,01,07,04,21,27,30,08,16,,,,1.12,0.60,0.95,1*08
$GNGSA,A,3,73,79,84,80,82,83,,,,,,,1.12,0.60,0.95,2*05
$GNGSA,A,3,21,13,19,04,01,,,,,,,,1.12,0.60,0.95,3*07
$GNGSA,A,3,16,10,06,27,07,30,09,08,37,,,,1.12,0.60,0.95,4*08
$GPGSV,3,1,10,01,41,170,28,04,21,197,11,07,55,321,11,08,55,010,28,1*63
$GPGSV,3,2,10,09,29,234,32,16,17,076,15,21,60,135,27,27,25,036,24,1*60
$GPGSV,3,3,10,30,17,320,09,41,46,238,41,1*63
$GPGSV,1,1,04,01,41,170,18,08,55,010,22,09,29,234,30,27,25,036,23,6*67
$GPGSV,2,1,07,03,00,177,,14,03,291,,17,05,234,,22,07,152,,0*68
$GPGSV,2,2,07,22,07,152,,26,02,096,,40,20,257,,0*5C
$GLGSV,2,1,06,73,38,348,20,79,13,117,26,80,53,067,07,82,25,026,16,1*76
$GLGSV,2,2,06,83,74,029,26,84,39,204,10,1*78
$GLGSV,2,1,06,73,38,348,24,79,13,117,19,80,53,067,10,82,25,026,13,3*7F
$GLGSV,2,2,06,83,74,029,30,84,39,204,12,3*7F
$GLGSV,1,1,02,71,02,267,,74,00,321,,0*7F
$GAGSV,2,1,05,01,41,335,16,13,36,047,24,18,74,324,15,21,50,052,25,2*79
$GAGSV,2,2,05,26,69,138,19,2*4A
$GAGSV,3,1,09,01,41,335,21,04,16,275,19,13,36,047,28,18,74,324,19,7*78
$GAGSV,3,2,09,19,20,217,12,21,50,052,23,26,69,138,21,27,14,098,16,7*72
$GAGSV,3,3,09,33,29,196,09,7*46
$GAGSV,1,1,01,31,01,301,,0*44
$GBGSV,2,1,07,06,35,189,16,07,56,011,25,09,50,220,20,10,50,325,14,1*7D
$GBGSV,2,2,07,27,71,026,39,30,50,229,38,37,51,106,27,1*4A
$GBGSV,1,1,04,07,56,011,24,08,35,158,25,09,50,220,20,16,37,195,15,3*73
$GBGSV,3,1,10,01,47,123,,02,46,235,,03,62,189,,04,33,110,,0*71
$GBGSV,3,2,10,04,33,110,,05,23,254,,13,22,180,,20,01,208,,0*76
$GBGSV,3,3,10,20,01,208,,23,04,127,,0*7E
$GNGLL,2218.07406,N,11410.74072,E,023304.00,A,D*7B
$GNGRS,023304.00,1,2.3,-1.1,2.3,-65.4,2.5,-1.6,13.4,3.5,13.8,,,,1,1*68
$GNGRS,023304.00,1,,,,0.0,,,,,0.0,,,,1,5*52
$GNGRS,023304.00,1,5.3,-10.9,,,,9.8,,0.2,,,,,1,6*41
$GNGRS,023304.00,1,5.0,-18.7,6.7,7.3,-38.1,0.4,,,,,,,2,1*55
$GNGRS,023304.00,1,-50.4,-25.9,-8.8,28.7,-150,-3.1,,,,,,,2,3*50
$GNGRS,023304.00,1,2.3,1.6,0.0,0.0,-88.2,,,,,,,,3,2*60
$GNGRS,023304.00,1,-6.8,-1.6,11.8,-107,-92.8,,,,,,,,3,7*66
$GNGRS,023304.00,1,,-96.2,-78.4,2.4,-1.3,1.7,-0.8,,-4.8,,,,4,1*50
$GNGRS,023304.00,1,-17.5,,0.0,0.0,3.5,0.0,1.5,2.4,0.0,,,,4,3*4B
$GNGST,023304.00,217670,11,5.5,134,3.6,3.6,6.6*52
$GNZDA,023304.00,17,05,2021,00,00*7C
$GNGBS,023304.00,3.6,3.6,6.6,,,,,,*59
$GNVLW,,N,,N,0.000,N,0.000,N*44
$PUBX,00,023304.00,2218.07406,N,11410.74072,E,7.311,D3,5.1,6.6,4.343,226.98,0.022,,0.60,0.95,0.66,28,0,0*5D
$PUBX,03,32,1,U,170,41,28,010,3,-,177,00,,000,4,U,197,21,11,000,7,U,321,55,11,000,8,U,010,55,28,030,9,U,234,29,32,051,14,-,291,03,,000,16,U,076,17,15,000,17,-,234,05,,000,21,U,135,60,27,000,22,-,152,07,,000,26,-,096,02,,000,27,U,036,25,24,000,30,U,320,17,09,000,127,-,257,20,,000,128,-,238,46,41,061,132,-,225,55,,000,137,-,149,60,,000,211,U,335,41,21,000,214,U,275,16,19,000,223,U,047,36,28,060,228,e,324,74,,000,229,U,217,20,12,000,231,U,052,50,23,000,236,e,138,69,,000,237,e,098,14,,000,241,-,301,01,,000,243,e,196,29,,000,159,-,123,47,,000,160,-,235,46,,000,161,-,189,62,,000,162,-,110,33,,000*15
$PUBX,04,023304.00,170521,95584.00,2158,18,918445,329.955,08*21
$GNRMC,023305.00,A,2218.07341,N,11410.73974,E,4.417,229.01,170521,,,D,V*05
$GNVTG,229.01,T,,M,4.417,N,8.180,K,D*29
$GNGNS,023305.00,2218.07341,N,11410.73974,E,DDDD,29,0.58,8.7,-1.6,,0000,V*05
$GNGGA,023305.00,2218.07341,N,11410.73974,E,2,12,0.58,8.7,M,-1.6,M,,0000*5E
$GNGSA,A,3,09,01,07,04,21,27,30,08,16,,,,1.08,0.58,0.91,1*0C
$GNGSA,A,3,73,79,84,80,82,83,,,,,,,1.08,0.58,0.91,2*01
$GNGSA,A,3,21,13,19,04,01,,,,,,,,1.08,0.58,0.91,3*03
$GNGSA,A,3,16,10,06,27,07,30,09,08,37,,,,1.08,0.58,0.91,4*0C
$GPGSV,3,1,10,01,41,170,27,04,21,197,12,07,55,321,12,08,55,010,29,1*6D
$GPGSV,3,2,10,09,29,234,33,16,17,076,12,21,60,135,25,27,25,036,24,1*64
$GPGSV,3,3,10,30,17,320,09,41,46,238,39,1*6C
$GPGSV,1,1,04,01,41,170,19,08,55,010,23,09,29,234,30,27,25,036,21,6*65
$GPGSV,2,1,07,03,00,177,,14,03,291,,17,05,234,,22,07,152,,0*68
$GPGSV,2,2,07,22,07,152,,26,02,096,,40,20,257,,0*5C
$GLGSV,2,1,06,73,38,348,20,79,13,117,23,80,53,067,14,82,25,026,17,1*70
$GLGSV,2,2,06,83,74,029,26,84,39,204,09,1*70
$GLGSV,2,1,06,73,38,348,24,79,13,117,18,80,53,067,09,82,25,026,11,3*74
$GLGSV,2,2,06,83,74,029,31,84,39,204,11,3*7D
$GLGSV,1,1,02,71,02,267,,74,00,321,,0*7F
$GAGSV,1,1,04,13,36,047,25,18,74,324,14,21,50,052,25,26,69,138,20,2*7E
$GAGSV,2,1,08,01,41,335,20,04,16,275,20,13,36,047,29,18,74,324,16,7*7D
$GAGSV,2,2,08,19,20,217,08,21,50,052,25,27,14,098,16,33,29,196,10,7*79
$GAGSV,1,1,01,31,01,301,,0*44
$GBGSV,2,1,07,06,35,189,12,07,56,011,25,09,50,220,22,10,50,325,14,1*7B
$GBGSV,2,2,07,27,71,026,42,30,50,229,35,37,51,106,26,1*4A
$GBGSV,1,1,04,07,56,011,24,08,35,158,26,09,50,220,22,16,37,195,14,3*73
$GBGSV,3,1,10,01,47,123,,02,46,235,,03,62,189,,04,33,110,,0*71
$GBGSV,3,2,10,04,33,110,,05,23,254,,13,22,180,,20,01,208,,0*76
$GBGSV,3,3,10,20,01,208,,23,04,127,,0*7E
$GNGLL,2218.07341,N,11410.73974,E,023305.00,A,D*76
$GNGRS,023305.00,1,2.1,-1.0,2.1,-70.7,4.4,-1.2,12.9,3.9,14.9,,,,1,1*6A
$GNGRS,023305.00,1,,,0.0,,0.0,,0.0,,0.0,,,,1,5*53
$GNGRS,023305.00,1,5.3,-10.1,,,,8.9,,-1.8,,,,,1,6*6E
$GNGRS,023305.00,1,4.0,-16.4,5.4,8.0,-35.6,-0.8,,,,,,,2,1*7F
$GNGRS,023305.00,1,-52.4,-27.9,-8.3,-8.1,-3.6,-3.0,,,,,,,2,3*5D
$GNGRS,023305.00,1,1.4,0.8,0.0,,,,,,,,,,3,2*75
$GNGRS,023305.00,1,-4.7,-1.3,10.1,-110,-92.8,,,,,,,,3,7*61
$GNGRS,023305.00,1,,-96.7,-85.2,2.2,0.3,1.8,-1.4,,-4.2,,,,4,1*72
$GNGRS,023305.00,1,-18.8,,,,2.3,,1.2,3.4,,,,,4,3*49
$GNGST,023305.00,396500,11,5.5,134,3.6,3.6,6.6*5F
$GNZDA,023305.00,17,05,2021,00,00*7D
$GNGBS,023305.00,3.6,3.6,6.6,16,,108.9,67.7,1,7*6F
$GNVLW,,N,,N,0.000,N,0.000,N*44
$PUBX,00,023305.00,2218.07341,N,11410.73974,E,7.101,D3,5.1,6.6,8.180,229.01,0.033,,0.58,0.91,0.63,29,0,0*56
$PUBX,03,32,1,U,170,41,27,011,3,-,177,00,,000,4,e,197,21,12,000,7,U,321,55,12,000,8,U,010,55,29,031,9,U,234,29,33,052,14,-,291,03,,000,16,U,076,17,12,000,17,-,234,05,,000,21,U,135,60,25,000,22,-,152,07,,000,26,-,096,02,,000,27,U,036,25,24,000,30,U,320,17,09,000,127,-,257,20,,000,128,-,238,46,39,062,132,-,225,55,,000,137,-,149,60,,000,211,e,335,41,20,000,214,e,275,16,20,000,223,U,047,36,29,061,228,e,324,74,,000,229,U,217,20,08,000,231,U,052,50,25,000,236,e,138,69,,000,237,e,098,14,,000,241,-,301,01,,000,243,e,196,29,,000,159,-,123,47,,000,160,-,235,46,,000,161,-,189,62,,000,162,-,110,33,,000*26
$PUBX,04,023305.00,170521,95585.00,2158,18,918775,330.007,08*27
$GNRMC,023306.00,A,2218.07230,N,11410.73831,E,6.679,228.30,170521,,,D,V*0A
$GNVTG,228.30,T,,M,6.679,N,12.369,K,D*1C
$GNGNS,023306.00,2218.07230,N,11410.73831,E,DDDD,28,0.71,8.7,-1.6,,0000,V*0B
$GNGGA,023306.00,2218.07230,N,11410.73831,E,2,12,0.71,8.7,M,-1.6,M,,0000*51
$GNGSA,A,3,09,01,07,04,21,27,30,08,16,,,,1.29,0.71,1.08,1*05
$GNGSA,A,3,73,79,84,80,82,83,,,,,,,1.29,0.71,1.08,2*08
$GNGSA,A,3,21,33,13,19,04,01,,,,,,,1.29,0.71,1.08,3*0A
$GNGSA,A,3,16,10,27,07,30,09,08,37,,,,,1.29,0.71,1.08,4*03
$GPGSV,3,1,10,01,41,170,26,04,21,197,12,07,55,321,11,08,55,010,29,1*6F
$GPGSV,3,2,10,09,29,234,32,16,17,076,22,21,60,135,23,27,25,036,22,1*66
$GPGSV,3,3,10,30,17,320,09,41,46,238,36,1*63
$GPGSV,1,1,04,01,41,170,20,08,55,010,22,09,29,234,29,27,25,036,20,6*67
$GPGSV,2,1,07,03,00,177,,14,03,291,,17,05,234,,22,07,152,,0*68
$GPGSV,2,2,07,22,07,152,,26,02,096,,40,20,257,,0*5C
$GLGSV,2,1,06,73,38,348,20,79,13,117,20,80,53,067,10,82,25,026,14,1*74
$GLGSV,2,2,06,83,74,029,26,84,40,205,11,1*76
$GLGSV,2,1,06,73,38,348,23,79,13,117,18,80,53,067,06,82,25,026,08,3*74
$GLGSV,2,2,06,83,74,029,33,84,40,205,11,3*70
$GLGSV,1,1,02,71,02,267,,74,00,321,,0*7F
$GAGSV,1,1,04,13,36,047,26,18,74,324,14,21,50,052,28,26,69,138,22,2*72
$GAGSV,3,1,09,01,41,335,20,04,16,275,17,13,36,047,29,18,74,324,15,7*7A
$GAGSV,3,2,09,19,20,217,10,21,50,052,27,26,69,138,23,27,14,098,14,7*74
$GAGSV,3,3,09,33,29,196,12,7*4C
$GAGSV,1,1,01,31,01,301,,0*44
$GBGSV,2,1,07,06,35,189,08,07,56,011,24,09,50,220,23,10,50,325,13,1*77
$GBGSV,2,2,07,27,71,026,43,30,50,229,37,37,51,106,25,1*4A
$GBGSV,1,1,04,07,56,011,22,08,35,158,28,09,50,220,23,16,37,195,13,3*7D
$GBGSV,3,1,10,01,47,123,,02,46,235,,03,62,189,,04,33,110,,0*71
$GBGSV,3,2,10,04,33,110,,05,23,254,,13,22,180,,20,01,208,,0*76
$GBGSV,3,3,10,20,01,208,,23,04,127,,0*7E
$GNGLL,2218.07230,N,11410.73831,E,023306.00,A,D*72
$GNGRS,023306.00,1,2.2,-1.7,-71.2,-71.5,6.8,0.1,-134,1.6,14.1,,,,1,1*5F
$GNGRS,023306.00,1,,,0.0,0.0,0.0,,0.0,,,,,,1,5*50
$GNGRS,023306.00,1,5.2,-8.4,,,,9.3,,-1.7,,,,,1,6*54
$GNGRS,023306.00,1,3.5,-15.6,39.9,9.1,-26.9,-2.4,,,,,,,2,1*4E
$GNGRS,023306.00,1,-53.3,-26.8,-9.5,-7.5,-2.4,-3.0,,,,,,,2,3*57
$GNGRS,023306.00,1,-0.1,,1.4,0.0,0.0,0.0,,,,,,,3,2*52
$GNGRS,023306.00,1,-0.7,-30.2,-0.9,25.7,-111,-90.8,,,,,,,3,7*5C
$GNGRS,023306.00,1,,-96.3,2.0,-1.5,1.9,-1.0,,-5.3,,,,,4,1*64
$GNGRS,023306.00,1,-19.4,,0.0,1.7,0.0,1.7,5.3,0.0,,,,,4,3*6A
$GNGST,023306.00,192049,11,5.5,134,3.6,3.6,6.6*52
$GNZDA,023306.00,17,05,2021,00,00*7E
$GNGBS,023306.00,3.6,3.6,6.6,,,,,,*5B
$GNVLW,,N,,N,0.000,N,0.000,N*44
$PUBX,00,023306.00,2218.07230,N,11410.73831,E,7.058,D3,5.1,6.6,12.369,228.30,0.032,,0.71,1.08,0.81,28,0,0*64
$PUBX,03,32,1,U,170,41,26,000,3,-,177,00,,000,4,e,197,21,12,000,7,U,321,55,11,000,8,U,010,55,29,032,9,U,234,29,32,053,14,-,291,03,,000,16,U,076,17,22,000,17,-,234,05,,000,21,U,135,60,23,000,22,-,152,07,,000,26,-,096,02,,000,27,U,036,25,22,000,30,e,320,17,09,000,127,-,257,20,,000,128,-,238,46,36,063,132,-,225,55,,000,137,-,149,60,,000,211,U,335,41,20,000,214,U,275,16,17,000,223,U,047,36,29,062,228,e,324,74,,000,229,U,217,20,10,000,231,U,052,50,27,001,236,e,138,69,,000,237,e,098,14,,000,241,-,301,01,,000,243,e,196,29,12,000,159,-,123,47,,000,160,-,235,46,,000,161,-,189,62,,000,162,-,110,33,,000*14
$PUBX,04,023306.00,170521,95586.00,2158,18,919105,329.934,08*26
$GNRMC,023307.00,A,2218.07089,N,11410.73662,E,7.800,227.31,170521,,,D,V*0C
$GNVTG,227.31,T,,M,7.800,N,14.445,K,D*1C
$GNGNS,023307.00,2218.07089,N,11410.73662,E,DDDD,28,0.60,8.5,-1.6,,0000,V*00
$GNGGA,023307.00,2218.07089,N,11410.73662,E,2,12,0.60,8.5,M,-1.6,M,,0000*5A
$GNGSA,A,3,09,01,07,04,21,27,30,08,16,,,,1.10,0.60,0.92,1*0D
$GNGSA,A,3,73,79,84,80,82,83,,,,,,,1.10,0.60,0.92,2*00
$GNGSA,A,3,21,33,13,19,04,01,,,,,,,1.10,0.60,0.92,3*02
$GNGSA,A,3,16,10,27,07,30,09,08,,,,,,1.10,0.60,0.92,4*0F
$GPGSV,3,1,10,01,41,170,24,04,21,197,12,07,55,321,10,08,55,010,25,1*60
$GPGSV,3,2,10,09,29,234,32,16,17,076,23,21,60,135,22,27,25,036,20,1*64
$GPGSV,3,3,10,30,17,320,11,41,46,238,31,1*6D
$GPGSV,1,1,04,01,41,170,20,08,55,010,19,09,29,234,29,27,25,036,18,6*64
$GPGSV,2,1,07,03,00,177,,14,03,291,,17,05,234,,22,07,152,,0*68
$GPGSV,2,2,07,22,07,152,,26,02,096,,40,20,257,,0*5C
$GLGSV,2,1,06,73,38,348,19,79,13,117,16,80,53,067,18,82,25,026,14,1*73
$GLGSV,2,2,06,83,74,029,25,84,40,205,07,1*72
$GLGSV,2,1,06,73,38,348,22,79,13,117,17,80,53,067,11,82,25,026,13,3*76
$GLGSV,2,2,06,83,74,029,34,84,40,205,12,3*74
$GLGSV,1,1,02,71,02,267,,74,00,321,,0*7F
$GAGSV,1,1,04,13,36,047,27,18,74,324,12,21,50,052,29,26,69,138,23,2*75
$GAGSV,3,1,09,01,41,335,20,04,16,275,15,13,36,047,31,18,74,324,16,7*72
$GAGSV,3,2,09,19,20,217,10,21,50,052,27,26,69,138,24,27,14,098,13,7*74
$GAGSV,3,3,09,33,29,196,08,7*47
$GAGSV,1,1,01,31,01,301,,0*44
$GBGSV,2,1,06,07,56,011,21,09,50,220,25,10,50,325,14,27,71,026,40,1*79
$GBGSV,2,2,06,30,50,229,40,37,51,106,21,1*7F
$GBGSV,1,1,04,07,56,011,20,08,35,158,32,09,50,220,24,16,37,195,12,3*72
$GBGSV,3,1,11,01,47,123,,02,46,235,,03,62,189,,04,33,110,,0*70
$GBGSV,3,2,11,04,33,110,,05,23,254,,06,35,189,,13,22,180,,0*7E
$GBGSV,3,3,11,13,22,180,,20,01,208,,23,04,127,,0*44
$GNGLL,2218.07089,N,11410.73662,E,023307.00,A,D*7B
$GNGRS,023307.00,1,2.6,-3.6,2.3,-75.5,6.0,0.3,13.7,2.1,11.8,,,,1,1*47
$GNGRS,023307.00,1,,,,0.0,,,,,0.0,,,,1,5*51
$GNGRS,023307.00,1,5.1,-9.4,,,,11.4,,-4.5,,,,,1,6*6E
$GNGRS,023307.00,1,3.1,-13.9,7.2,7.1,-24.6,-2.7,,,,,,,2,1*74
$GNGRS,023307.00,1,-54.3,-24.1,-11.1,-6.8,-37.5,-3.0,,,,,,,2,3*5C
$GNGRS,023307.00,1,0.9,0.0,0.9,0.0,0.0,0.0,,,,,,,3,2*54
$GNGRS,023307.00,1,0.8,9.7,-0.6,12.5,-110,-90.0,,,,,,,3,7*6D
$GNGRS,023307.00,1,,-94.8,1.6,-3.2,1.9,1.2,,,,,,,4,1*46
$GNGRS,023307.00,1,-21.8,,0.0,1.8,0.0,1.3,5.1,,,,,,4,3*4B
$GNGST,023307.00,273311,11,5.5,134,3.6,3.6,6.6*51
$GNZDA,023307.00,17,05,2021,00,00*7F
$GNGBS,023307.00,3.6,3.6,6.6,,,,,,*5A
$GNVLW,,N,,N,0.000,N,0.000,N*44
$PUBX,00,023307.00,2218.07089,N,11410.73662,E,6.918,D3,5.1,6.6,14.445,227.31,0.035,,0.60,0.92,0.65,28,0,0*6F
$PUBX,03,32,1,U,170,41,24,000,3,-,177,00,,000,4,e,197,21,12,000,7,U,321,55,10,000,8,U,010,55,25,000,9,U,234,29,32,054,14,-,291,03,,000,16,U,076,17,23,000,17,-,234,05,,000,21,U,135,60,22,000,22,-,152,07,,000,26,-,096,02,,000,27,U,036,25,20,000,30,U,320,17,11,000,127,-,257,20,,000,128,-,238,46,31,064,132,-,225,55,,000,137,-,149,60,,000,211,U,335,41,20,000,214,U,275,16,15,000,223,U,047,36,31,063,228,e,324,74,,000,229,U,217,20,10,000,231,U,052,50,27,002,236,e,138,69,,000,237,e,098,14,,000,241,-,301,01,,000,243,U,196,29,08,000,159,-,123,47,,000,160,-,235,46,,000,161,-,189,62,,000,162,-,110,33,,000*14
$PUBX,04,023307.00,170521,95587.00,2158,18,919434,329.910,08*27
$GNRMC,023308.00,A,2218.06948,N,11410.73495,E,7.428,227.02,170521,,,D,V*0A
$GNVTG,227.02,T,,M,7.428,N,13.757,K,D*1D
$GNGNS,023308.00,2218.06948,N,11410.73495,E,DDDD,28,0.55,8.5,-1.6,,0000,V*06
$GNGGA,023308.00,2218.06948,N,11410.73495,E,2,12,0.55,8.5,M,-1.6,M,,0000*5C
$GNGSA,A,3,09,01,07,21,27,30,08,16,,,,,0.98,0.55,0.81,1*0C
$GNGSA,A,3,73,79,84,80,82,83,,,,,,,0.98,0.55,0.81,2*05
$GNGSA,A,3,26,21,33,13,19,01,27,,,,,,0.98,0.55,0.81,3*02
$GNGSA,A,3,10,27,07,37,30,09,08,,,,,,0.98,0.55,0.81,4*09
$GPGSV,3,1,10,01,41,170,22,04,21,197,10,07,55,321,11,08,55,010,21,1*61
$GPGSV,3,2,10,09,29,234,30,16,17,076,21,21,60,135,25,27,25,036,18,1*68
$GPGSV,3,3,10,30,17,320,10,41,46,238,29,1*65
$GPGSV,1,1,04,01,41,170,19,08,55,010,15,09,29,234,28,27,25,036,16,6*6D
$GPGSV,2,1,07,03,00,177,,14,03,291,,17,05,234,,22,07,152,,0*68
$GPGSV,2,2,07,22,07,152,,26,02,096,,40,20,257,,0*5C
$GLGSV,2,1,06,73,38,348,17,79,13,117,15,80,53,067,16,82,25,026,17,1*73
$GLGSV,2,2,06,83,74,029,24,84,40,205,08,1*7C
$GLGSV,2,1,06,73,38,348,21,79,13,117,17,80,53,067,15,82,25,026,14,3*76
$GLGSV,2,2,06,83,74,029,33,84,40,205,08,3*78
$GLGSV,1,1,02,71,02,267,,74,00,321,,0*7F
$GAGSV,1,1,03,13,36,047,27,21,50,052,30,26,69,138,25,2*40
$GAGSV,2,1,08,01,41,335,18,13,36,047,32,18,74,324,15,19,20,217,09,7*79
$GAGSV,2,2,08,21,50,052,29,26,69,138,27,27,14,098,12,33,29,196,12,7*71
$GAGSV,1,1,02,04,16,275,,31,01,301,,0*74
$GBGSV,2,1,07,06,35,189,15,07,56,011,19,09,50,220,27,10,50,325,14,1*76
$GBGSV,2,2,07,27,71,026,35,30,50,229,40,37,51,106,19,1*44
$GBGSV,1,1,03,07,56,011,17,08,35,158,19,09,50,220,24,3*45
$GBGSV,3,1,11,01,47,123,,02,46,235,,03,62,189,,04,33,110,,0*70
$GBGSV,3,2,11,04,33,110,,05,23,254,,13,22,180,,16,37,195,,0*70
$GBGSV,3,3,11,16,37,195,,20,01,208,,23,04,127,,0*41
$GNGLL,2218.06948,N,11410.73495,E,023308.00,A,D*7B
$GNGRS,023308.00,1,2.8,-4.5,2.0,4.1,1.9,13.7,-3.1,11.9,,,,,1,1*50
$GNGRS,023308.00,1,,,0.0,0.0,,0.0,,0.0,,,,,1,5*5E
$GNGRS,023308.00,1,5.0,-7.0,,,10.7,,-7.3,,,,,,1,6*6D
$GNGRS,023308.00,1,0.6,-15.9,7.6,6.5,-25.1,-2.9,,,,,,,2,1*70
$GNGRS,023308.00,1,-54.8,-25.5,-7.4,-8.7,-4.7,-3.1,,,,,,,2,3*5D
$GNGRS,023308.00,1,-1.4,1.3,0.0,1.2,0.0,0.0,0.0,,,,,,3,2*5C
$GNGRS,023308.00,1,-0.2,-0.9,10.2,-0.1,13.4,-88.3,-11.0,,,,,,3,7*51
$GNGRS,023308.00,1,-92.9,1.5,-1.8,-5.3,2.0,3.9,,,,,,,4,1*43
$GNGRS,023308.00,1,,,1.0,,,1.5,4.7,,,,,,4,3*75
$GNGST,023308.00,392915,11,5.5,134,3.6,3.7,6.6*5F
$GNZDA,023308.00,17,05,2021,00,00*70
$GNGBS,023308.00,3.6,3.7,6.6,,,,,,*54
$GNVLW,,N,,N,0.000,N,0.000,N*44
$PUBX,00,023308.00,2218.06948,N,11410.73495,E,6.852,D3,5.1,6.6,13.757,227.02,0.033,,0.55,0.81,0.58,28,0,0*6B
$PUBX,03,32,1,U,170,41,22,000,3,-,177,00,,000,4,e,197,21,,000,7,U,321,55,11,000,8,U,010,55,21,000,9,U,234,29,30,055,14,-,291,03,,000,16,U,076,17,21,000,17,-,234,05,,000,21,U,135,60,25,000,22,-,152,07,,000,26,-,096,02,,000,27,U,036,25,18,000,30,U,320,17,10,000,127,-,257,20,,000,128,-,238,46,29,000,132,-,225,55,,000,137,-,149,60,,000,211,e,335,41,18,000,214,e,275,16,,000,223,U,047,36,32,064,228,e,324,74,,000,229,U,217,20,09,000,231,U,052,50,29,003,236,U,138,69,27,000,237,U,098,14,12,000,241,-,301,01,,000,243,U,196,29,12,000,159,-,123,47,,000,160,-,235,46,,000,161,-,189,62,,000,162,-,110,33,,000*12
$PUBX,04,023308.00,170521,95588.00,2158,18,919764,329.861,08*26
$GNRMC,023309.00,A,2218.06800,N,11410.73326,E,7.904,225.74,170521,,,D,V*09
$GNVTG,225.74,T,,M,7.904,N,14.638,K,D*12
$GNGNS,023309.00,2218.06800,N,11410.73326,E,DDDD,28,0.61,8.2,-1.6,,0000,V*05
$GNGGA,023309.00,2218.06800,N,11410.73326,E,2,12,0.61,8.2,M,-1.6,M,,0000*5F
$GNGSA,A,3,09,04,01,07,21,27,30,08,16,,,,1.07,0.61,0.88,1*01
$GNGSA,A,3,73,79,84,80,82,83,,,,,,,1.07,0.61,0.88,2*0C
$GNGSA,A,3,26,21,33,13,19,01,27,,,,,,1.07,0.61,0.88,3*0B
$GNGSA,A,3,10,27,07,30,09,08,,,,,,,1.07,0.61,0.88,4*04
$GPGSV,3,1,10,01,41,170,23,04,21,197,12,07,55,321,17,08,55,010,17,1*61
$GPGSV,3,2,10,09,29,234,24,16,17,076,19,21,60,135,25,27,25,036,18,1*66
$GPGSV,3,3,10,30,17,320,10,41,46,238,35,1*68
$GPGSV,1,1,04,01,41,170,18,08,55,010,13,09,29,234,27,27,25,036,13,6*60
$GPGSV,2,1,07,03,00,177,,14,03,291,,17,05,234,,22,07,152,,0*68
$GPGSV,2,2,07,22,07,152,,26,02,096,,40,20,257,,0*5C
$GLGSV,2,1,06,73,38,348,16,79,13,117,13,80,53,067,11,82,25,026,19,1*7D
$GLGSV,2,2,06,83,74,029,24,84,40,205,08,1*7C
$GLGSV,2,1,06,73,38,348,21,79,13,117,17,80,53,067,12,82,25,026,15,3*70
$GLGSV,2,2,06,83,74,029,34,84,40,205,09,3*7E
$GLGSV,1,1,02,71,02,267,,74,00,321,,0*7F
$GAGSV,1,1,03,13,36,047,28,21,50,052,29,26,69,138,25,2*47
$GAGSV,3,1,09,01,41,335,16,04,16,275,25,13,36,047,32,18,74,324,15,7*74
$GAGSV,3,2,09,19,20,217,17,21,50,052,29,26,69,138,18,27,14,098,11,7*70
$GAGSV,3,3,09,33,29,196,08,7*47
$GAGSV,1,1,01,31,01,301,,0*44
$GBGSV,2,1,07,06,35,189,15,07,56,011,16,09,50,220,27,10,50,325,13,1*7E
$GBGSV,2,2,07,27,71,026,39,30,50,229,38,37,51,106,18,1*46
$GBGSV,1,1,04,06,35,189,18,07,56,011,16,08,35,158,28,09,50,220,24,3*78
$GBGSV,3,1,11,01,47,123,,02,46,235,,03,62,189,,04,33,110,,0*70
$GBGSV,3,2,11,04,33,110,,05,23,254,,13,22,180,,16,37,195,,0*70
$GBGSV,3,3,11,16,37,195,,20,01,208,,23,04,127,,0*41
$GNGLL,2218.06800,N,11410.73326,E,023309.00,A,D*78
$GNGRS,023309.00,1,2.4,-78.1,-7.1,-34.8,1.6,2.6,13.7,-4.5,12.5,,,,1,1*75
$GNGRS,023309.00,1,,0.0,,0.0,0.0,,0.0,,,,,,1,5*5F
$GNGRS,023309.00,1,4.8,,-7.6,,,13.2,,-8.6,,,,,1,6*6F
$GNGRS,023309.00,1,-0.9,-15.5,-138,5.5,-26.4,-3.4,,,,,,,2,1*6E
$GNGRS,023309.00,1,-54.7,-26.6,-6.7,-9.4,-6.2,-3.0,,,,,,,2,3*55
$GNGRS,023309.00,1,-1.9,2.1,0.0,0.6,,0.0,0.0,,,,,,3,2*7A
$GNGRS,023309.00,1,-0.3,1.7,-25.3,0.5,-58.1,-89.6,-12.4,,,,,,3,7*54
$GNGRS,023309.00,1,-89.3,1.2,-2.1,2.1,4.0,,,,,,,,4,1*45
$GNGRS,023309.00,1,0.0,0.0,2.8,0.0,1.1,6.3,,,,,,,4,3*53
$GNGST,023309.00,178969,12,5.5,134,3.6,3.7,6.6*50
$GNZDA,023309.00,17,05,2021,00,00*71
$GNGBS,023309.00,3.6,3.7,6.6,,,,,,*55
$GNVLW,,N,,N,0.000,N,0.000,N*44
$PUBX,00,023309.00,2218.06800,N,11410.73326,E,6.581,D3,5.2,6.6,14.638,225.74,0.041,,0.61,0.88,0.64,28,0,0*60
$PUBX,03,32,1,U,170,41,23,000,3,-,177,00,,000,4,e,197,21,12,000,7,U,321,55,17,000,8,U,010,55,17,000,9,U,234,29,24,000,14,-,291,03,,000,16,U,076,17,19,000,17,-,234,05,,000,21,U,135,60,25,000,22,-,152,07,,000,26,-,096,02,,000,27,U,036,25,18,000,30,U,320,17,10,000,127,-,257,20,,000,128,-,238,46,35,000,132,-,225,55,,000,137,-,149,60,,000,211,U,335,41,16,000,214,e,275,16,,000,223,U,047,36,32,064,228,e,324,74,,000,229,e,217,20,17,000,231,U,052,50,29,004,236,U,138,69,18,000,237,U,098,14,11,000,241,-,301,01,,000,243,e,196,29,08,000,159,-,123,47,,000,160,-,235,46,,000,161,-,189,62,,000,162,-,110,33,,000*22
$PUBX,04,023309.00,170521,95589.00,2158,18,920093,329.946,08*27
$GNRMC,023310.00,A,2218.06540,N,11410.73261,E,8.674,203.99,170521,,,D,V*0A
$GNVTG,203.99,T,,M,8.674,N,16.064,K,D*1F
$GNGNS,023310.00,2218.06540,N,11410.73261,E,DDDD,28,0.57,8.3,-1.6,,0000,V*02
$GNGGA,023310.00,2218.06540,N,11410.73261,E,2,12,0.57,8.3,M,-1.6,M,,0000*58
$GNGSA,A,3,09,04,01,07,21,27,30,08,16,,,,1.02,0.57,0.85,1*0C
$GNGSA,A,3,73,79,84,80,82,83,,,,,,,1.02,0.57,0.85,2*01
$GNGSA,A,3,26,21,33,13,19,01,04,,,,,,1.02,0.57,0.85,3*07
$GNGSA,A,3,10,27,07,30,09,08,,,,,,,1.02,0.57,0.85,4*09
$GPGSV,3,1,10,01,41,170,22,04,21,197,14,07,55,321,39,08,55,010,17,1*6A
$GPGSV,3,2,10,09,29,234,21,16,17,076,21,21,60,135,25,27,25,036,19,1*69
$GPGSV,3,3,10,30,17,320,23,41,46,238,27,1*6B
$GPGSV,1,1,01,07,55,321,31,5*54
$GPGSV,1,1,04,01,41,170,17,08,55,010,13,09,29,234,23,27,25,036,13,6*6B
$GPGSV,2,1,07,03,00,177,,14,03,291,,17,05,234,,22,07,152,,0*68
$GPGSV,2,2,07,22,07,152,,26,02,096,,40,20,257,,0*5C
$GLGSV,2,1,06,73,38,348,18,79,13,117,12,80,53,067,18,82,25,026,19,1*7B
$GLGSV,2,2,06,83,74,029,21,84,40,205,06,1*77
$GLGSV,2,1,06,73,38,348,24,79,13,117,16,80,53,067,14,82,25,026,14,3*73
$GLGSV,2,2,06,83,74,029,20,84,40,205,11,3*72
$GLGSV,1,1,02,71,02,267,,74,00,321,,0*7F
$GAGSV,1,1,04,13,36,047,24,18,74,324,32,21,50,052,24,26,69,138,22,2*78
$GAGSV,2,1,08,01,41,335,13,04,16,275,25,18,74,324,35,19,20,217,15,7*7C
$GAGSV,2,2,08,21,50,052,26,26,69,138,18,27,14,098,08,33,29,196,11,7*7A
$GAGSV,1,1,01,31,01,301,,0*44
$GBGSV,2,1,06,06,35,189,14,07,56,011,16,09,50,220,25,10,50,325,12,1*7D
$GBGSV,2,2,06,27,71,026,29,30,50,229,27,1*76
$GBGSV,2,1,05,06,35,189,18,07,56,011,16,08,35,158,36,09,50,220,22,3*73
$GBGSV,2,2,05,10,50,325,16,3*46
$GBGSV,3,1,12,01,47,123,,02,46,235,,03,62,189,,04,33,110,,0*73
$GBGSV,3,2,12,04,33,110,,05,23,254,,13,22,180,,16,37,195,,0*73
$GBGSV,3,3,12,16,37,195,,20,01,208,,23,04,127,,28,18,038,,0*7A
$GNGLL,2218.06540,N,11410.73261,E,023310.00,A,D*7B
$GNGRS,023310.00,1,-3.1,-82.6,-11.2,2.2,1.5,0.8,16.3,-7.5,11.2,,,,1,1*79
$GNGRS,023310.00,1,,0.0,,11.9,,,,,0.0,,,,1,5*40
$GNGRS,023310.00,1,4.9,,-9.3,,,17.0,,-4.2,,,,,1,6*63
$GNGRS,023310.00,1,-1.5,-17.0,6.6,4.0,-22.5,-2.6,,,,,,,2,1*57
$GNGRS,023310.00,1,-52.8,-26.4,-79.4,-11.1,-80.7,-3.3,,,,,,,2,3*69
$GNGRS,023310.00,1,-5.1,-2.5,0.0,0.5,0.0,0.0,0.0,,,,,,3,2*7A
$GNGRS,023310.00,1,-4.5,-0.4,8.7,,12.2,-84.2,-33.4,,,,,,3,7*66
$GNGRS,023310.00,1,-85.3,1.5,-1.7,1.8,4.0,,,,,,,,4,1*49
$GNGRS,023310.00,1,-8.5,0.0,4.1,0.0,-0.2,6.1,,,,,,,4,3*59
$GNGST,023310.00,172874,12,5.6,134,3.6,3.7,6.6*5C
$GNZDA,023310.00,17,05,2021,00,00*79
$GNGBS,023310.00,3.6,3.7,6.6,,,,,,*5D
$GNVLW,,N,,N,0.000,N,0.000,N*44
$PUBX,00,023310.00,2218.06540,N,11410.73261,E,6.679,D3,5.2,6.6,16.064,203.99,0.043,,0.57,0.85,0.59,28,0,0*69
$PUBX,03,32,1,U,170,41,22,000,3,-,177,00,,000,4,e,197,21,14,000,7,U,321,55,39,000,8,U,010,55,17,000,9,U,234,29,21,000,14,-,291,03,,000,16,U,076,17,21,000,17,-,234,05,,000,21,U,135,60,25,000,22,-,152,07,,000,26,-,096,02,,000,27,U,036,25,19,000,30,U,320,17,23,000,127,-,257,20,,000,128,-,238,46,27,000,132,-,225,55,,000,137,-,149,60,,000,211,e,335,41,13,000,214,U,275,16,25,000,223,e,047,36,,000,228,e,324,74,,000,229,U,217,20,15,000,231,U,052,50,26,000,236,U,138,69,18,000,237,e,098,14,,000,241,-,301,01,,000,243,U,196,29,11,000,159,-,123,47,,000,160,-,235,46,,000,161,-,189,62,,000,162,-,110,33,,000*25
$PUBX,04,023310.00,170521,95590.00,2158,18,920424,330.035,08*2A
$GNRMC,023311.00,A,2218.06313,N,11410.73260,E,8.076,182.77,170521,,,D,V*04
$GNVTG,182.77,T,,M,8.076,N,14.956,K,D*1B
$GNGNS,023311.00,2218.06313,N,11410.73260,E,DDDD,27,0.57,8.7,-1.6,,0000,V*09
$GNGGA,023311.00,2218.06313,N,11410.73260,E,2,12,0.57,8.7,M,-1.6,M,,0000*5C
$GNGSA,A,3,09,04,01,07,21,27,30,08,16,,,,1.01,0.57,0.83,1*09
$GNGSA,A,3,73,79,84,80,82,83,,,,,,,1.01,0.57,0.83,2*04
$GNGSA,A,3,26,21,27,13,19,01,04,,,,,,1.01,0.57,0.83,3*07
$GNGSA,A,3,10,27,07,30,09,08,,,,,,,1.01,0.57,0.83,4*0C
$GPGSV,3,1,09,01,41,170,25,04,21,197,15,07,55,321,25,08,55,010,19,1*67
$GPGSV,3,2,09,09,29,234,33,16,17,076,22,21,60,135,39,27,25,036,21,1*67
$GPGSV,3,3,09,30,17,320,23,1*58
$GPGSV,1,1,01,30,17,320,19,5*5D
$GPGSV,2,1,05,01,41,170,21,07,55,321,09,08,55,010,12,09,29,234,21,6*64
$GPGSV,2,2,05,27,25,036,14,6*54
$GPGSV,2,1,08,03,00,177,,14,03,291,,17,05,234,,22,07,152,,0*67
$GPGSV,2,2,08,22,07,152,,26,02,096,,40,20,257,,41,46,238,,0*6D
$GLGSV,2,1,06,73,38,348,19,79,13,117,11,80,53,067,30,82,25,026,17,1*7D
$GLGSV,2,2,06,83,74,029,18,84,40,205,12,1*78
$GLGSV,2,1,06,73,38,348,21,79,13,117,16,80,53,067,21,82,25,026,10,3*74
$GLGSV,2,2,06,83,74,029,16,84,40,205,17,3*71
$GLGSV,1,1,02,71,02,267,,74,00,321,,0*7F
$GAGSV,1,1,04,13,36,047,20,18,74,324,24,21,50,052,20,26,69,138,30,2*7C
$GAGSV,2,1,08,01,41,335,12,04,16,275,23,13,36,047,17,18,74,324,25,7*72
$GAGSV,2,2,08,19,20,217,11,21,50,052,24,26,69,138,33,27,14,098,10,7*73
$GAGSV,1,1,02,31,01,301,,33,29,196,,0*72
$GBGSV,2,1,06,06,35,189,15,07,56,011,16,09,50,220,21,10,50,325,15,1*7F
$GBGSV,2,2,06,27,71,026,21,30,50,229,19,1*73
$GBGSV,2,1,06,06,35,189,17,07,56,011,12,08,35,158,35,09,50,220,17,3*7E
$GBGSV,2,2,06,10,50,325,18,16,37,195,17,3*73
$GBGSV,3,1,11,01,47,123,,02,46,235,,03,62,189,,04,33,110,,0*70
$GBGSV,3,2,11,04,33,110,,05,23,254,,13,22,180,,20,01,208,,0*77
$GBGSV,3,3,11,20,01,208,,23,04,127,,28,18,038,,0*47
$GNGLL,2218.06313,N,11410.73260,E,023311.00,A,D*7B
$GNGRS,023311.00,1,-9.6,-85.6,-12.1,2.3,3.1,-3.4,14.4,-10.5,10.7,,,,1,1*60
$GNGRS,023311.00,1,,,,,0.0,,6.4,,0.0,,,,1,5*7A
$GNGRS,023311.00,1,3.5,,-10.4,2.1,,19.0,,0.8,,,,,1,6*56
$GNGRS,023311.00,1,-0.3,-20.4,6.3,3.0,-17.8,-1.3,,,,,,,2,1*5E
$GNGRS,023311.00,1,-50.7,-25.6,-7.5,-9.7,-4.9,-6.7,,,,,,,2,3*50
$GNGRS,023311.00,1,1.2,-7.1,0.0,6.2,0.0,0.0,0.0,,,,,,3,2*51
$GNGRS,023311.00,1,2.8,0.7,-20.0,-28.5,12.9,-80.7,-38.3,,,,,,3,7*45
$GNGRS,023311.00,1,-77.8,0.3,-0.7,-1.6,1.7,,,,,,,,4,1*69
$GNGRS,023311.00,1,-5.2,,8.5,,5.9,5.4,,,,,,,4,3*7F
$GNGST,023311.00,301199,12,6.0,133,3.6,3.8,6.7*5D
$GNZDA,023311.00,17,05,2021,00,00*78
$GNGBS,023311.00,3.6,3.8,6.7,,,,,,*52
$GNVLW,,N,,N,0.000,N,0.000,N*44
$PUBX,00,023311.00,2218.06313,N,11410.73260,E,7.063,D3,5.2,6.7,14.956,182.77,0.014,,0.57,0.83,0.59,27,0,0*6F
$PUBX,03,32,1,U,170,41,25,000,3,-,177,00,,000,4,e,197,21,15,000,7,U,321,55,25,000,8,U,010,55,19,000,9,U,234,29,33,000,14,-,291,03,,000,16,U,076,17,22,000,17,-,234,05,,000,21,U,135,60,39,000,22,-,152,07,,000,26,-,096,02,,000,27,U,036,25,21,000,30,U,320,17,23,000,127,-,257,20,,000,128,-,238,46,,000,132,-,225,55,,000,137,-,149,60,,000,211,e,335,41,12,000,214,e,275,16,23,000,223,e,047,36,17,000,228,e,324,74,,000,229,U,217,20,11,000,231,U,052,50,24,000,236,U,138,69,33,000,237,U,098,14,10,000,241,-,301,01,,000,243,e,196,29,,000,159,-,123,47,,000,160,-,235,46,,000,161,-,189,62,,000,162,-,110,33,,000*1C
$PUBX,04,023311.00,170521,95591.00,2158,18,920754,328.770,08*21
$GNRMC,023312.00,A,2218.06157,N,11410.73508,E,8.539,136.93,170521,,,D,V*07
$GNVTG,136.93,T,,M,8.539,N,15.815,K,D*17
$GNGNS,023312.00,2218.06157,N,11410.73508,E,DDDD,26,0.66,8.5,-1.6,,0000,V*00
$GNGGA,023312.00,2218.06157,N,11410.73508,E,2,12,0.66,8.5,M,-1.6,M,,0000*54
$GNGSA,A,3,09,01,07,21,27,30,08,16,,,,,1.24,0.66,1.04,1*06
$GNGSA,A,3,73,79,84,80,82,83,,,,,,,1.24,0.66,1.04,2*0F
$GNGSA,A,3,26,21,13,01,04,,,,,,,,1.24,0.66,1.04,3*01
$GNGSA,A,3,10,27,07,30,09,08,06,,,,,,1.24,0.66,1.04,4*01
$GPGSV,3,1,09,01,42,169,32,07,55,321,24,08,55,010,33,09,29,234,32,1*69
$GPGSV,3,2,09,16,17,076,22,21,60,135,36,27,25,036,22,30,17,320,26,1*6C
$GPGSV,3,3,09,41,46,238,39,1*59
$GPGSV,1,1,01,30,17,320,21,5*56
$GPGSV,2,1,05,01,42,169,22,07,55,321,14,08,55,010,28,09,29,234,29,6*61
$GPGSV,2,2,05,27,25,036,16,6*56
$GPGSV,2,1,08,03,00,177,,04,21,197,,14,03,291,,17,05,234,,0*6E
$GPGSV,2,2,08,17,05,234,,22,07,152,,26,02,096,,40,20,257,,0*65
$GLGSV,2,1,06,73,38,348,19,79,13,117,09,80,53,067,31,82,25,026,17,1*75
$GLGSV,2,2,06,83,74,029,20,84,40,205,10,1*71
$GLGSV,2,1,06,73,38,348,21,79,13,117,16,80,53,067,33,82,25,026,13,3*74
$GLGSV,2,2,06,83,74,029,32,84,40,205,13,3*73
$GLGSV,1,1,02,71,02,267,,74,00,321,,0*7F
$GAGSV,1,1,04,13,36,047,33,18,74,324,38,21,50,052,31,26,69,138,35,2*76
$GAGSV,2,1,07,01,41,335,12,04,16,275,20,13,36,047,34,18,74,324,37,7*7C
$GAGSV,2,2,07,21,50,052,37,26,69,138,37,33,29,196,18,7*48
$GAGSV,1,1,03,19,20,217,,27,14,098,,31,01,301,,0*49
$GBGSV,2,1,07,06,35,189,19,07,56,011,26,09,50,220,16,10,50,325,16,1*76
$GBGSV,2,2,07,16,37,195,19,27,71,026,41,30,50,229,29,1*41
$GBGSV,1,1,04,07,56,011,17,08,35,158,31,10,50,325,18,16,37,195,18,3*7C
$GBGSV,3,1,11,01,47,123,,02,46,235,,03,62,189,,04,33,110,,0*70
$GBGSV,3,2,11,04,33,110,,05,23,254,,13,22,180,,20,01,208,,0*77
$GBGSV,3,3,11,20,01,208,,23,04,127,,28,18,038,,0*47
$GNGLL,2218.06157,N,11410.73508,E,023312.00,A,D*73
$GNGRS,023312.00,1,0.4,-13.1,-0.8,4.9,-2.8,9.8,-12.5,7.9,,,,,1,1*50
$GNGRS,023312.00,1,,,,0.0,,4.6,,,,,,,1,5*57
$GNGRS,023312.00,1,4.0,-10.4,1.2,,19.5,,0.5,,,,,,1,6*5F
$GNGRS,023312.00,1,1.1,-27.0,-27.8,1.3,-15.7,-1.5,,,,,,,2,1*6F
$GNGRS,023312.00,1,-44.2,-29.9,-4.6,-9.4,-8.7,-11.4,,,,,,,2,3*64
$GNGRS,023312.00,1,3.0,2.6,0.6,0.0,0.0,,,,,,,,3,2*7F
$GNGRS,023312.00,1,5.8,3.0,1.0,-75.2,-42.2,,,,,,,,3,7*70
$GNGRS,023312.00,1,-69.5,-0.9,-2.0,3.5,1.4,,-39.9,,,,,,4,1*55
$GNGRS,023312.00,1,-7.6,0.0,5.1,0.0,,6.2,,,,,,,4,3*54
$GNGST,023312.00,256497,11,6.0,133,3.6,3.7,6.6*5B
$GNZDA,023312.00,17,05,2021,00,00*7B
$GNGBS,023312.00,3.6,3.7,6.6,,,,,,*5F
$GNVLW,,N,,N,0.000,N,0.000,N*44
$PUBX,00,023312.00,2218.06157,N,11410.73508,E,6.855,D3,5.2,6.6,15.815,136.93,0.028,,0.66,1.04,0.77,26,0,0*66
$PUBX,03,32,1,U,169,42,32,000,3,-,177,00,,000,4,e,197,21,,000,7,U,321,55,24,000,8,U,010,55,33,000,9,U,234,29,32,000,14,-,291,03,,000,16,U,076,17,22,000,17,-,234,05,,000,21,U,135,60,36,000,22,-,152,07,,000,26,-,096,02,,000,27,U,036,25,22,000,30,U,320,17,26,000,127,-,257,20,,000,128,-,238,46,39,000,132,-,225,55,,000,137,-,149,60,,000,211,e,335,41,12,000,214,e,275,16,20,000,223,U,047,36,34,000,228,e,324,74,,000,229,e,217,20,,000,231,U,052,50,37,000,236,U,138,69,37,000,237,e,098,14,,000,241,-,301,01,,000,243,e,196,29,18,000,159,-,123,47,,000,160,-,235,46,,000,161,-,189,62,,000,162,-,110,33,,000*22
$PUBX,04,023312.00,170521,95592.00,2158,18,921083,329.670,08*2D
$GNRMC,023313.00,A,2218.05966,N,11410.73713,E,9.292,135.04,170521,,,D,V*0D
$GNVTG,135.04,T,,M,9.292,N,17.209,K,D*18
$GNGNS,023313.00,2218.05966,N,11410.73713,E,DDDD,25,0.64,8.4,-1.6,,0000,V*00
$GNGGA,023313.00,2218.05966,N,11410.73713,E,2,12,0.64,8.4,M,-1.6,M,,0000*57
$GNGSA,A,3,09,01,07,50,21,27,30,08,16,,,,1.22,0.64,1.04,1*07
$GNGSA,A,3,73,79,84,80,82,83,,,,,,,1.22,0.64,1.04,2*0B
