     3.03           OBSERVATION DATA    M: Mixed            RINEX VERSION / TYPE
RTKCONV demo5 b33c                      20210520 090239 UTC PGM / RUN BY / DATE 
log: C:\Users\Ivan_PolyU_Dktp\Dropbox\HUAWEI Exp\20210517_  COMMENT             
format: RINEX                                               COMMENT             
Geo++                                                       MARKER NAME         
                                                            MARKER NUMBER       
                                                            MARKER TYPE         
                                                            OBSERVER / AGENCY   
unknown             Google              Pixel 4             REC # / TYPE / VERS 
unknown             Pixel 4                                 ANT # / TYPE        
 -2419229.7018  5385470.4249  2405344.1980                  APPROX POSITION XYZ 
        0.0000        0.0000        0.0000                  ANTENNA: DELTA H/E/N
G    8 C1C L1C D1C S1C C5Q L5Q D5Q S5Q                      SYS / # / OBS TYPES 
R    4 C1C L1C D1C S1C                                      SYS / # / OBS TYPES 
E    8 C1C L1C D1C S1C C5Q L5Q D5Q S5Q                      SYS / # / OBS TYPES 
J    8 C1C L1C D1C S1C C5Q L5Q D5Q S5Q                      SYS / # / OBS TYPES 
  2021     5    17     2    33   13.4446064     GPS         TIME OF FIRST OBS   
  2021     5    17     2    46   18.4446844     GPS         TIME OF LAST OBS    
G                                                           SYS / PHASE SHIFT   
R                                                           SYS / PHASE SHIFT   
E                                                           SYS / PHASE SHIFT   
J                                                           SYS / PHASE SHIFT   
  3 R01  1 R09 -2 R17  4                                    GLONASS SLOT / FRQ #
 C1C    0.000 C1P    0.000 C2C    0.000 C2P    0.000        GLONASS COD/PHS/BIS 
                                                            END OF HEADER       
> 2021  5 17  2 33 13.4446064  0  9                     
E 1  25367689.971 1                      1556.000          22.500                                                                  
E26  23015766.273 1                      1204.300          24.250    23013655.735 1                       900.100          21.000  
G 1  21535527.222 1                      3331.250          24.250                                                                  
G 8  21048989.245 1                     -1685.950          17.000                                                                  
G 9  22982617.022 1 120774427.177 1     -1775.092          34.000                                                                  
G16  24268996.480 1                     -1485.850          20.500                                                                  
G21  20575739.269 1 108126203.745 1      1076.232          27.250                                                                  
J 2                                                                  38520080.960 1 151161071.17411      1002.842          24.000  
J 3  38627361.091 1                      -590.600          17.000                                                                  
> 2021  5 17  2 33 14.4446066  0  7                     
E 1  25367436.266 1                      1564.350          26.000                                                                  
E26  23015615.397 1                      1205.000          25.000                                                                  
G 1  21534958.735 1                      3329.950          25.250                                                                  
G 9  22983005.772 1 120776517.031 1     -1774.417          33.750                                                                  
G16  24269355.551 1                     -1486.000          22.250                                                                  
G21  20575605.481 1 108125442.333 1      1076.461          27.500                                                                  
J 2                                                                  38519887.513 1                      1006.600          23.500  
> 2021  5 17  2 33 15.4446067  0  7                     
E 1  25367175.082 1                      1560.050          24.500    25365077.734 1                      1163.750          18.500  
E26  23015409.375 1                      1205.250          22.500    23013291.941 1                       899.000          20.250  
G 1  21534341.097 1                      3329.700          25.250                                                                  
G 9  22983368.457 1 120778449.741 1     -1774.331          33.500                                                                  
G16  24269687.656 1                     -1484.650          22.750                                                                  
G21  20575418.046 1 108124523.59511      1076.386          26.500                                                                  
J 2                                                                  38519660.206 1 151159420.01511      1003.919          24.000  
> 2021  5 17  2 33 16.4446069  0  7                     
E 1  25366945.030 1                      1554.750          25.500    25364836.290 1                      1164.450          22.500  
E26  23015237.783 1                      1200.000          24.500                                                                  
G 1  21533768.084 1                      3327.550          25.250                                                                  
G 9  22983776.364 1 120780541.344 1     -1776.566          33.500                                                                  
G16  24269972.649 1                     -1489.300          24.000                                                                  
G21  20575268.939 1 108123764.20911      1074.508          26.500                                                                  
J 2                                                                  38519466.130 1                       999.650          23.750  
> 2021  5 17  2 33 17.4446071  0  8                     
E 1  25366710.760 1                      1557.200          26.000                                                                  
E26  23015066.470 1                      1198.800          24.500                                                                  
G 1  21533198.046 1 113157718.90911      3326.633          25.750                                                                  
G 9  22984165.062 1 120782632.926 1     -1776.969          33.500                                                                  
G16  24270334.665 1                     -1489.050          24.500                                                                  
G21  20575146.791 1 108123005.71411      1072.962          26.500                                                                  
J 2                                                                  38519267.534 1 151157878.77511      1002.308          24.500  
J 3  38628068.513 1                      -594.850          17.250                                                                  
> 2021  5 17  2 33 18.4446072  0  8                     
E 1  25366450.295 1                      1561.300          26.000                                                                  
E26  23014876.455 1                      1206.050          24.500    23012752.126 1                       897.550          19.000  
G 1  21532582.626 1                      3329.450          24.750                                                                  
G 9  22984542.855 1 120784565.096 1     -1774.709          34.000                                                                  
G16  24270680.680 1                     -1483.550          23.750                                                                  
G21  20574947.783 1 108122088.13511      1074.871          26.750                                                                  
J 2                                                                  38519044.543 1                      1005.900          23.250  
R15  23291283.603 1                     -2165.100          14.750  
> 2021  5 17  2 33 19.4446074  0  9                     
E 1  25366207.148 1                      1560.000          26.250    25364101.706 1                      1166.900          20.000  
E13  25292677.352 1                     -1556.000          18.250                                                                  
E26  23014711.255 1                      1200.500          24.500                                                                  
G 1  21532022.599 1 113151542.23711      3328.737          27.250                                                                  
G 9  22984940.365 1 120786655.576 1     -1774.557          34.500                                                                  
G16  24271033.221 1                     -1480.150          24.750                                                                  
G21  20574820.057 1 108121329.24111      1074.589          26.000                                                                  
G27  23194905.709 1                     -2829.300          15.250                                                                  
J 2                                                                  38518849.364 1 151156237.75611      1004.630          23.000  
> 2021  5 17  2 33 20.4446075  0  7                     
E 1  25365929.966 1                      1558.700          23.250                                                                  
E26  23014510.220 1                      1200.450          26.000    23012383.493 1                       893.250          21.000  
G 1  21531418.344 1                      3326.400          23.750                                                                  
G 8  21051528.564 1                     -1678.700          15.500                                                                  
G 9  22985314.332 1 120788588.373 1     -1777.174          34.000                                                                  
G16  24271333.140 1                     -1485.450          25.250                                                                  
G21  20574643.305 1                      1069.450          24.750                                                                  
> 2021  5 17  2 33 21.4446076  0  9                     
E 1  25365685.132 1                      1556.000          22.000                                                                  
E13  25293350.908 1                     -1560.400          23.000                                                                  
G 1  21530804.765 1                      3324.300          25.250                                                                  
G 8  21051967.257 1                     -1673.150          22.250                                                                  
G 9  22985682.574 1 120790523.569 1     -1775.305          34.000                                                                  
G16  24271614.741 1                     -1487.950          24.000                                                                  
G21  20574462.627 1 108119530.78611      1069.086          28.000                                                                  
J 3  38628666.262 1                      -595.850          17.000                                                                  
R 9  21069289.865 1                      2904.450          14.250  
> 2021  5 17  2 33 22.4446078  0 10                     
E 1                                                                  25363323.563 1                      1163.250          20.000  
E13  25293665.886 1                     -1565.750          24.500    25291556.246 1                     -1170.000          16.750  
E26  23014150.462 1                      1201.100          19.250                                                                  
G 1  21530244.948 1 113142199.85611      3328.720          26.000                                                                  
G 4  23659996.352 1                     -2634.350          17.500                                                                  
G 9  22986071.900 1 120792610.096 1     -1768.757          33.500                                                                  
G16  24271998.072 1                     -1487.100          21.000                                                                  
G21  20574325.217 1 108118775.93311      1069.739          29.500                                                                  
G27  23196694.989 1                     -2824.400          19.500                                                                  
J 2                                                                  38518196.234 1                      1005.600          19.500  
> 2021  5 17  2 33 23.4446079  0  8                     
E 1  25365169.219 1                      1553.400          21.000    25363052.984 1                      1157.950          22.000  
E13  25294017.676 1                     -1576.550          23.000    25291879.856 1                     -1173.800          22.250  
E26                                                                  23011814.313 1                       894.150          19.000  
G 1  21529653.891 1 113139026.30711      3331.945          27.000                                                                  
G 8  21052670.600 1                     -1669.750          20.500                                                                  
G 9  22986435.083 1 120794532.251 1     -1762.616          31.250                                                                  
G21  20574145.176 1                      1069.300          25.250                                                                  
G27  23197286.613 1                     -2818.000          21.500                                                                  
> 2021  5 17  2 33 24.4446081  0 10                     
E 1  25364941.938 1                      1558.550          22.250                                                                  
E13  25294362.999 1                     -1574.000          25.750    25292236.870 1                     -1177.700          22.000  
E26  23013792.605 1                      1206.000          20.250                                                                  
G 1  21529064.760 1                      3329.950          24.500                                                                  
G 8  21053046.801 1                     -1664.500          21.750                                                                  
G 9  22986833.468 1 120796609.091 1     -1758.913          32.000                                                                  
G16  24272629.530 1                     -1497.900          22.000                                                                  
G21  20573999.738 1                      1070.200          25.000                                                                  
G27  23197911.642 1                     -2812.750          21.750                                                                  
J 2  38520116.500 1                      1338.800          18.500    38517781.416 1                       997.100          23.250  
> 2021  5 17  2 33 25.4446083  0  8                     
E13  25294726.268 1                     -1566.100          24.750    25292596.543 1                     -1173.450          24.000  
E26  23013601.858 1                      1202.450          22.000    23011477.529 1                       894.800          21.250  
G 1  21528514.862 1                      3332.000          22.250                                                                  
G 9  22987226.117 1 120798683.835 1     -1758.822          33.000                                                                  
G16  24272926.546 1                     -1492.550          23.750                                                                  
G21  20573863.254 1                      1074.650          23.250                                                                  
J 2  38519934.147 1                      1332.100          25.250    38517586.473 1                      1001.100          23.750  
J 3  38629322.419 1                      -596.650          19.000                                                                  
> 2021  5 17  2 33 26.4446084  0  9                     
E13  25295061.200 1                     -1560.550          23.000    25292926.078 1  99254874.12611     -1175.400          24.000  
E26                                                                  23011282.727 1                       900.150          23.000  
G 1  21527892.857 1                      3334.600          25.000                                                                  
G 8  21053797.466 1                     -1664.900          21.500                                                                  
G 9  22987594.326 1 120800599.58511     -1759.735          28.750                                                                  
G16  24273275.868 1                     -1481.000          23.750                                                                  
G21  20573705.927 1                      1074.500          21.500                                                                  
J 2  38519682.086 1                      1337.150          23.250                                                                  
J 3  38629452.593 1                      -598.150          23.250                                                                  
> 2021  5 17  2 33 27.4446086  0 12                     
E13  25295444.068 1                     -1547.700          24.000                                                                  
E26  23013243.103 1                      1203.600          20.250                                                                  
G 1  21527327.181 1                      3327.250          23.750                                                                  
G 7  21054941.507 1                      2446.800          27.000                                                                  
G 8  21054182.432 1                     -1673.750          23.750                                                                  
G 9  22988078.824 1                     -1767.750          24.250                                                                  
G16  24273690.513 1                     -1476.750          22.250                                                                  
G21  20573543.771 1                      1074.800          22.500                                                                  
G27  23199645.359 1                     -2822.150          19.750                                                                  
J 2                                                                  38517168.059 1                       999.150          21.000  
R 9  21066285.653 1                      2909.050          22.000  
R15  23295343.009 1                     -2172.200          14.250  
> 2021  5 17  2 33 28.4446087  0 11                     
E26  23013029.574 1                      1204.900          30.500                                                                  
G 1  21526725.421 1 113123705.17211      3333.914          29.500                                                                  
G 7  21054503.134 1 110642160.60711      2446.321          34.750                                                                  
G 8  21054518.423 1                     -1673.750          23.250                                                                  
G 9  22988397.726 1 120804844.64211     -1766.185          27.750                                                                  
G16  24273935.367 1                     -1484.750          25.000                                                                  
G21  20573360.522 1 108113738.54311      1074.895          32.000                                                                  
G27  23200231.077 1                     -2819.750          23.000                                                                  
G30  24114345.949 1                      3586.400          18.750                                                                  
J 2  38519298.008 1                      1343.550          21.500    38516949.134 1                      1001.950          22.500  
R 9  21065793.018 1                      2914.400          23.500  
> 2021  5 17  2 33 29.4446089  0 15                     
E 1  25363667.454 1                      1564.200          18.000                                                                  
E13  25296109.824 1                     -1559.150          33.500    25293968.706 1                     -1162.900          23.250  
E26  23012862.883 1 120933410.64011      1206.514          33.500    23010735.855 1                       902.050          24.500  
G 1  21526143.517 1 113120683.39911      3338.683          35.000                                                                  
G 4  23663845.417 1                     -2618.400          17.000                                                                  
G 7  21054116.395 1 110640023.86711      2454.619          30.500                                                                  
G 8  21054911.144 1 110644304.57911     -1670.619          27.500                                                                  
G 9  22988758.370 1 120806932.90411     -1780.278          30.000                                                                  
G16  24274276.524 1                     -1471.400          23.250                                                                  
G21  20573217.514 1 108112976.634 1      1078.626          39.500                                                                  
G27  23200797.678 1                     -2821.650          24.750                                                                  
J 2  38519104.935 1 202419261.71511      1349.111          29.750    38516741.970 1                      1005.400          28.250  
J 3  38629983.775 1                      -589.600          23.000                                                                  
R 9  21065279.467 1                      2924.550          24.000  
R16  20171583.160 1                       333.550          18.250  
> 2021  5 17  2 33 30.4446090  0 13                     
E13  25296439.900 1 132933688.47811     -1560.328          37.000    25294298.782 1  99260260.51711     -1163.168          28.750  
E26  23012653.932 1                      1203.200          27.750    23010538.896 1  90298296.71411       900.210          25.750  
G 1  21525521.453 1 113117504.307 1      3337.097          35.000                                                                  
G 4  23664416.227 1                     -2615.000          21.250                                                                  
G 7  21053664.912 1                      2438.550          29.750                                                                  
G 8  21055251.114 1 110646134.94111     -1674.123          32.750                                                                  
G21  20573043.639 1 108112058.289 1      1077.492          34.000                                                                  
G27  23201356.496 1                     -2830.050          32.000                                                                  
G30  24113268.493 1                      3619.550          25.250                                                                  
J 2  38518863.607 1 202418070.43411      1349.624          30.500    38516517.131 1 151147085.82811      1007.043          32.250  
J 3  38630094.103 1 203002513.69011      -591.846          27.750                                                                  
R 9  21064791.709 1                      2925.450          25.250  
R16  20171626.634 1                       328.050          26.000  
> 2021  5 17  2 33 31.4446092  0 15                     
E13  25296797.121 1 132935562.85411     -1561.782          36.500    25294658.401 1  99261658.880 1     -1165.106          30.500  
E26  23012495.510 1                      1207.250          26.500    23010366.983 1  90297630.236 1       900.148          26.250  
G 1  21524947.218 1 113114478.840 1      3339.188          33.500                                                                  
G 4  23664970.411 1                     -2611.750          23.750                                                                  
G 7  21053252.266 1 110635587.18511      2435.168          30.000                                                                  
G 8  21055616.429 1                     -1684.750          33.500                                                                  
G 9  22989606.955 1                     -1767.550          20.500                                                                  
G21  20572896.909 1 108111293.573 1      1077.622          34.250                                                                  
G27  23201952.352 1 121927082.52711     -2827.867          33.500                                                                  
G30  24112679.868 1 126712987.50211      3626.212          27.500                                                                  
J 2  38518661.115 1 202417035.206 1      1347.654          31.250    38516319.736 1 151146312.843 1      1006.211          32.000  
J 3  38630279.543 1 203003417.63911      -590.969          30.000    38627923.774 1                      -445.550          32.750  
R 9  21064261.844 1                      2924.350          25.750  
R16  20171615.410 1                       324.300          23.000  
R18  22183420.067 1                     -3646.400          18.250  
> 2021  5 17  2 33 32.4446093  0 17                     
E 1  25362922.932 1                      1579.850          19.750                                                                  
E13  25297137.075 1 132937283.986 1     -1561.089          38.750    25294981.867 1  99262944.89411     -1166.996          24.750  
E26  23012297.036 1 120930437.21711      1205.779          29.500    23010168.810 1  90296848.742 1       900.833          29.500  
E27  27453009.695 1                      -957.150          19.000                                                                  
G 1  21524342.826 1 113111297.332 1      3342.373          32.750                                                                  
G 4  23665491.739 1                     -2609.450          24.750                                                                  
G 7  21052819.055 1 110633312.95011      2432.170          27.500                                                                  
G 8  21055970.773 1 110649872.43711     -1682.410          33.250                                                                  
G 9  22990009.566 1                     -1760.350          23.500                                                                  
G21  20572726.616 1 108110374.471 1      1079.092          34.750                                                                  
G27  23202516.250 1 121930071.13111     -2842.763          31.000                                                                  
G30  24111996.330 1 126709518.511 1      3629.714          29.250                                                                  
J 2  38518445.253 1 202415847.36311      1347.486          30.000    38516094.281 1 151145425.579 1      1006.114          32.500  
J 3  38630417.137 1 203004167.33311      -589.902          29.750    38628067.064 1 151584749.46811      -442.353          32.500  
R 9  21063802.551 1                      2921.700          22.750  
R16  20171602.808 1                       329.550          24.250  
R18  22184188.124 1 118420702.17111     -3639.706          30.000  
> 2021  5 17  2 33 33.4446095  0 16                     
E13  25297473.719 1 132939159.88311     -1561.981          36.500    25295340.995 1  99264347.702 1     -1169.517          33.750  
E26  23012121.036 1 120929545.751 1      1206.552          31.000    23009998.805 1  90296183.075 1       901.342          30.500  
G 1  21523771.399 1 113108267.62211      3346.494          26.750                                                                  
G 4  23666025.947 1 124365804.85511     -2605.472          26.000                                                                  
G 7  21052432.000 1                      2427.350          22.000                                                                  
G 8  21056349.988 1 110651864.65011     -1674.034          32.500                                                                  
G 9  22990370.793 1                     -1757.900          23.750                                                                  
G21  20572578.196 1 108109610.223 1      1079.780          38.250                                                                  
G27  23203117.911 1                     -2833.100          28.000                                                                  
G30  24111367.943 1                      3631.050          23.250                                                                  
J 1  37356240.708 1                      -106.550          17.000                                                                  
J 2  38518246.768 1 202414814.69611      1347.879          30.750    38515896.995 1 151144655.077 1      1005.671          31.750  
J 3  38630600.887 1 203005072.53011      -590.316          28.000    38628241.820 1 151585427.247 1      -442.593          32.500  
R 9  21063288.984 1                      2933.500          24.250  
R16  20171586.297 1                       330.850          24.000  
R18  22184937.883 1                     -3642.200          25.000  
> 2021  5 17  2 33 34.4446096  0 15                     
E13  25297798.887 1 132940883.28911     -1565.532          35.750    25295668.262 1  99265634.371 1     -1168.632          33.250  
E26  23011926.064 1 120928495.047 1      1208.467          31.500    23009798.737 1  90295398.433 1       902.832          30.000  
E27  27453378.611 1                      -961.850          22.250                                                                  
G 1  21523173.206 1 113105079.45111      3345.533          29.500                                                                  
G 4  23666512.703 1 124368566.05511     -2606.474          26.500                                                                  
G 7  21052024.176 1                      2445.350          21.000                                                                  
G 8  21056697.641 1                     -1692.400          29.000                                                                  
G 9  22990741.230 1 120817160.50711     -1759.951          26.250                                                                  
G16  24276024.947 1                     -1475.150          18.500                                                                  
G21  20572399.413 1 108108686.544 1      1081.818          39.000                                                                  
G22  24963253.289 1                      1866.350          17.000                                                                  
G27  23203696.105 1 121936245.06711     -2831.200          29.500                                                                  
J 2  38518094.967 1                      1348.100          21.000                                                                  
J 3  38630732.390 1 203005820.76511      -591.323          27.000    38628384.115 1 151585986.819 1      -441.471          31.750  
R 9  21062759.744 1                      2932.500          24.500  
> 2021  5 17  2 33 35.4446098  0 15                     
E 1  25362173.611 1                      1581.100          22.000    25360068.168 1                      1168.200          14.750  
E13  25298159.527 1 132942763.52611     -1561.920          38.500    25296026.503 1  99267039.385 1     -1168.375          32.000  
E26  23011753.673 1 120927602.631 1      1208.806          30.000    23009629.343 1  90294732.25911       902.726          27.750  
E27  27453618.434 1                      -953.400          24.500                                                                  
G 1  21522607.787 1                      3343.900          23.000                                                                  
G 4  23667104.783 1                     -2604.700          23.750                                                                  
G 7  21051602.657 1 110626918.10011      2432.765          26.500                                                                  
G 8  21057085.561 1                     -1690.400          25.500                                                                  
G 9  22991165.126 1 120819234.09211     -1755.290          27.500                                                                  
G21  20572257.001 1 108107920.925 1      1082.296          38.250                                                                  
G22  24962952.586 1                      1867.550          17.750                                                                  
G27  23204310.968 1 121939391.85611     -2830.641          28.250                                                                  
J 1  37356357.210 1                       -94.850          25.500                                                                  
R 9  21062339.424 1                      2923.300          26.750  
R15  23298858.314 1                     -2140.250          17.500  
> 2021  5 17  2 33 36.4446099  0 16                     
E 1                                                                  25359756.816 1                      1151.550          22.000  
E13  25298491.529 1                     -1564.700          22.000                                                                  
E26  23011552.644 1 120926550.546 1      1209.041          30.000    23009430.114 1  90293946.475 1       902.999          27.000  
E27  27453841.911 1                      -951.950          24.750                                                                  
G 1  21522004.437 1                      3339.500          22.000                                                                  
G 4  23667683.514 1                     -2612.850          25.000                                                                  
G 7  21051162.994 1 110624647.866 1      2423.299          29.750                                                                  
G 8  21057466.730 1                     -1677.450          30.250                                                                  
G 9  22991483.937 1                     -1762.300          25.500                                                                  
G21  20572080.855 1 108106995.229 1      1082.755          36.250                                                                  
G22  24962615.751 1                      1871.750          19.000                                                                  
G27  23204851.926 1 121942382.77911     -2836.812          28.750                                                                  
G30  24109247.226 1                      3560.200          23.500                                                                  
J 1  37356392.118 1 196309164.94111       -92.593          28.500                                                                  
R 9  21061766.053 1                      2875.800          30.000  
R15  23299346.209 1                     -2144.600          21.750  
> 2021  5 17  2 33 37.4446101  0 16                     
E 1  25361676.496 1                      1573.400          23.500                                                                  
E26  23011386.068 1 120925655.48211      1209.717          29.750    23009259.640 1  90293278.063 1       903.235          27.500  
G 1  21521406.759 1                      3344.750          24.250                                                                  
G 4  23668140.806 1                     -2655.000          22.000                                                                  
G 7  21050758.082 1 110622539.690 1      2421.574          30.250                                                                  
G 8  21057811.299 1                     -1699.450          27.750                                                                  
G 9  22991866.881 1                     -1780.300          30.000                                                                  
G16  24277001.001 1                     -1484.750          19.250                                                                  
G21  20571934.365 1 108106226.318 1      1083.512          36.250                                                                  
G22  24962309.771 1                      1871.800          19.500                                                                  
G27  23205533.462 1                     -2782.500          27.750                                                                  
G30  24108765.568 1                      3639.250          23.000                                                                  
J 1  37356546.920 1                       -86.400          22.250                                                                  
R 9  21061308.379 1                      2927.150          34.500  
R15  23299717.460 1 124506625.72611     -2125.857          30.500  
R20  20880954.435 1                      3533.850          19.500  
> 2021  5 17  2 33 38.4446102  0 18                     
E 1  25361406.831 1 133275092.79111      1566.149          30.500    25359281.902 1                      1173.900          20.250  
E13  25299203.193 1                     -1555.150          21.000                                                                  
E26  23011182.357 1 120924602.344 1      1210.757          30.750    23009058.028 1  90292491.714 1       904.222          27.250  
E27  27454295.154 1                      -955.550          21.000                                                                  
G 1  21520808.222 1 113092609.91611      3351.324          27.000                                                                  
G 7  21050325.030 1 110620275.52611      2420.347          30.250                                                                  
G 8  21058172.398 1                     -1692.550          25.250                                                                  
G 9  22992232.176 1 120824995.18011     -1781.803          30.500                                                                  
G21  20571759.434 1 108105299.358 1      1084.662          36.000                                                                  
G22  24961989.741 1                      1871.550          19.500                                                                  
G27  23206125.701 1                     -2795.300          23.750                                                                  
G30  24107970.966 1                      3552.500          21.750                                                                  
J 1  37356694.865 1                       -87.700          21.000                                                                  
J 2  38517178.579 1                      1351.200          22.500    38514835.102 1                      1007.400          20.250  
J 3  38631370.426 1                      -588.600          26.000    38629023.950 1                      -441.750          20.250  
R 9  21060807.573 1 112463537.19711      2915.711          27.250  
R15  23300130.123 1 124508910.969 1     -2124.122          36.500  
R16  20171461.855 1                       320.000          17.500  
> 2021  5 17  2 33 39.4446103  0 14                     
E 1  25361114.399 1                      1531.000          23.750                                                                  
E26  23010981.662 1 120923550.168 1      1212.780          30.250    23008857.332 1  90291705.709 1       905.984          27.500  
G 1  21520202.207 1                      3342.650          27.000                                                                  
G 7  21049900.390 1 110618014.20011      2421.859          29.250                                                                  
G 8  21058535.012 1                     -1688.050          23.750                                                                  
G 9  22992655.049 1                     -1769.350          28.500                                                                  
G21  20571585.421 1 108104372.934 1      1086.950          36.000                                                                  
G22  24961663.733 1                      1872.000          19.500                                                                  
G30  24107339.169 1                      3598.750          21.250                                                                  
J 2  38516953.301 1 202407955.67311      1354.858          29.000    38514605.926 1 151139585.35511      1011.512          30.000  
J 3  38631513.592 1 203009973.56211      -586.029          36.500    38629166.817 1 151589147.13711      -437.722          30.750  
R 9  21060294.494 1                      2933.600          25.750  
R15  23300563.488 1 124511195.691 1     -2121.092          38.250  
R16  20171449.129 1 107752260.17611       334.206          29.250  
> 2021  5 17  2 33 40.4446105  0 16                     
E13  25299881.308 1                     -1530.450          20.250                                                                  
E26  23010814.196 1 120922652.749 1      1209.493          32.500    23008687.168 1  90291035.793 1       903.382          28.000  
E27  27454742.728 1                      -952.300          21.000                                                                  
G 1  21519625.224 1                      3342.350          27.750                                                                  
G 7  21049507.480 1 110615908.066 1      2418.555          31.250                                                                  
G 8  21058910.770 1                     -1704.800          35.000                                                                  
G 9  22993044.897 1                     -1754.450          33.250                                                                  
G21  20571437.741 1 108103601.807 1      1083.307          37.250                                                                  
G22  24961369.454 1                      1872.700          19.750                                                                  
G27  23207282.284 1                     -2794.050          20.750                                                                  
G30  24106733.407 1                      3549.000          23.000                                                                  
J 2  38516756.455 1 202406916.43311      1352.195          30.750    38514408.181 1 151138809.195 1      1009.421          29.500  
J 3  38631681.295 1 203010875.110 1      -588.974          38.000    38629336.318 1 151589820.265 1      -439.704          32.750  
R 9  21059790.361 1                      2914.300          23.250  
R15  23301025.886 1 124513637.762 1     -2124.291          40.000  
R16  20171429.761 1 107752246.92111       330.659          26.500  
> 2021  5 17  2 33 41.4446106  0 18                     
E 1  25360675.896 1                      1588.450          21.250                                                                  
E13  25300205.358 1                     -1564.150          27.750    25298083.727 1                     -1159.350          19.500  
E26  23010613.910 1 120921600.17511      1208.154          32.000    23008487.182 1  90290249.709 1       902.036          27.000  
G 1  21519065.187 1                      3315.950          25.500                                                                  
G 4  23670358.478 1                     -2603.350          23.000                                                                  
G 7  21049064.962 1 110613646.284 1      2417.568          29.750                                                                  
G 8  21059269.897 1 110667210.03111     -1704.309          33.250                                                                  
G 9  22993395.929 1 120831110.70611     -1748.003          34.500                                                                  
G16  24278203.875 1                     -1483.650          17.500                                                                  
G21  20571258.740 1 108102675.626 1      1081.260          37.000                                                                  
G27  23207851.265 1 121958080.90511     -2796.976          31.000                                                                  
G30  24106093.625 1                      3549.800          21.000                                                                  
J 1  37356703.519 1                       -88.700          19.250                                                                  
J 2  38516530.387 1 202405721.01911      1351.053          32.250    38514188.708 1 151137916.68711      1009.233          26.500  
J 3  38631826.969 1 203011620.666 1      -589.844          35.500    38629478.395 1 151590377.17411      -440.710          31.500  
R 9  21059295.979 1                      2872.950          24.500  
R15  23301442.273 1 124515921.850 1     -2126.963          34.750  
R16  20171426.438 1 107752075.62011       329.523          32.500  
> 2021  5 17  2 33 42.4446108  0 18                     
E 1                                                                  25358292.920 1                      1149.050          18.000  
E13  25300557.689 1 132955328.40111     -1566.126          40.000    25298436.358 1  99276497.09211     -1170.451          29.250  
E26  23010444.302 1                      1206.350          28.250    23008316.974 1  90289584.911 1       902.092          27.750  
G 1  21518438.396 1                      3330.250          27.000                                                                  
G 4  23670937.452 1                     -2603.200          22.250                                                                  
G 7  21048669.910 1 110611546.182 1      2418.483          30.250                                                                  
G 8  21059660.002 1 110669231.61211     -1703.295          30.000                                                                  
G 9  22993834.600 1                     -1757.350          26.000                                                                  
G16  24278532.223 1                     -1488.050          21.000                                                                  
G21  20571115.814 1 108101911.84411      1080.815          35.000                                                                  
G22  24960785.209 1                      1884.200          19.750                                                                  
G27  23208436.534 1 121961196.92611     -2799.419          26.750                                                                  
G30  24105573.859 1                      3627.750          23.000                                                                  
J 2  38516335.596 1 202404687.67011      1351.772          31.000    38513979.827 1 151137144.440 1      1009.154          34.250  
J 3  38631995.227 1 203012528.263 1      -589.447          37.000    38629650.850 1 151591054.32711      -440.174          30.250  
R 9  21058804.394 1 112452840.32111      2871.511          30.000  
R15  23301933.408 1 124518374.40311     -2133.013          27.000  
R16  20171428.911 1 107752070.64211       326.403          29.000  
> 2021  5 17  2 33 43.4446109  0 17                     
E 1  25360155.023 1                      1526.900          25.000                                                                  
E13  25300887.553 1 132957051.099 1     -1566.292          41.250    25298764.723 1  99277783.557 1     -1170.225          30.750  
E26  23010237.837 1 120919616.07511      1207.236          31.500    23008118.304 1  90288800.119 1       901.632          27.500  
E27  27455422.200 1                      -951.000          19.500                                                                  
G 1  21517833.507 1                      3342.850          27.250                                                                  
G 4  23671448.091 1                     -2588.900          23.000                                                                  
G 7  21048236.502 1 110609283.853 1      2419.135          31.250                                                                  
G 8  21059993.763 1 110671090.75611     -1702.978          28.500                                                                  
G 9  22994202.538 1                     -1747.250          32.250                                                                  
G21  20570937.829 1 108100987.969 1      1079.941          36.750                                                                  
G27  23209027.218 1                     -2858.350          29.750                                                                  
J 1  37356822.103 1                       -92.000          22.500                                                                  
J 2  38516097.054 1 202403491.62211      1352.087          30.750    38513751.778 1 151136252.186 1      1009.124          34.000  
J 3  38632150.612 1 203013273.60311      -589.363          33.000    38629789.746 1 151591611.368 1      -440.108          35.250  
R 9  21058291.541 1 112450127.52011      2872.211          31.250  
R15  23302341.518 1                     -2132.650          26.250  
R16  20171405.620 1 107751901.63911       329.286          31.250  
> 2021  5 17  2 33 44.4446111  0 18                     
E 1  25359920.072 1                      1532.600          27.500                                                                  
E13  25301245.592 1 132958933.42411     -1567.132          33.250    25299123.361 1                     -1171.650          26.000  
E26  23010077.235 1 120918725.425 1      1204.508          30.750    23007949.907 1  90288135.126 1       899.628          28.000  
G 1  21517238.505 1 113073851.27711      3349.211          26.750                                                                  
G 4  23671980.309 1                     -2641.200          22.250                                                                  
G 7  21047830.670 1 110607179.47511      2419.965          29.000                                                                  
G 8  21060388.076 1                     -1676.100          30.500                                                                  
G 9  22994589.656 1                     -1810.600          27.500                                                                  
G16  24279191.345 1                     -1469.250          19.500                                                                  
G21  20570791.617 1 108100224.849 1      1076.659          38.000                                                                  
G22  24960061.988 1                      1880.050          20.750                                                                  
G27  23209624.791 1                     -2806.100          22.250                                                                  
J 1  37356893.540 1                       -97.600          22.500                                                                  
J 2  38515901.975 1 202402456.19511      1350.176          30.000    38513551.902 1 151135479.04111      1008.396          31.500  
J 3  38632312.886 1 203014179.26911      -591.051          32.000    38629959.215 1 151592287.473 1      -440.964          34.000  
R 9  21057815.557 1 112447575.51811      2874.517          31.500  
R15  23302816.475 1                     -2137.700          26.500  
R16  20171373.029 1                       321.850          25.000  
> 2021  5 17  2 33 45.4446112  0 19                     
E 1  25359658.970 1                      1539.950          25.250    25357538.538 1                      1146.500          19.500  
E13  25301582.875 1                     -1564.950          26.500    25299454.049 1  99280491.62211     -1170.360          23.750  
E26  23009879.089 1 120917680.47611      1200.955          30.000    23007749.663 1  90287354.815 1       896.727          26.000  
E27  27455877.088 1                      -964.200          23.000                                                                  
G 1  21516630.843 1 113070665.89211      3337.359          27.250                                                                  
G 4  23672469.887 1                     -2625.750          25.500                                                                  
G 7  21047409.178 1 110604914.629 1      2426.158          30.500                                                                  
G 8  21060741.848 1                     -1684.400          32.250                                                                  
G 9  22994977.305 1                     -1792.050          24.750                                                                  
G21  20570621.052 1 108099308.735 1      1071.075          37.000                                                                  
G22  24959724.739 1 131164238.20711      1871.632          26.000                                                                  
G27  23210206.105 1                     -2809.750          23.750                                                                  
J 1  37356920.838 1 196311943.12411      -102.812          29.750                                                                  
J 2  38515679.846 1 202401264.57111      1347.490          30.500    38513335.769 1                      1003.150          24.000  
J 3  38632461.300 1 203014927.578 1      -591.464          36.000    38630107.629 1 151592846.522 1      -441.502          31.000  
R 9  21057297.533 1 112444857.68411      2882.624          28.250  
R15  23303221.812 1 124525351.51811     -2142.985          27.750  
R16  20171372.746 1 107751851.77611       325.446          26.500  
R20  20876014.832 1                      3527.750          16.000  
> 2021  5 17  2 33 46.4446114  0 20                     
E 1  25359436.084 1                      1549.950          22.000                                                                  
E13  25301955.377 1                     -1561.850          24.750    25299826.851 1                     -1168.200          23.000  
E26  23009705.968 1 120916798.38311      1196.034          29.250    23007581.039 1  90286696.139 1       892.900          27.750  
E27  27456123.977 1                      -976.250          22.250                                                                  
G 1  21516061.097 1 113067647.81711      3328.967          31.000                                                                  
G 4  23673029.159 1 124402607.29511     -2627.422          28.250                                                                  
G 7  21047002.819 1 110602801.06811      2432.794          30.000                                                                  
G 8  21061120.346 1                     -1692.900          29.500                                                                  
G 9  22995324.924 1 120841248.01211     -1789.075          26.000                                                                  
G21  20570480.909 1 108098556.875 1      1064.182          36.500                                                                  
G22  24959414.913 1                      1857.850          24.500                                                                  
G27  23210813.644 1 121973648.86811     -2814.329          27.750                                                                  
G30  24102984.607 1                      3571.750          19.500                                                                  
J 1  37356992.948 1 196312367.88411      -115.337          27.250                                                                  
J 2  38515503.728 1                      1343.650          21.500                                                                  
J 3  38632620.050 1                      -600.550          24.750                                                                  
R 9  21056875.884 1                      2899.450          26.000  
R15  23303682.453 1 124527825.00011     -2158.692          29.500  
R19  19368644.423 1                      -932.300          16.000  
R20  20875346.754 1                      3521.700          25.250  
> 2021  5 17  2 33 47.4446115  0 17                     
E 1  25359171.884 1                      1556.300          24.500                                                                  
E13  25302291.062 1                     -1565.600          26.000                                                                  
E26  23009506.224 1 120915763.07211      1190.279          29.000    23007384.293 1  90285923.028 1       888.738          28.000  
E27  27456315.462 1                      -981.400          25.250                                                                  
G 1  21515474.021 1                      3318.050          25.250                                                                  
G 4  23673566.005 1 124405393.60611     -2630.324          27.250                                                                  
G 7  21046564.740 1 110600521.735 1      2439.593          30.250                                                                  
G 8  21061492.906 1 110678892.01211     -1689.926          28.750                                                                  
G 9  22995698.083 1 120843189.65011     -1782.965          25.750                                                                  
G16  24280213.732 1                     -1485.450          20.750                                                                  
G21  20570303.049 1 108097653.952 1      1056.981          37.500                                                                  
