$GNRMC,023255.00,A,2218.06422,N,11410.74268,E,2.374,176.42,170521,,,A*76
$GNVTG,176.42,T,,M,2.374,N,4.396,K,A*2F
$GNGGA,023255.00,2218.06422,N,11410.74268,E,1,06,1.19,3.8,M,-1.6,M,,*5E
$GNGSA,A,3,08,27,04,01,21,09,,,,,,,2.16,1.19,1.81*1A
$GPGSV,2,1,08,01,42,170,26,04,21,196,27,07,56,321,08,08,55,011,32*7E
$GPGSV,2,2,08,09,29,233,37,16,17,077,10,21,61,134,28,27,25,036,27*7F
$GNGLL,2218.06422,N,11410.74268,E,023255.00,A,A*75
$GNZDA,023255.00,17,05,2021,00,00*79
$GNVTG,175.95,T,,M,2.366,N,4.382,K,A*20
$GNGGA,023256.00,2218.06382,N,11410.74299,E,1,07,0.99,3.3,M,-1.6,M,,*5D
$GNGSA,A,3,08,27,16,04,01,21,09,,,,,,1.67,0.99,1.34*1F
$GPGSV,2,1,08,01,42,170,25,04,21,196,26,07,56,321,07,08,55,011,32*73
$GPGSV,2,2,08,09,29,233,37,16,17,077,15,21,61,134,28,27,25,036,27*7A
$GNGLL,2218.06382,N,11410.74299,E,023256.00,A,A*75
$GNZDA,023256.00,17,05,2021,00,00*7A
$GNVTG,175.48,T,,M,2.358,N,4.368,K,A*29
$GNGGA,023257.00,2218.06344,N,11410.74327,E,1,07,1.22,2.9,M,-1.6,M,,*58
$GNGSA,A,3,08,27,16,04,01,21,09,,,,,,1.90,1.22,1.45*10
$GPGSV,2,1,08,01,42,170,25,04,21,196,26,07,56,321,08,08,55,011,32*7C
$GPGSV,2,2,08,09,29,233,37,16,17,077,17,21,61,134,28,27,25,036,27*78
$GNGLL,2218.06344,N,11410.74327,E,023257.00,A,A*7A
$GNZDA,023257.00,17,05,2021,00,00*7B
$GNVTG,175.02,T,,M,2.350,N,4.352,K,A*26
$GNGGA,023258.00,2218.06312,N,11410.74347,E,1,07,0.95,2.7,M,-1.6,M,,*51
$GNGSA,A,3,08,27,16,04,01,21,09,,,,,,1.58,0.95,1.26*1C
$GPGSV,2,1,08,01,42,170,26,04,21,196,25,07,56,321,09,08,55,011,33*7C
$GPGSV,2,2,08,09,29,233,37,16,17,077,18,21,61,134,28,27,25,036,28*78
$GNGLL,2218.06312,N,11410.74347,E,023258.00,A,A*70
$GNZDA,023258.00,17,05,2021,00,00*74
$GNVTG,174.56,T,,M,2.342,N,4.338,K,A*29
$GNGGA,023259.00,2218.06278,N,11410.74370,E,1,07,0.99,2.5,M,-1.6,M,,*57
$GNGSA,A,3,08,27,16,04,01,21,09,,,,,,1.67,0.99,1.34*1F
$GPGSV,2,1,08,01,42,170,26,04,21,196,25,07,56,321,11,08,55,011,32*74
$GPGSV,2,2,08,09,29,233,37,16,17,077,18,21,61,134,29,27,25,036,29*78
$GNGLL,2218.06278,N,11410.74370,E,023259.00,A,A*78
$GNZDA,023259.00,17,05,2021,00,00*75
$GNVTG,174.12,T,,M,2.334,N,4.323,K,A*22
$GNGGA,023300.00,2218.06247,N,11410.74382,E,1,07,1.22,2.6,M,-1.6,M,,*59
$GNGSA,A,3,08,27,16,04,01,21,09,,,,,,1.90,1.22,1.45*10
$GPGSV,2,1,08,01,42,170,26,04,21,196,24,07,56,321,13,08,55,011,33*76
$GPGSV,2,2,08,09,29,233,37,16,17,077,19,21,61,134,29,27,25,036,29*79
$GNGLL,2218.06247,N,11410.74382,E,023300.00,A,A*74
$GNZDA,023300.00,17,05,2021,00,00*78
$GNVTG,173.71,T,,M,2.323,N,4.302,K,A*25
$GNGGA,023301.00,2218.06219,N,11410.74390,E,1,08,0.95,2.9,M,-1.6,M,,*5D
$GNGSA,A,3,08,27,16,04,07,01,21,09,,,,,1.58,0.95,1.26*1B
$GPGSV,2,1,08,01,42,170,26,04,21,196,24,07,56,321,12,08,55,011,33*77
$GPGSV,2,2,08,09,29,233,37,16,17,077,20,21,61,134,29,27,25,036,30*7B
$GNGLL,2218.06219,N,11410.74390,E,023301.00,A,A*7D
$GNZDA,023301.00,17,05,2021,00,00*79
$GNVTG,173.34,T,,M,2.312,N,4.282,K,A*2F
$GNGGA,023302.00,2218.06191,N,11410.74391,E,1,07,1.00,3.1,M,-1.6,M,,*57
$GNGSA,A,3,08,27,16,04,01,21,09,,,,,,1.67,1.00,1.34*1E
$GPGSV,2,1,08,01,42,170,26,04,21,196,23,07,56,321,08,08,55,011,33*7B
$GPGSV,2,2,08,09,29,233,36,16,17,077,19,21,61,134,29,27,25,036,30*70
$GNGLL,2218.06191,N,11410.74391,E,023302.00,A,A*7C
$GNZDA,023302.00,17,05,2021,00,00*7A
$GNVTG,173.09,T,,M,2.304,N,4.267,K,A*2D
$GNGGA,023303.00,2218.06158,N,11410.74389,E,1,08,0.97,3.1,M,-1.6,M,,*5A
$GNGSA,A,3,08,27,16,04,07,01,21,09,,,,,1.61,0.97,1.28*1D
$GPGSV,2,1,08,01,42,170,26,04,21,196,22,07,56,321,10,08,55,011,31*71
$GPGSV,2,2,08,09,29,233,35,16,17,077,19,21,61,134,29,27,25,036,29*7B
$GNGLL,2218.06158,N,11410.74389,E,023303.00,A,A*71
$GNZDA,023303.00,17,05,2021,00,00*7B
$GNVTG,173.05,T,,M,2.300,N,4.260,K,A*22
$GNGGA,023304.00,2218.06120,N,11410.74387,E,1,08,0.85,3.3,M,-1.6,M,,*5D
$GNGSA,A,3,08,27,16,04,07,01,21,09,,,,,1.46,0.85,1.18*18
$GPGSV,2,1,08,01,42,170,26,04,21,196,22,07,56,321,12,08,55,011,30*72
$GPGSV,2,2,08,09,29,233,36,16,17,077,21,21,61,134,28,27,25,036,27*7C
$GNGLL,2218.06120,N,11410.74387,E,023304.00,A,A*77
$GNZDA,023304.00,17,05,2021,00,00*7C
$GNVTG,173.31,T,,M,2.300,N,4.259,K,A*2F
$GNGGA,023305.00,2218.06079,N,11410.74367,E,1,08,0.85,3.5,M,-1.6,M,,*59
$GNGSA,A,3,08,27,16,04,07,01,21,09,,,,,1.46,0.85,1.18*18
$GPGSV,2,1,08,01,42,170,25,04,21,196,18,07,56,321,12,08,55,011,30*78
$GPGSV,2,2,08,09,29,233,35,16,17,077,21,21,61,134,27,27,25,036,26*71
$GNGLL,2218.06079,N,11410.74367,E,023305.00,A,A*75
$GNZDA,023305.00,17,05,2021,00,00*7D
$GNVTG,173.75,T,,M,2.301,N,4.261,K,A*25
$GNGGA,023306.00,2218.06026,N,11410.74340,E,1,08,1.18,3.6,M,-1.6,M,,*53
$GNGSA,A,3,08,27,16,04,07,01,21,09,,,,,1.74,1.18,1.28*1F
$GPGSV,2,1,08,01,42,170,24,04,21,196,16,07,56,321,15,08,55,011,29*78
$GPGSV,2,2,08,09,29,233,35,16,17,077,23,21,61,134,31,27,25,036,24*76
$GNGLL,2218.06026,N,11410.74340,E,023306.00,A,A*79
$GNZDA,023306.00,17,05,2021,00,00*7E
$GNVTG,174.65,T,,M,2.300,N,4.259,K,A*29
$GNGGA,023307.00,2218.05964,N,11410.74304,E,1,08,0.76,4.0,M,-1.6,M,,*56
$GNGSA,A,3,08,27,16,04,07,01,21,09,,,,,1.40,0.76,1.17*1D
$GPGSV,2,1,08,01,42,170,24,04,21,196,13,07,56,321,12,08,55,011,19*79
$GPGSV,2,2,08,09,29,233,35,16,17,077,30,21,61,134,24,27,25,036,22*76
$GNGLL,2218.05964,N,11410.74304,E,023307.00,A,A*74
$GNZDA,023307.00,17,05,2021,00,00*7F
$GNVTG,175.94,T,,M,2.301,N,4.261,K,A*2C
$GNGGA,023308.00,2218.05904,N,11410.74276,E,1,08,0.74,3.8,M,-1.6,M,,*56
$GNGSA,A,3,08,27,16,04,07,01,21,09,,,,,1.36,0.74,1.14*1D
$GPGSV,2,1,08,01,42,170,25,04,21,196,10,07,56,321,12,08,55,011,18*7A
$GPGSV,2,2,08,09,29,233,31,16,17,077,26,21,61,134,29,27,25,036,20*7A
$GNGLL,2218.05904,N,11410.74276,E,023308.00,A,A*79
$GNZDA,023308.00,17,05,2021,00,00*70
$GNVTG,177.11,T,,M,2.303,N,4.265,K,A*25
$GNGGA,023309.00,2218.05849,N,11410.74243,E,1,08,1.00,3.9,M,-1.6,M,,*5A
$GNGSA,A,3,08,27,16,04,07,01,21,09,,,,,1.67,1.00,1.34*19
$GPGSV,2,1,08,01,42,170,26,04,21,196,10,07,56,321,14,08,55,011,19*7E
$GPGSV,2,2,08,09,29,233,26,16,17,077,24,21,61,134,28,27,25,036,19*75
$GNGLL,2218.05849,N,11410.74243,E,023309.00,A,A*76
$GNZDA,023309.00,17,05,2021,00,00*71
$GNVTG,177.90,T,,M,2.302,N,4.263,K,A*2B
$GNGGA,023310.00,2218.05793,N,11410.74232,E,1,08,0.74,4.2,M,-1.6,M,,*52
$GNGSA,A,3,08,27,16,04,07,01,21,09,,,,,1.36,0.74,1.14*1D
$GPGSV,2,1,08,01,42,170,23,04,21,196,11,07,56,321,35,08,55,011,18*78
$GPGSV,2,2,08,09,29,233,22,16,17,077,23,21,61,134,23,27,25,036,19*7D
$GNGLL,2218.05793,N,11410.74232,E,023310.00,A,A*70
$GNZDA,023310.00,17,05,2021,00,00*79
$GNVTG,178.23,T,,M,2.305,N,4.269,K,A*21
$GNGGA,023311.00,2218.05739,N,11410.74217,E,1,08,0.74,4.5,M,-1.6,M,,*53
$GNGSA,A,3,08,27,16,04,07,01,21,09,,,,,1.36,0.74,1.14*1D
$GPGSV,2,1,08,01,42,170,24,04,21,196,11,07,56,321,25,08,55,011,20*75
$GPGSV,2,2,08,09,29,233,29,16,17,077,22,21,61,134,37,27,25,036,20*78
$GNGLL,2218.05739,N,11410.74217,E,023311.00,A,A*76
$GNZDA,023311.00,17,05,2021,00,00*78
$GNVTG,178.34,T,,M,2.308,N,4.274,K,A*26
$GNGGA,023312.00,2218.05715,N,11410.74172,E,1,07,0.90,4.4,M,-1.6,M,,*5A
$GNGSA,A,3,08,27,16,07,01,21,09,,,,,,1.54,0.90,1.25*15
$GPGSV,2,1,08,01,42,170,33,04,21,196,24,07,56,321,26,08,55,011,30*77
$GPGSV,2,2,08,09,29,233,32,16,17,077,23,21,61,134,39,27,25,036,21*7C
$GNGLL,2218.05715,N,11410.74172,E,023312.00,A,A*7B
$GNZDA,023312.00,17,05,2021,00,00*7B
$GNVTG,178.43,T,,M,2.322,N,4.300,K,A*2C
$GNGGA,023313.00,2218.05652,N,11410.74144,E,1,07,0.95,5.2,M,-1.6,M,,*5E
$GNGSA,A,3,08,27,16,07,01,21,09,,,,,,1.58,0.95,1.26*1F
$GPGSV,2,1,08,01,42,169,39,04,21,196,21,07,56,321,39,08,55,011,42*7B
$GPGSV,2,2,08,09,29,233,25,16,17,077,22,21,61,134,39,27,25,036,34*7F
$GNGLL,2218.05652,N,11410.74144,E,023313.00,A,A*7D
$GNZDA,023313.00,17,05,2021,00,00*7A
$GNVTG,178.49,T,,M,2.345,N,4.343,K,A*20
$GNGGA,023314.00,2218.05560,N,11410.74137,E,1,07,1.05,6.5,M,-1.6,M,,*53
$GNGSA,A,3,08,27,16,07,01,21,09,,,,,,1.70,1.05,1.34*1E
$GPGSV,2,1,08,01,42,169,39,04,21,196,21,07,56,321,38,08,55,011,40*78
$GPGSV,2,2,08,09,29,233,21,16,17,077,20,21,61,134,36,27,25,036,36*74
$GNGLL,2218.05560,N,11410.74137,E,023314.00,A,A*7C
$GNZDA,023314.00,17,05,2021,00,00*7D
$GNVTG,178.55,T,,M,2.373,N,4.394,K,A*22
$GNGGA,023315.00,2218.05464,N,11410.74131,E,1,08,1.37,6.9,M,-1.6,M,,*53
$GNGSA,A,3,08,27,16,04,07,01,21,09,,,,,1.93,1.37,1.35*17
$GPGSV,2,1,08,01,42,169,37,04,21,196,23,07,56,321,38,08,55,011,37*74
$GPGSV,2,2,08,09,29,233,18,16,17,077,17,21,61,134,37,27,25,036,34*79
$GNGLL,2218.05464,N,11410.74131,E,023315.00,A,A*7E
$GNZDA,023315.00,17,05,2021,00,00*7C
$GNVTG,178.62,T,,M,2.392,N,4.430,K,A*20
$GNGGA,023316.00,2218.05374,N,11410.74128,E,1,08,1.42,7.6,M,-1.6,M,,*52
$GNGSA,A,3,08,27,16,04,07,01,21,09,,,,,2.49,1.42,2.05*11
$GPGSV,2,1,08,01,42,169,31,04,21,196,22,07,56,321,37,08,54,011,37*7D
$GPGSV,2,2,08,09,29,233,20,16,17,077,17,21,61,134,38,27,25,036,33*7A
$GNGLL,2218.05374,N,11410.74128,E,023316.00,A,A*73
$GNZDA,023316.00,17,05,2021,00,00*7F
$GNVTG,178.75,T,,M,2.415,N,4.472,K,A*28
$GNGGA,023317.00,2218.05272,N,11410.74123,E,1,08,1.51,8.8,M,-1.6,M,,*5C
$GNGSA,A,3,08,27,16,04,07,01,21,09,,,,,2.80,1.51,2.35*15
$GPGSV,2,1,08,01,42,169,24,04,21,196,21,07,56,321,37,08,54,011,39*74
$GPGSV,2,2,08,09,29,233,23,16,17,077,16,21,61,134,38,27,25,036,29*73
$GNGLL,2218.05272,N,11410.74123,E,023317.00,A,A*7E
$GNZDA,023317.00,17,05,2021,00,00*7E
$GNVTG,178.85,T,,M,2.428,N,4.497,K,A*22
$GNGGA,023318.00,2218.05189,N,11410.74123,E,1,08,0.88,9.8,M,-1.6,M,,*50
$GNGSA,A,3,08,27,16,04,07,01,21,09,,,,,1.46,0.88,1.16*1B
$GPGSV,2,1,08,01,42,169,22,04,21,196,19,07,56,321,34,08,54,011,36*75
$GPGSV,2,2,08,09,29,233,22,16,16,077,16,21,61,134,34,27,25,036,33*74
$GNGLL,2218.05189,N,11410.74123,E,023318.00,A,A*76
$GNZDA,023318.00,17,05,2021,00,00*71
$GNVTG,178.71,T,,M,2.432,N,4.504,K,A*29
$GNGGA,023319.00,2218.05121,N,11410.74140,E,1,08,1.32,10.8,M,-1.6,M,,*6E
$GNGSA,A,3,08,27,16,04,07,01,21,09,,,,,1.83,1.32,1.27*10
$GPGSV,2,1,08,01,42,169,20,04,21,196,17,07,56,321,33,08,54,011,36*7E
$GPGSV,2,2,08,09,29,233,33,16,16,077,14,21,61,133,34,27,25,036,20*73
$GNGLL,2218.05121,N,11410.74140,E,023319.00,A,A*70
$GNZDA,023319.00,17,05,2021,00,00*70
$GNRMC,023320.00,A,2218.05027,N,11410.74209,E,2.460,178.11,170521,,,A*7A
$GNVTG,178.11,T,,M,2.460,N,4.556,K,A*2F
$GNGGA,023320.00,2218.05027,N,11410.74209,E,1,08,1.02,11.8,M,-1.6,M,,*6F
$GNGSA,A,3,08,27,16,04,07,01,21,09,,,,,1.54,1.02,1.15*18
$GPGSV,2,1,08,01,42,169,27,04,21,196,17,07,56,321,33,08,54,011,28*76
$GPGSV,2,2,08,09,29,233,34,16,16,077,13,21,61,133,33,27,24,036,17*71
$GNGLL,2218.05027,N,11410.74209,E,023320.00,A,A*73
$GNZDA,023320.00,17,05,2021,00,00*7A
$GNVTG,177.56,T,,M,2.468,N,4.571,K,A*2E
$GNGGA,023321.00,2218.04946,N,11410.74226,E,1,08,1.20,12.2,M,-1.6,M,,*65
$GNGSA,A,3,08,27,16,04,07,01,21,09,,,,,1.77,1.20,1.31*1F
$GPGSV,2,1,08,01,42,169,26,04,21,196,16,07,56,321,32,08,54,011,32*7C
$GPGSV,2,2,08,09,29,233,23,16,16,077,11,21,61,133,32,27,24,036,13*70
$GNGLL,2218.04946,N,11410.74226,E,023321.00,A,A*70
$GNZDA,023321.00,17,05,2021,00,00*7B
$GNVTG,177.25,T,,M,2.469,N,4.573,K,A*29
$GNGGA,023322.00,2218.04877,N,11410.74236,E,1,06,2.20,12.8,M,-1.6,M,,*63
$GNGSA,A,3,08,04,07,01,21,09,,,,,,,4.64,2.20,4.09*17
$GPGSV,2,1,08,01,42,169,25,04,21,196,15,07,56,321,33,08,54,011,18*75
$GPGSV,2,2,08,09,29,233,24,16,16,077,09,21,61,133,31,27,24,036,09*76
$GNGLL,2218.04877,N,11410.74236,E,023322.00,A,A*71
$GNZDA,023322.00,17,05,2021,00,00*78
$GNVTG,177.02,T,,M,2.477,N,4.587,K,A*28
$GNGGA,023323.00,2218.04791,N,11410.74255,E,1,07,1.32,12.8,M,-1.6,M,,*61
$GNGSA,A,3,08,16,04,07,01,21,09,,,,,,1.88,1.32,1.33*1B
$GPGSV,2,1,08,01,42,169,26,04,21,196,17,07,56,321,34,08,54,011,28*70
$GPGSV,2,2,08,09,29,233,31,16,16,077,11,21,61,133,32,27,24,036,09*78
$GNGLL,2218.04791,N,11410.74255,E,023323.00,A,A*72
$GNZDA,023323.00,17,05,2021,00,00*79
$GNVTG,176.92,T,,M,2.482,N,4.597,K,A*2B
$GNGGA,023324.00,2218.04708,N,11410.74259,E,1,06,4.27,13.1,M,-1.6,M,,*62
$GNGSA,A,3,08,27,16,04,01,21,,,,,,,5.38,4.27,3.27*19
$GPGSV,2,1,08,01,42,169,25,04,21,196,17,07,56,321,,08,54,011,26*7A
$GPGSV,2,2,08,09,29,233,,16,16,077,11,21,61,133,32,27,24,036,27*76
$GNGLL,2218.04708,N,11410.74259,E,023324.00,A,A*79
$GNZDA,023324.00,17,05,2021,00,00*7E
$GNVTG,176.89,T,,M,2.492,N,4.616,K,A*2A
$GNGGA,023325.00,2218.04619,N,11410.74264,E,1,07,1.40,13.5,M,-1.6,M,,*6D
$GNGSA,A,3,08,27,16,04,07,01,21,,,,,,2.01,1.40,1.44*10
$GPGSV,2,1,08,01,42,169,23,04,21,196,17,07,56,321,32,08,54,011,24*7F
$GPGSV,2,2,08,09,29,233,24,16,16,077,12,21,61,133,33,27,24,036,14*72
$GNGLL,2218.04619,N,11410.74264,E,023325.00,A,A*77
$GNZDA,023325.00,17,05,2021,00,00*7F
$GNVTG,176.87,T,,M,2.502,N,4.633,K,A*2B
$GNGGA,023326.00,2218.04523,N,11410.74277,E,1,08,1.40,13.5,M,-1.6,M,,*69
$GNGSA,A,3,08,27,16,04,07,01,21,09,,,,,2.01,1.40,1.44*19
$GPGSV,2,1,08,01,42,169,22,04,21,196,18,07,56,321,34,08,54,011,23*70
$GPGSV,2,2,08,09,29,233,34,16,16,077,11,21,61,133,33,27,24,036,15*71
$GNGLL,2218.04523,N,11410.74277,E,023326.00,A,A*7C
$GNZDA,023326.00,17,05,2021,00,00*7C
$GNVTG,176.80,T,,M,2.517,N,4.662,K,A*2C
$GNGGA,023327.00,2218.04391,N,11410.74324,E,1,08,1.40,12.2,M,-1.6,M,,*66
$GNGSA,A,3,08,27,16,04,07,01,21,09,,,,,2.01,1.40,1.44*19
$GPGSV,2,1,08,01,42,169,29,04,21,196,20,07,56,321,36,08,54,011,22*73
$GPGSV,2,2,08,09,29,233,22,16,16,077,11,21,61,133,36,27,24,036,17*71
$GNGLL,2218.04391,N,11410.74324,E,023327.00,A,A*75
$GNZDA,023327.00,17,05,2021,00,00*7D
$GNVTG,176.75,T,,M,2.521,N,4.669,K,A*28
$GNGGA,023328.00,2218.04303,N,11410.74336,E,1,08,2.38,12.6,M,-1.6,M,,*69
$GNGSA,A,3,08,27,16,04,07,01,21,09,,,,,3.47,2.38,2.52*12
$GPGSV,2,1,08,01,42,169,26,04,21,196,21,07,56,321,34,08,54,011,21*7C
$GPGSV,2,2,08,09,29,233,21,16,16,077,11,21,61,133,34,27,24,036,17*70
$GNGLL,2218.04303,N,11410.74336,E,023328.00,A,A*72
$GNZDA,023328.00,17,05,2021,00,00*72
$GNVTG,176.72,T,,M,2.524,N,4.674,K,A*26
$GNGGA,023329.00,2218.04218,N,11410.74342,E,1,08,1.63,13.5,M,-1.6,M,,*6F
$GNGSA,A,3,08,27,16,04,07,01,21,09,,,,,2.12,1.63,1.35*1C
$GPGSV,2,1,08,01,42,169,24,04,21,196,21,07,56,321,36,08,54,011,34*78
$GPGSV,2,2,08,09,29,233,21,16,16,077,14,21,61,133,35,27,24,036,19*7A
$GNGLL,2218.04218,N,11410.74342,E,023329.00,A,A*7B
$GNZDA,023329.00,17,05,2021,00,00*73
$GNVTG,176.68,T,,M,2.528,N,4.683,K,A*29
$GNGGA,023330.00,2218.04114,N,11410.74363,E,1,08,1.31,14.6,M,-1.6,M,,*68
$GNGSA,A,3,08,27,16,04,07,01,21,09,,,,,1.78,1.31,1.20*10
$GPGSV,2,1,08,01,42,169,24,04,21,196,29,07,56,321,37,08,54,011,37*72
$GPGSV,2,2,08,09,29,233,24,16,16,077,17,21,61,133,37,27,24,036,21*75
$GNGLL,2218.04114,N,11410.74363,E,023330.00,A,A*7F
$GNZDA,023330.00,17,05,2021,00,00*7B
$GNVTG,176.66,T,,M,2.530,N,4.686,K,A*2B
$GNGGA,023331.00,2218.04028,N,11410.74371,E,1,08,1.52,15.5,M,-1.6,M,,*63
$GNGSA,A,3,08,27,16,04,07,01,21,09,,,,,2.00,1.52,1.30*18
$GPGSV,2,1,08,01,42,169,30,04,21,196,25,07,56,321,37,08,54,011,37*7B
$GPGSV,2,2,08,09,29,233,21,16,16,077,21,21,61,133,36,27,24,036,23*76
$GNGLL,2218.04028,N,11410.74371,E,023331.00,A,A*73
$GNZDA,023331.00,17,05,2021,00,00*7A
$GNVTG,176.65,T,,M,2.531,N,4.688,K,A*27
$GNGGA,023332.00,2218.03945,N,11410.74376,E,1,08,1.52,16.4,M,-1.6,M,,*60
$GNGSA,A,3,08,27,16,04,07,01,21,09,,,,,2.00,1.52,1.30*18
$GPGSV,2,1,08,01,42,169,29,04,21,196,27,07,56,321,36,08,54,011,37*70
$GPGSV,2,2,08,09,29,233,18,16,16,077,22,21,61,133,36,27,24,036,23*7F
$GNGLL,2218.03945,N,11410.74376,E,023332.00,A,A*72
$GNZDA,023332.00,17,05,2021,00,00*79
$GNVTG,176.64,T,,M,2.532,N,4.690,K,A*2C
$GNGGA,023333.00,2218.03863,N,11410.74380,E,1,08,1.52,17.5,M,-1.6,M,,*6D
$GNGSA,A,3,08,27,16,04,07,01,21,09,,,,,2.00,1.52,1.30*18
$GPGSV,2,1,08,01,42,169,28,04,21,196,28,07,56,321,36,08,54,011,37*7E
$GPGSV,2,2,08,09,29,233,18,16,16,077,24,21,61,133,36,27,24,036,23*79
$GNGLL,2218.03863,N,11410.74380,E,023333.00,A,A*7F
$GNZDA,023333.00,17,05,2021,00,00*78
$GNVTG,176.64,T,,M,2.533,N,4.691,K,A*2C
$GNGGA,023334.00,2218.03782,N,11410.74383,E,1,08,1.54,18.6,M,-1.6,M,,*63
$GNGSA,A,3,08,27,16,04,07,01,21,09,,,,,2.05,1.54,1.35*1E
$GPGSV,2,1,08,01,42,169,27,04,21,196,28,07,56,321,36,08,54,011,37*71
$GPGSV,2,2,08,09,29,233,21,16,16,077,24,21,61,133,36,27,24,036,25*75
$GNGLL,2218.03782,N,11410.74383,E,023334.00,A,A*7B
$GNZDA,023334.00,17,05,2021,00,00*7F
$GNVTG,176.63,T,,M,2.535,N,4.694,K,A*28
$GNGGA,023335.00,2218.03697,N,11410.74388,E,1,08,1.32,19.7,M,-1.6,M,,*6C
$GNGSA,A,3,08,27,16,04,07,01,21,09,,,,,1.91,1.32,1.38*1D
$GPGSV,2,1,08,01,42,169,25,04,21,196,28,07,56,321,36,08,54,011,38*7C
$GPGSV,2,2,08,09,29,233,23,16,16,077,25,21,61,133,36,27,24,036,25*76
$GNGLL,2218.03697,N,11410.74388,E,023335.00,A,A*74
$GNZDA,023335.00,17,05,2021,00,00*7E
$GNVTG,176.57,T,,M,2.538,N,4.701,K,A*2F
$GNGGA,023336.00,2218.03601,N,11410.74417,E,1,08,1.05,20.1,M,-1.6,M,,*69
$GNGSA,A,3,08,27,16,04,07,01,21,09,,,,,1.76,1.05,1.42*1D
$GPGSV,2,1,08,01,42,169,22,04,21,196,28,07,56,321,37,08,54,011,38*7A
$GPGSV,2,2,08,09,29,233,24,16,16,077,25,21,61,133,36,27,24,036,25*71
$GNGLL,2218.03601,N,11410.74417,E,023336.00,A,A*79
$GNZDA,023336.00,17,05,2021,00,00*7D
$GNVTG,176.55,T,,M,2.539,N,4.703,K,A*2E
$GNGGA,023337.00,2218.03519,N,11410.74424,E,1,08,1.88,20.8,M,-1.6,M,,*6E
$GNGSA,A,3,08,27,16,04,07,01,21,09,,,,,2.37,1.88,1.44*18
$GPGSV,2,1,08,01,42,169,20,04,21,196,28,07,56,321,36,08,54,011,38*79
$GPGSV,2,2,08,09,29,233,25,16,16,077,26,21,61,133,36,27,24,036,26*70
$GNGLL,2218.03519,N,11410.74424,E,023337.00,A,A*72
$GNZDA,023337.00,17,05,2021,00,00*7C
$GNVTG,176.54,T,,M,2.542,N,4.707,K,A*27
$GNGGA,023338.00,2218.03433,N,11410.74433,E,1,08,2.47,21.6,M,-1.6,M,,*61
$GNGSA,A,3,08,27,16,04,07,01,21,09,,,,,3.67,2.47,2.71*19
$GPGSV,2,1,08,01,42,169,17,04,21,196,28,07,56,321,36,08,54,011,38*7D
$GPGSV,2,2,08,09,29,233,26,16,16,077,26,21,61,133,36,27,24,036,26*73
$GNGLL,2218.03433,N,11410.74433,E,023338.00,A,A*72
$GNZDA,023338.00,17,05,2021,00,00*73
$GNVTG,176.53,T,,M,2.544,N,4.712,K,A*22
$GNGGA,023339.00,2218.03346,N,11410.74440,E,1,08,1.33,22.6,M,-1.6,M,,*62
$GNGSA,A,3,08,27,16,04,07,01,21,09,,,,,1.96,1.33,1.44*10
$GPGSV,2,1,08,01,42,169,17,04,21,196,28,07,56,321,36,08,54,011,38*7D
$GPGSV,2,2,08,09,29,233,26,16,16,077,26,21,61,133,36,27,24,036,26*73
$GNGLL,2218.03346,N,11410.74440,E,023339.00,A,A*72
$GNZDA,023339.00,17,05,2021,00,00*72
$GNVTG,176.46,T,,M,2.549,N,4.720,K,A*2A
$GNGGA,023340.00,2218.03250,N,11410.74465,E,1,08,1.03,23.8,M,-1.6,M,,*61
$GNGSA,A,3,08,27,16,04,07,01,21,09,,,,,1.77,1.03,1.43*1B
$GPGSV,2,1,08,01,42,169,19,04,21,196,27,07,56,321,36,08,54,011,38*7C
$GPGSV,2,2,08,09,29,233,25,16,16,077,26,21,61,133,36,27,24,036,26*70
$GNGLL,2218.03250,N,11410.74465,E,023340.00,A,A*7D
$GNZDA,023340.00,17,05,2021,00,00*7C
$GNVTG,176.31,T,,M,2.556,N,4.734,K,A*21
$GNGGA,023341.00,2218.03139,N,11410.74511,E,1,08,0.99,24.9,M,-1.6,M,,*6A
$GNGSA,A,3,08,27,16,04,07,01,21,09,,,,,1.67,0.99,1.34*18
$GPGSV,2,1,08,01,42,169,20,04,21,196,27,07,56,321,37,08,54,011,38*77
$GPGSV,2,2,08,09,29,233,24,16,16,077,25,21,61,133,36,27,24,036,27*73
$GNGLL,2218.03139,N,11410.74511,E,023341.00,A,A*72
$GNZDA,023341.00,17,05,2021,00,00*7D
$GNVTG,176.20,T,,M,2.559,N,4.739,K,A*23
$GNGGA,023342.00,2218.03047,N,11410.74536,E,1,08,1.17,25.5,M,-1.6,M,,*6E
$GNGSA,A,3,08,27,16,04,07,01,21,09,,,,,1.80,1.17,1.38*1A
$GPGSV,2,1,08,01,42,169,22,04,21,196,28,07,56,321,37,08,54,011,39*7B
$GPGSV,2,2,08,09,29,233,22,16,16,077,25,21,61,133,37,27,24,036,27*74
$GNGLL,2218.03047,N,11410.74536,E,023342.00,A,A*7C
$GNZDA,023342.00,17,05,2021,00,00*7E
$GNVTG,176.14,T,,M,2.561,N,4.743,K,A*22
$GNGGA,023343.00,2218.02961,N,11410.74547,E,1,07,1.77,26.3,M,-1.6,M,,*69
$GNGSA,A,3,08,16,04,07,01,21,09,,,,,,2.25,1.77,1.39*14
$GPGSV,2,1,08,01,42,169,22,04,21,196,28,07,56,321,37,08,54,011,39*7B
$GPGSV,2,2,08,09,29,233,20,16,16,077,25,21,61,133,37,27,24,036,28*79
$GNGLL,2218.02961,N,11410.74547,E,023343.00,A,A*77
$GNZDA,023343.00,17,05,2021,00,00*7F
$GNVTG,176.10,T,,M,2.563,N,4.747,K,A*20
$GNGGA,023344.00,2218.02876,N,11410.74555,E,1,08,1.77,27.1,M,-1.6,M,,*66
$GNGSA,A,3,08,27,16,04,07,01,21,09,,,,,2.25,1.77,1.39*11
$GPGSV,2,1,08,01,42,169,23,04,21,196,28,07,56,321,37,08,54,011,39*7A
$GPGSV,2,2,08,09,29,233,17,16,16,077,24,21,61,133,37,27,24,036,27*73
$GNGLL,2218.02876,N,11410.74555,E,023344.00,A,A*74
$GNZDA,023344.00,17,05,2021,00,00*78
$GNVTG,176.08,T,,M,2.563,N,4.747,K,A*29
$GNGGA,023345.00,2218.02797,N,11410.74562,E,1,08,1.57,27.9,M,-1.6,M,,*69
$GNGSA,A,3,08,27,16,04,07,01,21,09,,,,,2.14,1.57,1.45*1A
$GPGSV,2,1,08,01,42,169,23,04,21,196,28,07,56,321,37,08,54,011,39*7A
$GPGSV,2,2,08,09,29,233,14,16,16,077,23,21,61,133,36,27,24,036,27*76
$GNGLL,2218.02797,N,11410.74562,E,023345.00,A,A*71
$GNZDA,023345.00,17,05,2021,00,00*79
$GNVTG,176.07,T,,M,2.563,N,4.747,K,A*26
$GNGGA,023346.00,2218.02720,N,11410.74563,E,1,08,1.52,28.8,M,-1.6,M,,*6C
$GNGSA,A,3,08,27,16,04,07,01,21,09,,,,,2.03,1.52,1.35*1E
$GPGSV,2,1,08,01,42,169,23,04,21,196,27,07,56,321,37,08,54,011,38*74
$GPGSV,2,2,08,09,29,233,14,16,16,077,23,21,61,133,36,27,24,036,27*76
$GNGLL,2218.02720,N,11410.74563,E,023346.00,A,A*7F
$GNZDA,023346.00,17,05,2021,00,00*7A
$GNVTG,176.02,T,,M,2.565,N,4.750,K,A*23
$GNGGA,023347.00,2218.02634,N,11410.74581,E,1,08,1.06,29.7,M,-1.6,M,,*6A
$GNGSA,A,3,08,27,16,04,07,01,21,09,,,,,1.74,1.06,1.38*11
$GPGSV,2,1,08,01,42,169,22,04,21,196,28,07,56,321,37,08,54,011,39*7B
$GPGSV,2,2,08,09,29,233,15,16,16,077,22,21,61,133,36,27,24,036,27*76
$GNGLL,2218.02634,N,11410.74581,E,023347.00,A,A*76
$GNZDA,023347.00,17,05,2021,00,00*7B
$GNVTG,176.00,T,,M,2.566,N,4.753,K,A*21
$GNGGA,023348.00,2218.02548,N,11410.74587,E,1,08,1.26,30.5,M,-1.6,M,,*63
$GNGSA,A,3,08,27,16,04,07,01,21,09,,,,,1.84,1.26,1.35*11
$GPGSV,2,1,08,01,42,169,20,04,21,196,28,07,56,321,37,08,54,011,38*78
$GPGSV,2,2,08,09,29,233,18,16,16,077,22,21,61,133,36,27,24,036,27*7B
$GNGLL,2218.02548,N,11410.74587,E,023348.00,A,A*77
$GNZDA,023348.00,17,05,2021,00,00*74
$GNVTG,175.92,T,,M,2.570,N,4.760,K,A*2E
$GNGGA,023349.00,2218.02451,N,11410.74620,E,1,08,0.97,31.0,M,-1.6,M,,*6A
$GNGSA,A,3,08,27,16,04,07,01,21,09,,,,,1.61,0.97,1.28*1D
$GPGSV,2,1,08,01,42,169,19,04,21,196,28,07,56,321,37,08,54,011,38*72
$GPGSV,2,2,08,09,29,233,20,16,16,077,21,21,61,133,36,27,24,036,27*73
$GNGLL,2218.02451,N,11410.74620,E,023349.00,A,A*71
$GNZDA,023349.00,17,05,2021,00,00*75
$GNVTG,175.88,T,,M,2.571,N,4.761,K,A*25
$GNGGA,023350.00,2218.02372,N,11410.74626,E,1,08,3.74,31.6,M,-1.6,M,,*6A
$GNGSA,A,3,08,27,16,04,07,01,21,09,,,,,5.10,3.74,3.46*1B
$GPGSV,2,1,08,01,42,169,16,04,21,196,28,07,56,321,36,08,54,011,38*7C
$GPGSV,2,2,08,09,29,233,21,16,16,077,20,21,61,133,36,27,24,036,27*73
$GNGLL,2218.02372,N,11410.74626,E,023350.00,A,A*79
$GNZDA,023350.00,17,05,2021,00,00*7D
$GNVTG,175.82,T,,M,2.573,N,4.765,K,A*29
$GNGGA,023351.00,2218.02282,N,11410.74645,E,1,07,1.15,32.2,M,-1.6,M,,*6D
$GNGSA,A,3,08,27,16,04,07,21,09,,,,,,1.79,1.15,1.37*10
$GPGSV,2,1,08,01,42,169,,04,21,196,28,07,56,321,36,08,54,011,38*7B
$GPGSV,2,2,08,09,29,233,23,16,16,077,20,21,61,133,36,27,24,036,27*71
$GNGLL,2218.02282,N,11410.74645,E,023351.00,A,A*73
$GNZDA,023351.00,17,05,2021,00,00*7C
$GNVTG,175.79,T,,M,2.574,N,4.768,K,A*27
$GNGGA,023352.00,2218.02198,N,11410.74656,E,1,07,3.84,32.7,M,-1.6,M,,*6B
$GNGSA,A,3,08,27,16,04,07,21,09,,,,,,5.57,3.84,4.03*10
$GPGSV,2,1,08,01,42,169,,04,21,196,28,07,56,321,36,08,54,011,38*7B
$GPGSV,2,2,08,09,29,233,24,16,16,077,19,21,61,133,36,27,24,036,27*7C
$GNGLL,2218.02198,N,11410.74656,E,023352.00,A,A*7A
$GNZDA,023352.00,17,05,2021,00,00*7F
$GNVTG,175.73,T,,M,2.578,N,4.774,K,A*2C
$GNGGA,023353.00,2218.02105,N,11410.74680,E,1,07,2.05,33.2,M,-1.6,M,,*69
$GNGSA,A,3,08,27,16,04,07,21,09,,,,,,3.54,2.05,2.88*18
$GPGSV,2,1,08,01,42,169,15,04,21,196,28,07,56,321,36,08,54,011,38*7F
$GPGSV,2,2,08,09,29,233,25,16,16,077,18,21,61,133,36,27,24,036,27*7C
$GNGLL,2218.02105,N,11410.74680,E,023353.00,A,A*74
$GNZDA,023353.00,17,05,2021,00,00*7E
$GNVTG,175.64,T,,M,2.582,N,4.782,K,A*26
$GNGGA,023354.00,2218.02009,N,11410.74708,E,1,07,1.16,34.1,M,-1.6,M,,*67
$GNGSA,A,3,08,27,16,04,07,21,09,,,,,,1.91,1.16,1.51*15
$GPGSV,2,1,08,01,42,169,15,04,21,196,27,07,56,321,35,08,54,011,37*7C
$GPGSV,2,2,08,09,29,233,25,16,16,077,16,21,61,133,35,27,24,036,26*70
$GNGLL,2218.02009,N,11410.74708,E,023354.00,A,A*7F
$GNZDA,023354.00,17,05,2021,00,00*79
$GNVTG,175.49,T,,M,2.591,N,4.799,K,A*21
$GNGGA,023355.00,2218.01884,N,11410.74765,E,1,07,1.22,34.2,M,-1.6,M,,*67
$GNGSA,A,3,08,27,16,04,07,21,09,,,,,,1.92,1.22,1.48*19
$GPGSV,2,1,08,01,42,169,16,04,20,196,26,07,56,321,35,08,54,011,37*7F
$GPGSV,2,2,08,09,29,233,26,16,16,077,15,21,61,133,36,27,24,036,26*73
$GNGLL,2218.01884,N,11410.74765,E,023355.00,A,A*7B
$GNZDA,023355.00,17,05,2021,00,00*78
$™A±âE
$GNVTG,175.20,T,,M,2.606,N,4.827,K,A*29
$GNGGA,023356.00,2218.01713,N,11410.74884,E,1,08,1.18,33.8,M,-1.6,M,,*6E
$GNGSA,A,3,08,27,16,04,07,01,21,09,,,,,2.27,1.18,1.94*1D
$GPGSV,2,1,08,01,42,169,19,04,20,196,27,07,56,321,35,08,54,011,37*71
$GPGSV,2,2,08,09,29,233,26,16,16,077,14,21,61,133,36,27,24,036,26*72
$GNGLL,2218.01713,N,11410.74884,E,023356.00,A,A*79
$GNZDA,023356.00,17,05,2021,00,00*7B
$GNVTG,174.94,T,,M,2.618,N,4.848,K,A*21
$GNGGA,023357.00,2218.01560,N,11410.74971,E,1,08,1.12,33.7,M,-1.6,M,,*67
$GNGSA,A,3,08,27,16,04,07,01,21,09,,,,,1.85,1.12,1.47*12
$GPGSV,2,1,08,01,42,169,21,04,20,196,26,07,56,321,35,08,54,012,37*78
$GPGSV,2,2,08,09,29,233,26,16,16,077,13,21,61,133,36,27,24,036,27*74
$GNGLL,2218.01560,N,11410.74971,E,023357.00,A,A*75
$GNZDA,023357.00,17,05,2021,00,00*7A
$GNVTG,174.72,T,,M,2.625,N,4.861,K,A*2C
$GNGGA,023358.00,2218.01428,N,11410.75040,E,1,08,1.16,33.8,M,-1.6,M,,*64
$GNGSA,A,3,08,27,16,04,07,01,21,09,,,,,1.84,1.16,1.43*13
$GPGSV,2,1,08,01,42,169,21,04,20,196,26,07,56,321,35,08,54,012,37*78
$GPGSV,2,2,08,09,29,233,26,16,16,077,14,21,61,133,36,27,24,036,26*72
$GNGLL,2218.01428,N,11410.75040,E,023358.00,A,A*7D
$GNZDA,023358.00,17,05,2021,00,00*75
$GNVTG,174.54,T,,M,2.632,N,4.874,K,A*2A
$GNGGA,023359.00,2218.01297,N,11410.75105,E,1,08,1.04,33.9,M,-1.6,M,,*65
$GNGSA,A,3,08,27,16,04,07,01,21,09,,,,,1.78,1.04,1.45*15
$GPGSV,3,1,09,01,42,169,20,04,20,196,26,07,56,321,35,08,54,012,37*79
$GPGSV,3,2,09,09,29,233,26,16,16,077,15,21,61,133,36,22,,,29*4A
$GPGSV,3,3,09,27,24,036,26*42
$GNGLL,2218.01297,N,11410.75105,E,023359.00,A,A*7E
$GNZDA,023359.00,17,05,2021,00,00*74
$GNVTG,174.33,T,,M,2.635,N,4.880,K,A*27
$GNGGA,023400.00,2218.01186,N,11410.75172,E,1,08,1.16,34.2,M,-1.6,M,,*62
$GNGSA,A,3,08,27,16,04,07,01,21,09,,,,,2.28,1.16,1.97*1F
$GPGSV,3,1,09,01,42,169,19,04,20,196,25,07,56,321,34,08,54,012,36*70
$GPGSV,3,2,09,09,29,233,24,16,16,077,17,21,61,132,36,22,,,29*4B
$GPGSV,3,3,09,27,24,036,25*41
$GNGLL,2218.01186,N,11410.75172,E,023400.00,A,A*76
$GNZDA,023400.00,17,05,2021,00,00*7F
$GNVTG,174.19,T,,M,2.636,N,4.882,K,A*2E
$GNGGA,023401.00,2218.01088,N,11410.75210,E,1,08,1.40,34.8,M,-1.6,M,,*62
$GNGSA,A,3,08,27,16,04,07,01,21,09,,,,,2.55,1.40,2.13*19
$GPGSV,3,1,09,01,42,169,16,04,20,196,25,07,56,321,34,08,54,012,36*7F
$GPGSV,3,2,09,09,29,233,22,16,16,077,18,21,61,132,35,22,,,31*48
$GPGSV,3,3,09,27,24,036,25*41
$GNGLL,2218.01088,N,11410.75210,E,023401.00,A,A*7F
$GNZDA,023401.00,17,05,2021,00,00*7E
$GNVTG,174.15,T,,M,2.635,N,4.879,K,A*25
$GNGGA,023402.00,2218.00998,N,11410.75219,E,1,08,2.02,35.7,M,-1.6,M,,*6A
$GNGSA,A,3,08,27,16,04,07,01,21,09,,,,,3.42,2.02,2.75*1B
$GPGSV,3,1,09,01,42,169,14,04,20,196,24,07,56,321,34,08,54,012,35*7F
$GPGSV,3,2,09,09,29,233,20,16,16,077,19,21,61,132,35,22,,,31*4B
$GPGSV,3,3,09,27,24,036,25*41
$GNGLL,2218.00998,N,11410.75219,E,023402.00,A,A*7C
$GNZDA,023402.00,17,05,2021,00,00*7D
$GNVTG,174.12,T,,M,2.633,N,4.877,K,A*2A
$GNGGA,023403.00,2218.00911,N,11410.75246,E,1,07,1.25,36.2,M,-1.6,M,,*6F
$GNGSA,A,3,08,27,16,04,07,21,09,,,,,,2.33,1.25,1.97*14
$GPGSV,3,1,09,01,42,169,10,04,20,196,24,07,56,321,34,08,54,012,35*7B
$GPGSV,3,2,09,09,29,233,17,16,16,077,18,21,61,132,35,22,,,31*4E
$GPGSV,3,3,09,27,24,036,25*41
$GNGLL,2218.00911,N,11410.75246,E,023403.00,A,A*76
$GNZDA,023403.00,17,05,2021,00,00*7C
$GNRMC,023404.00,A,2218.00821,N,11410.75274,E,2.633,174.08,170521,,,A*7B
$GNVTG,174.08,T,,M,2.633,N,4.876,K,A*20
$GNGGA,023404.00,2218.00821,N,11410.75274,E,1,08,1.17,37.1,M,-1.6,M,,*67
$GNGSA,A,3,08,27,16,04,07,01,21,09,,,,,2.00,1.17,1.62*1E
$GPGSV,3,1,09,01,42,169,11,04,20,196,24,07,56,321,34,08,54,012,35*7A
$GPGSV,3,2,09,09,29,233,15,16,16,077,18,21,61,132,35,22,,,32*4F
$GPGSV,3,3,09,27,24,036,25*41
$GNGLL,2218.00821,N,11410.75274,E,023404.00,A,A*72
$GNZDA,023404.00,17,05,2021,00,00*7B
$GNVTG,174.09,T,,M,2.631,N,4.873,K,A*26
$GNGGA,023405.00,2218.00737,N,11410.75284,E,1,08,2.17,37.9,M,-1.6,M,,*6A
$GNGSA,A,3,08,27,16,04,07,01,21,09,,,,,3.56,2.17,2.83*13
$GPGSV,3,1,09,01,42,169,15,04,20,196,25,07,56,321,35,08,54,012,35*7E
$GPGSV,3,2,09,09,29,233,14,16,16,077,18,21,61,132,35,22,,,32*4E
$GPGSV,3,3,09,27,24,036,25*41
$GNGLL,2218.00737,N,11410.75284,E,023405.00,A,A*74
$GNZDA,023405.00,17,05,2021,00,00*7A
$GNVTG,174.07,T,,M,2.632,N,4.874,K,A*2C
$GNGGA,023406.00,2218.00649,N,11410.75308,E,1,08,1.09,38.9,M,-1.6,M,,*67
$GNGSA,A,3,08,27,16,04,07,01,21,09,,,,,1.85,1.09,1.49*16
$GPGSV,3,1,09,01,42,169,18,04,20,196,22,07,56,321,35,08,54,012,34*75
$GPGSV,3,2,09,09,29,233,27,16,16,077,18,21,61,132,34,22,,,30*4D
$GPGSV,3,3,09,27,24,036,23*47
$GNGLL,2218.00649,N,11410.75308,E,023406.00,A,A*7A
$GNZDA,023406.00,17,05,2021,00,00*79
$GNVTG,174.08,T,,M,2.632,N,4.874,K,A*23
$GNGGA,023407.00,2218.00571,N,11410.75311,E,1,08,1.20,40.2,M,-1.6,M,,*69
$GNGSA,A,3,08,27,16,04,07,01,21,09,,,,,1.81,1.20,1.36*11
$GPGSV,3,1,09,01,42,169,19,04,20,196,22,07,56,321,34,08,54,012,32*73
$GPGSV,3,2,09,09,29,233,24,16,16,077,18,21,61,132,34,22,,,30*4E
$GPGSV,3,3,09,27,24,036,22*46
$GNGLL,2218.00571,N,11410.75311,E,023407.00,A,A*7B
$GNZDA,023407.00,17,05,2021,00,00*78
$GNVTG,174.00,T,,M,2.637,N,4.883,K,A*26
$GNGGA,023408.00,2218.00479,N,11410.75351,E,1,08,2.05,40.4,M,-1.6,M,,*69
$GNGSA,A,3,08,27,16,04,07,01,21,09,,,,,4.40,2.05,3.90*13
$GPGSV,3,1,09,01,42,169,20,04,20,196,21,07,56,321,34,08,54,012,37*7F
$GPGSV,3,2,09,09,29,233,24,16,16,077,17,21,61,132,33,22,,,30*46
$GPGSV,3,3,09,27,24,036,20*44
$GNGLL,2218.00479,N,11410.75351,E,023408.00,A,A*79
$GNZDA,023408.00,17,05,2021,00,00*77
$GNVTG,173.89,T,,M,2.642,N,4.894,K,A*24
$GNGGA,023409.00,2218.00386,N,11410.75385,E,1,08,1.03,41.0,M,-1.6,M,,*66
$GNGSA,A,3,08,27,16,04,07,01,21,09,,,,,1.74,1.03,1.40*1B
$GPGSV,3,1,09,01,42,169,23,04,20,196,22,07,56,321,34,08,54,012,33*7B
$GPGSV,3,2,09,09,29,233,24,16,16,077,15,21,61,132,34,22,,,28*4A
$GPGSV,3,3,09,27,24,036,20*44
$GNGLL,2218.00386,N,11410.75385,E,023409.00,A,A*76
$GNZDA,023409.00,17,05,2021,00,00*76
$GNVTG,173.83,T,,M,2.644,N,4.896,K,A*2A
$GNGGA,023410.00,2218.00310,N,11410.75391,E,1,08,0.98,42.5,M,-1.6,M,,*61
$GNGSA,A,3,08,27,16,04,07,01,21,09,,,,,1.57,0.98,1.23*1C
$GPGSV,3,1,09,01,42,169,24,04,20,196,22,07,56,321,36,08,54,012,30*7D
$GPGSV,3,2,09,09,29,233,34,16,16,077,15,21,61,132,34,22,,,27*44
$GPGSV,3,3,09,27,24,036,18*4F
$GNGLL,2218.00310,N,11410.75391,E,023410.00,A,A*74
$GNZDA,023410.00,17,05,2021,00,00*7E
$GNVTG,173.75,T,,M,2.646,N,4.900,K,A*2F
$GNGGA,023411.00,2218.00229,N,11410.75413,E,1,08,0.94,43.6,M,-1.6,M,,*68
$GNGSA,A,3,08,27,16,04,07,01,21,09,,,,,1.70,0.94,1.42*12
$GPGSV,3,1,09,01,42,169,24,04,20,196,23,07,56,321,33,08,54,012,22*7A
$GPGSV,3,2,09,09,29,233,38,16,16,077,22,21,61,132,36,22,,,25*4C
$GPGSV,3,3,09,27,24,036,18*4F
$GNGLL,2218.00229,N,11410.75413,E,023411.00,A,A*73
$GNZDA,023411.00,17,05,2021,00,00*7F
$GNVTG,173.57,T,,M,2.651,N,4.910,K,A*28
$GNGGA,023412.00,2218.00129,N,11410.75480,E,1,08,1.80,44.1,M,-1.6,M,,*66
$GNGSA,A,3,08,27,16,04,07,01,21,09,,,,,4.17,1.80,3.76*17
$GPGSV,3,1,09,01,42,169,25,04,20,196,26,07,56,321,39,08,54,012,34*73
$GPGSV,3,2,09,09,29,233,39,16,16,077,29,21,61,132,37,22,,,23*41
$GPGSV,3,3,09,27,24,036,20*44
$GNGLL,2218.00129,N,11410.75480,E,023412.00,A,A*79
$GNZDA,023412.00,17,05,2021,00,00*7C
$GNVTG,173.41,T,,M,2.649,N,4.907,K,A*20
$GNGGA,023413.00,2218.00030,N,11410.75541,E,1,08,1.01,44.5,M,-1.6,M,,*6F
$GNGSA,A,3,08,27,16,04,07,01,21,09,,,,,1.78,1.01,1.46*13
$GPGSV,3,1,09,01,42,169,26,04,20,196,29,07,56,321,39,08,54,012,34*7F
$GPGSV,3,2,09,09,29,233,39,16,16,077,28,21,61,132,37,22,,,23*40
$GPGSV,3,3,09,27,24,036,22*46
$GNGLL,2218.00030,N,11410.75541,E,023413.00,A,A*7D
$GNZDA,023413.00,17,05,2021,00,00*7D
$GNVTG,173.33,T,,M,2.649,N,4.905,K,A*27
$GNGGA,023414.00,2217.99935,N,11410.75573,E,1,08,1.04,45.1,M,-1.6,M,,*6A
$GNGSA,A,3,08,27,16,04,07,01,21,09,,,,,1.76,1.04,1.42*1C
$GPGSV,3,1,09,01,42,169,31,04,20,196,16,07,56,321,39,08,54,012,29*79
$GPGSV,3,2,09,09,29,233,41,16,16,077,28,21,61,132,37,22,,,22*4E
$GPGSV,3,3,09,27,24,036,22*46
$GNGLL,2217.99935,N,11410.75573,E,023414.00,A,A*78
$GNZDA,023414.00,17,05,2021,00,00*7A
$GNVTG,173.20,T,,M,2.654,N,4.915,K,A*28
$GNGGA,023415.00,2217.99831,N,11410.75624,E,1,08,0.95,45.7,M,-1.6,M,,*60
$GNGSA,A,3,08,27,16,04,07,01,21,09,,,,,1.69,0.95,1.40*19
$GPGSV,3,1,09,01,42,169,25,04,20,196,15,07,56,321,38,08,54,012,28*7F
$GPGSV,3,2,09,09,29,233,37,16,16,077,26,21,61,132,38,22,,,20*4C
$GPGSV,3,3,09,27,24,036,21*45
$GNGLL,2217.99831,N,11410.75624,E,023415.00,A,A*7D
$GNZDA,023415.00,17,05,2021,00,00*7B
$GNVTG,172.93,T,,M,2.669,N,4.944,K,A*2B
$GNGGA,023416.00,2217.99707,N,11410.75711,E,1,08,0.98,46.3,M,-1.6,M,,*64
$GNGSA,A,3,08,27,16,04,07,01,21,09,,,,,1.75,0.98,1.44*1D
$GPGSV,3,1,09,01,42,169,25,04,20,196,19,07,56,321,36,08,54,012,27*72
$GPGSV,3,2,09,09,29,233,36,16,16,077,25,21,61,132,39,22,,,19*45
$GPGSV,3,3,09,27,24,036,20*44
$GNGLL,2217.99707,N,11410.75711,E,023416.00,A,A*73
$GNZDA,023416.00,17,05,2021,00,00*78
$GNVTG,172.64,T,,M,2.677,N,4.958,K,A*21
$GNGGA,023417.00,2217.99611,N,11410.75776,E,1,08,0.97,46.0,M,-1.6,M,,*6E
$GNGSA,A,3,08,27,16,04,07,01,21,09,,,,,1.63,0.97,1.31*17
$GPGSV,3,1,09,01,42,169,23,04,20,196,19,07,56,321,36,08,54,012,25*76
$GPGSV,3,2,09,09,29,233,33,16,16,077,25,21,61,132,37,22,,,22*46
$GPGSV,3,3,09,27,24,036,19*4E
$GNGLL,2217.99611,N,11410.75776,E,023417.00,A,A*75
$GNZDA,023417.00,17,05,2021,00,00*79
$GNVTG,172.36,T,,M,2.683,N,4.970,K,A*27
$GNGGA,023418.00,2217.99517,N,11410.75845,E,1,08,0.97,45.5,M,-1.6,M,,*6D
$GNGSA,A,3,08,27,16,04,07,01,21,09,,,,,1.63,0.97,1.31*17
$GPGSV,3,1,09,01,42,169,22,04,20,196,17,07,56,321,34,08,54,012,23*7D
$GPGSV,3,2,09,09,29,233,29,16,16,077,24,21,61,132,35,22,,,29*45
$GPGSV,3,3,09,27,24,036,18*4F
$GNGLL,2217.99517,N,11410.75845,E,023418.00,A,A*70
$GNZDA,023418.00,17,05,2021,00,00*76
$GNVTG,172.18,T,,M,2.684,N,4.972,K,A*2E
$GNGGA,023419.00,2217.99428,N,11410.75913,E,1,08,1.23,46.7,M,-1.6,M,,*6C
$GNGSA,A,3,08,27,16,04,07,01,21,09,,,,,2.12,1.23,1.73*1A
$GPGSV,3,1,09,01,42,169,36,04,20,196,15,07,56,321,37,08,54,012,21*7B
$GPGSV,3,2,09,09,29,233,23,16,16,077,24,21,61,132,32,22,,,18*4A
$GPGSV,3,3,09,27,24,036,18*4F
$GNGLL,2217.99428,N,11410.75913,E,023419.00,A,A*7E
$GNZDA,023419.00,17,05,2021,00,00*77
$GNVTG,172.29,T,,M,2.673,N,4.951,K,A*25
$GNGGA,023420.00,2217.99347,N,11410.75908,E,1,08,1.26,47.3,M,-1.6,M,,*62
$GNGSA,A,3,08,27,16,04,07,01,21,09,,,,,2.07,1.26,1.64*1D
$GPGSV,3,1,09,01,42,169,22,04,20,196,14,07,56,321,26,08,54,012,31*7E
$GPGSV,3,2,09,09,29,233,23,16,16,077,23,21,61,132,23,22,,,15*40
$GPGSV,3,3,09,27,24,036,16*41
$GNGLL,2217.99347,N,11410.75908,E,023420.00,A,A*70
$GNZDA,023420.00,17,05,2021,00,00*7D
$GNVTG,172.41,T,,M,2.674,N,4.953,K,A*2E
$GNGGA,023421.00,2217.99266,N,11410.75921,E,1,08,0.94,47.8,M,-1.6,M,,*69
$GNGSA,A,3,08,27,16,04,07,01,21,09,,,,,1.70,0.94,1.42*12
$GPGSV,3,1,09,01,42,169,28,04,20,196,14,07,56,321,26,08,54,012,31*74
$GPGSV,3,2,09,09,29,233,27,16,16,077,23,21,61,132,23,22,,,09*49
$GPGSV,3,3,09,27,24,036,15*42
$GNGLL,2217.99266,N,11410.75921,E,023421.00,A,A*78
$GNZDA,023421.00,17,05,2021,00,00*7C
$GNVTG,172.44,T,,M,2.678,N,4.960,K,A*27
$GNGGA,023422.00,2217.99186,N,11410.75941,E,1,08,1.01,48.5,M,-1.6,M,,*6E
$GNGSA,A,3,08,27,16,04,07,01,21,09,,,,,1.68,1.01,1.34*17
$GPGSV,3,1,09,01,42,169,28,04,20,196,14,07,56,321,23,08,54,012,32*72
$GPGSV,3,2,09,09,29,233,34,16,16,077,21,21,61,132,25,22,,,08*4E
$GPGSV,3,3,09,27,24,036,16*41
$GNGLL,2217.99186,N,11410.75941,E,023422.00,A,A*70
$GNZDA,023422.00,17,05,2021,00,00*7F
$GNVTG,172.43,T,,M,2.681,N,4.965,K,A*23
$GNGGA,023423.00,2217.99107,N,11410.75960,E,1,08,0.90,49.3,M,-1.6,M,,*6B
$GNGSA,A,3,08,27,16,04,07,01,21,09,,,,,1.51,0.90,1.22*13
$GPGSV,3,1,09,01,42,169,26,04,20,196,14,07,56,321,20,08,54,012,26*7A
$GPGSV,3,2,09,09,29,233,30,16,16,077,18,21,61,132,26,22,,,08*43
$GPGSV,3,3,09,27,24,036,16*41
$GNGLL,2217.99107,N,11410.75960,E,023423.00,A,A*7B
$GNZDA,023423.00,17,05,2021,00,00*7E
$GNVTG,172.39,T,,M,2.683,N,4.970,K,A*28
$GNGGA,023424.00,2217.99030,N,11410.75979,E,1,07,0.90,50.2,M,-1.6,M,,*67
$GNGSA,A,3,08,27,16,04,07,01,21,,,,,,1.51,0.90,1.22*1A
$GPGSV,3,1,09,01,42,169,27,04,20,196,14,07,56,321,16,08,54,012,23*7B
$GPGSV,3,2,09,09,29,233,,16,16,077,14,21,61,132,27,22,,,08*4D
$GPGSV,3,3,09,27,24,036,17*40
$GNGLL,2217.99030,N,11410.75979,E,023424.00,A,A*71
$GNZDA,023424.00,17,05,2021,00,00*79
$GNVTG,172.36,T,,M,2.686,N,4.975,K,A*27
$GNGGA,023425.00,2217.98950,N,11410.75992,E,1,07,1.06,50.9,M,-1.6,M,,*68
$GNGSA,A,3,08,27,04,07,01,21,09,,,,,,2.26,1.06,1.99*19
$GPGSV,3,1,09,01,42,169,27,04,20,196,14,07,56,321,18,08,54,012,22*74
$GPGSV,3,2,09,09,29,233,31,16,16,077,09,21,61,132,31,22,,,09*45
$GPGSV,3,3,09,27,24,036,17*40
$GNGLL,2217.98950,N,11410.75992,E,023425.00,A,A*7B
$GNZDA,023425.00,17,05,2021,00,00*78
$GNVTG,172.37,T,,M,2.691,N,4.984,K,A*2E
$GNGGA,023426.00,2217.98864,N,11410.75996,E,1,07,1.07,51.7,M,-1.6,M,,*67
$GNGSA,A,3,08,27,04,07,01,21,09,,,,,,1.89,1.07,1.56*1D
$GPGSV,3,1,09,01,42,169,25,04,20,196,12,07,56,321,20,08,54,012,22*7B
$GPGSV,3,2,09,09,29,233,33,16,16,077,09,21,61,132,24,22,,,09*43
$GPGSV,3,3,09,27,24,036,17*40
$GNGLL,2217.98864,N,11410.75996,E,023426.00,A,A*7A
$GNZDA,023426.00,17,05,2021,00,00*7B
$GNVTG,172.43,T,,M,2.695,N,4.991,K,A*2D
$GNGGA,023427.00,2217.98777,N,11410.75994,E,1,06,1.07,52.7,M,-1.6,M,,*6B
$GNGSA,A,3,08,27,04,07,01,21,,,,,,,1.89,1.07,1.56*14
$GPGSV,3,1,09,01,42,169,22,04,20,196,14,07,56,321,21,08,54,012,24*7D
$GPGSV,3,2,09,09,29,233,,16,16,077,11,21,61,132,27,22,,,08*48
$GPGSV,3,3,09,27,24,036,19*4E
$GNGLL,2217.98777,N,11410.75994,E,023427.00,A,A*74
$GNZDA,023427.00,17,05,2021,00,00*7A
$GNVTG,172.60,T,,M,2.705,N,5.010,K,A*25
$GNGGA,023428.00,2217.98668,N,11410.75973,E,1,07,1.06,54.8,M,-1.6,M,,*6B
$GNGSA,A,3,08,27,04,07,01,21,09,,,,,,1.92,1.06,1.60*13
$GPGSV,3,1,09,01,42,169,29,04,20,196,28,07,56,321,23,08,54,012,27*78
$GPGSV,3,2,09,09,29,233,35,16,16,077,16,21,61,132,34,22,,,12*40
$GPGSV,3,3,09,27,24,036,22*46
$GNGLL,2217.98668,N,11410.75973,E,023428.00,A,A*7D
$GNZDA,023428.00,17,05,2021,00,00*75
$GNVTG,172.83,T,,M,2.708,N,5.015,K,A*20
$GNGGA,023429.00,2217.98583,N,11410.75963,E,1,08,1.55,56.3,M,-1.6,M,,*6D
$GNGSA,A,3,08,27,16,04,07,01,21,09,,,,,2.11,1.55,1.43*1B
$GPGSV,3,1,09,01,42,169,28,04,20,196,24,07,56,321,38,08,54,012,30*79
$GPGSV,3,2,09,09,29,233,37,16,16,077,17,21,61,132,22,22,,,13*45
$GPGSV,3,3,09,27,24,036,21*45
$GNGLL,2217.98583,N,11410.75963,E,023429.00,A,A*7B
$GNZDA,023429.00,17,05,2021,00,00*74
$GNRMC,023430.00,A,2217.98491,N,11410.75926,E,2.709,173.14,170521,,,A*7B
$GNVTG,173.14,T,,M,2.709,N,5.018,K,A*23
$GNGGA,023430.00,2217.98491,N,11410.75926,E,1,08,1.26,58.2,M,-1.6,M,,*6D
$GNGSA,A,3,08,27,16,04,07,01,21,09,,,,,2.31,1.26,1.94*17
$GPGSV,3,1,09,01,42,169,28,04,20,196,21,07,56,321,32,08,54,012,33*75
$GPGSV,3,2,09,09,29,233,35,16,16,077,17,21,61,132,22,22,,,12*46
$GPGSV,3,3,09,27,24,036,20*44
$GNGLL,2217.98491,N,11410.75926,E,023430.00,A,A*70
$GNZDA,023430.00,17,05,2021,00,00*7C
$GNVTG,173.50,T,,M,2.710,N,5.020,K,A*20
$GNGGA,023431.00,2217.98402,N,11410.75891,E,1,04,1.21,60.4,M,-1.6,M,,*6D
$GNGSA,A,3,08,16,07,21,,,,,,,,,1.87,1.21,1.43*1D
$GPGSV,2,1,08,01,42,169,27,04,20,196,,07,56,321,32,08,54,012,33*79
$GPGSV,2,2,08,09,29,233,,16,16,077,18,21,61,132,30,27,24,036,*79
$GNGLL,2217.98402,N,11410.75891,E,023431.00,A,A*76
$GNZDA,023431.00,17,05,2021,00,00*7D
$GNVTG,173.82,T,,M,2.713,N,5.025,K,A*29
$GNGGA,023432.00,2217.98308,N,11410.75881,E,1,06,1.21,61.8,M,-1.6,M,,*6D
$GNGSA,A,3,08,16,07,01,21,09,,,,,,,1.87,1.21,1.43*15
$GPGSV,2,1,08,01,42,169,25,04,20,196,20,07,56,321,27,08,54,012,37*79
$GPGSV,2,2,08,09,29,233,37,16,16,077,17,21,61,132,28,27,24,036,22*7B
$GNGLL,2217.98308,N,11410.75881,E,023432.00,A,A*79
$GNZDA,023432.00,17,05,2021,00,00*7E
$GNVTG,174.05,T,,M,2.714,N,5.027,K,A*24
$GNGGA,023433.00,2217.98224,N,11410.75874,E,1,05,1.53,62.7,M,-1.6,M,,*63
$GNGSA,A,3,08,16,07,01,21,,,,,,,,2.69,1.53,2.21*1D
$GPGSV,2,1,08,01,42,169,24,04,20,196,19,07,56,321,26,08,54,012,29*7C
$GPGSV,2,2,08,09,29,233,,16,16,077,18,21,61,132,26,27,24,036,22*7E
$GNGLL,2217.98224,N,11410.75874,E,023433.00,A,A*7D
$GNZDA,023433.00,17,05,2021,00,00*7F
$GNVTG,174.38,T,,M,2.721,N,5.039,K,A*23
$GNGGA,023434.00,2217.98124,N,11410.75820,E,1,07,1.11,65.6,M,-1.6,M,,*64
$GNGSA,A,3,08,27,16,07,01,21,09,,,,,,1.93,1.11,1.58*1C
$GPGSV,2,1,08,01,42,169,33,04,20,196,,07,56,321,33,08,54,012,27*78
$GPGSV,2,2,08,09,29,233,38,16,16,077,17,21,61,132,35,27,24,036,20*7A
$GNGLL,2217.98124,N,11410.75820,E,023434.00,A,A*78
$GNZDA,023434.00,17,05,2021,00,00*78
$GNVTG,174.72,T,,M,2.732,N,5.060,K,A*23
$GNGGA,023435.00,2217.98000,N,11410.75789,E,1,06,1.27,66.1,M,-1.6,M,,*6E
$GNGSA,A,3,08,27,16,07,01,21,,,,,,,2.26,1.27,1.87*1F
$GPGSV,2,1,08,01,43,169,39,04,20,196,,07,56,321,36,08,54,012,24*75
$GPGSV,2,2,08,09,29,233,39,16,16,077,17,21,61,132,39,27,24,036,19*7D
$GNGLL,2217.98000,N,11410.75789,E,023435.00,A,A*72
$GNZDA,023435.00,17,05,2021,00,00*79
$GNVTG,175.68,T,,M,2.748,N,5.090,K,A*2B
$GNGGA,023436.00,2217.97810,N,11410.75566,E,1,07,1.51,65.6,M,-1.6,M,,*6C
$GNGSA,A,3,08,27,16,07,01,21,09,,,,,,3.33,1.51,2.97*10
$GPGSV,2,1,08,01,43,169,39,04,20,196,,07,56,321,39,08,54,012,24*7A
$GPGSV,2,2,08,09,29,233,37,16,16,077,17,21,61,132,39,27,24,036,17*7D
$GNGLL,2217.97810,N,11410.75566,E,023436.00,A,A*74
$GNZDA,023436.00,17,05,2021,00,00*7A
$GNVTG,176.13,T,,M,2.787,N,5.161,K,A*28
$GNGGA,023437.00,2217.97603,N,11410.75581,E,1,05,2.04,67.0,M,-1.6,M,,*6D
$GNGSA,A,3,08,27,07,01,21,,,,,,,,2.85,2.04,1.99*1C
$GPGSV,2,1,08,01,43,169,39,04,20,196,,07,57,320,39,08,54,012,38*77
$GPGSV,2,2,08,09,29,233,,16,16,077,,21,61,132,39,27,24,036,17*7F
$GNGLL,2217.97603,N,11410.75581,E,023437.00,A,A*70
$GNZDA,023437.00,17,05,2021,00,00*7B
$GNVTG,176.49,T,,M,2.823,N,5.229,K,A*29
$GNGGA,023438.00,2217.97397,N,11410.75567,E,1,06,2.19,69.1,M,-1.6,M,,*62
$GNGSA,A,3,08,27,07,01,21,09,,,,,,,5.26,2.19,4.78*1D
$GPGSV,2,1,08,01,43,169,38,04,20,196,17,07,57,320,39,08,54,012,37*7F
$GPGSV,2,2,08,09,29,233,38,16,16,077,,21,61,132,39,27,24,036,17*74
$GNGLL,2217.97397,N,11410.75567,E,023438.00,A,A*7F
$GNZDA,023438.00,17,05,2021,00,00*74
$GNVTG,176.68,T,,M,2.869,N,5.314,K,A*2B
$GNGGA,023439.00,2217.97176,N,11410.75585,E,1,06,2.19,71.6,M,-1.6,M,,*6C
$GNGSA,A,3,08,27,04,07,01,21,,,,,,,5.26,2.19,4.78*10
$GPGSV,2,1,08,01,43,169,21,04,20,196,26,07,57,320,35,08,54,012,37*79
$GPGSV,2,2,08,09,28,232,,16,16,077,,21,61,132,39,27,24,036,16*7E
$GNGLL,2217.97176,N,11410.75585,E,023439.00,A,A*7F
$GNZDA,023439.00,17,05,2021,00,00*75
$GNVTG,177.19,T,,M,2.877,N,5.329,K,A*2D
$GNGGA,023440.00,2217.97050,N,11410.75465,E,1,07,1.81,73.7,M,-1.6,M,,*68
$GNGSA,A,3,08,27,04,07,01,21,09,,,,,,2.65,1.81,1.93*1B
$GPGSV,2,1,08,01,43,169,16,04,20,196,22,07,57,320,35,08,54,012,35*7B
$GPGSV,2,2,08,09,28,232,34,16,16,078,,21,61,132,37,27,24,036,13*7D
$GNGLL,2217.97050,N,11410.75465,E,023440.00,A,A*7B
$GNZDA,023440.00,17,05,2021,00,00*7B
$GNVTG,177.67,T,,M,2.894,N,5.359,K,A*2E
$GNGGA,023441.00,2217.96922,N,11410.75414,E,1,07,1.82,76.9,M,-1.6,M,,*6A
$GNGSA,A,3,08,27,04,07,01,21,09,,,,,,2.69,1.82,1.99*1E
$GPGSV,2,1,08,01,43,169,17,04,20,196,19,07,57,320,27,08,54,012,34*70
$GPGSV,2,2,08,09,28,232,34,16,16,078,,21,61,132,34,27,24,036,10*7D
$GNGLL,2217.96922,N,11410.75414,E,023441.00,A,A*71
$GNZDA,023441.00,17,05,2021,00,00*7A
$GNVTG,,,,,,,,,N*2E
$GNGGA,023442.00,,,,,0,06,1.17,,,,,,*4A
$GNGSA,A,1,08,04,07,01,21,09,,,,,,,2.25,1.17,1.92*16
$GPGSV,2,1,08,01,43,169,17,04,20,196,17,07,57,320,25,08,54,012,34*7C
$GPGSV,2,2,08,09,28,232,32,16,16,078,,21,61,132,21,27,24,037,08*77
$GNGLL,,,,,023442.00,V,N*57
$GNZDA,023442.00,17,05,2021,00,00*79
$GNVTG,228.62,T,,M,19.075,N,35.326,K,A*24
$GNGGA,023443.00,2217.91905,N,11410.69387,E,1,07,0.81,22.7,M,-1.6,M,,*67
$GNGSA,A,3,08,27,04,07,01,21,09,,,,,,1.43,0.81,1.18*1E
$GPGSV,2,1,08,01,43,169,27,04,20,196,17,07,57,320,30,08,54,012,33*7C
$GPGSV,2,2,08,09,28,232,36,16,16,078,,21,61,132,21,27,24,037,13*79
$GNGLL,2217.91905,N,11410.69387,E,023443.00,A,A*71
$GNZDA,023443.00,17,05,2021,00,00*78
$GNVTG,231.69,T,,M,18.695,N,34.622,K,A*2E
$GNGGA,023444.00,2217.91730,N,11410.68751,E,1,07,0.81,17.5,M,-1.6,M,,*62
$GNGSA,A,3,08,27,04,07,01,21,09,,,,,,1.43,0.81,1.18*1E
$GPGSV,2,1,08,01,43,169,34,04,20,196,18,07,57,320,23,08,54,012,29*78
$GPGSV,2,2,08,09,28,232,36,16,16,078,,21,61,132,21,27,24,037,19*73
$GNGLL,2217.91730,N,11410.68751,E,023444.00,A,A*70
$GNZDA,023444.00,17,05,2021,00,00*7F
$GNVTG,231.77,T,,M,18.528,N,34.314,K,A*24
$GNGGA,023445.00,2217.91429,N,11410.68304,E,1,07,0.93,14.6,M,-1.6,M,,*6F
$GNGSA,A,3,08,27,04,07,01,21,09,,,,,,1.54,0.93,1.23*13
$GPGSV,2,1,08,01,43,169,34,04,20,196,18,07,57,320,25,08,54,012,28*7F
$GPGSV,2,2,08,09,28,232,35,16,16,078,06,21,61,132,37,27,24,037,30*7A
$GNGLL,2217.91429,N,11410.68304,E,023445.00,A,A*7E
$GNZDA,023445.00,17,05,2021,00,00*7E
$GNVTG,230.36,T,,M,18.110,N,33.540,K,A*2F
$GNGGA,023446.00,2217.90885,N,11410.68050,E,1,06,0.93,13.9,M,-1.6,M,,*6C
$GNGSA,A,3,08,27,07,01,21,09,,,,,,,1.54,0.93,1.23*17
$GPGSV,2,1,08,01,43,169,37,04,20,196,22,07,57,320,25,08,54,012,29*74
$GPGSV,2,2,08,09,28,232,36,16,16,078,07,21,61,132,40,27,24,037,28*71
$GNGLL,2217.90885,N,11410.68050,E,023446.00,A,A*74
$GNZDA,023446.00,17,05,2021,00,00*7D
$GNVTG,229.27,T,,M,17.888,N,33.128,K,A*2A
$GNGGA,023447.00,2217.90523,N,11410.67730,E,1,06,0.97,13.3,M,-1.6,M,,*6C
$GNGSA,A,3,08,27,07,01,21,09,,,,,,,1.83,0.97,1.55*18
$GPGSV,2,1,08,01,43,169,24,04,20,196,23,07,57,320,21,08,54,012,22*78
$GPGSV,2,2,08,09,28,232,34,16,16,078,07,21,61,132,39,27,24,037,26*73
$GNGLL,2217.90523,N,11410.67730,E,023447.00,A,A*7A
$GNZDA,023447.00,17,05,2021,00,00*7C
$GNVTG,228.76,T,,M,17.822,N,33.006,K,A*22
$GNGGA,023448.00,2217.90190,N,11410.67364,E,1,06,0.83,13.0,M,-1.6,M,,*6C
$GNGSA,A,3,08,27,07,01,21,09,,,,,,,1.48,0.83,1.22*1A
$GPGSV,2,1,08,01,43,169,23,04,20,196,21,07,57,320,17,08,54,012,22*78
$GPGSV,2,2,08,09,28,232,29,16,16,078,08,21,61,132,37,27,24,037,27*7F
$GNGLL,2217.90190,N,11410.67364,E,023448.00,A,A*7C
$GNZDA,023448.00,17,05,2021,00,00*73
$GNVTG,228.19,T,,M,17.829,N,33.020,K,A*24
$GNGGA,023449.00,2217.89819,N,11410.67008,E,1,07,0.93,13.9,M,-1.6,M,,*6D
$GNGSA,A,3,08,27,04,07,01,21,09,,,,,,1.54,0.93,1.23*13
$GPGSV,2,1,08,01,43,169,30,04,20,196,20,07,57,320,14,08,54,012,21*7B
$GPGSV,2,2,08,09,28,232,24,16,16,078,07,21,61,132,39,27,24,037,26*72
$GNGLL,2217.89819,N,11410.67008,E,023449.00,A,A*74
$GNZDA,023449.00,17,05,2021,00,00*72
$GNVTG,228.04,T,,M,17.840,N,33.040,K,A*21
$GNGGA,023450.00,2217.89485,N,11410.66628,E,1,07,0.97,14.4,M,-1.6,M,,*67
$GNGSA,A,3,08,27,04,07,01,21,09,,,,,,1.55,0.97,1.21*14
$GPGSV,2,1,08,01,43,169,24,04,20,196,19,07,57,320,16,08,54,012,20*77
$GPGSV,2,2,08,09,28,232,23,16,16,078,07,21,61,132,31,27,24,037,23*78
$GNGLL,2217.89485,N,11410.66628,E,023450.00,A,A*70
$GNZDA,023450.00,17,05,2021,00,00*7A
$GNVTG,228.10,T,,M,17.843,N,33.046,K,A*21
$GNGGA,023451.00,2217.89148,N,11410.66230,E,1,07,1.18,15.1,M,-1.6,M,,*6D
$GNGSA,A,3,08,27,04,07,01,21,09,,,,,,1.92,1.18,1.52*1D
$GPGSV,2,1,08,01,43,169,22,04,20,196,18,07,57,320,17,08,54,012,20*71
$GPGSV,2,2,08,09,28,232,31,16,16,078,08,21,61,132,25,27,24,037,21*73
$GNGLL,2217.89148,N,11410.66230,E,023451.00,A,A*78
$GNZDA,023451.00,17,05,2021,00,00*7B
$GNVTG,228.25,T,,M,17.836,N,33.031,K,A*25
$GNGGA,023452.00,2217.88820,N,11410.65821,E,1,07,1.18,15.9,M,-1.6,M,,*69
$GNGSA,A,3,08,27,04,07,01,21,09,,,,,,1.92,1.18,1.52*1D
$GPGSV,2,1,08,01,43,169,19,04,20,196,18,07,57,320,16,08,54,012,19*72
$GPGSV,2,2,08,09,28,232,32,16,16,078,08,21,61,132,33,27,24,037,16*73
$GNGLL,2217.88820,N,11410.65821,E,023452.00,A,A*74
$GNZDA,023452.00,17,05,2021,00,00*78
$GNVTG,228.38,T,,M,17.852,N,33.062,K,A*2D
$GNGGA,023453.00,2217.88501,N,11410.65401,E,1,07,1.60,17.1,M,-1.6,M,,*6D
$GNGSA,A,3,08,27,04,07,01,21,09,,,,,,2.30,1.60,1.65*1D
$GPGSV,2,1,08,01,43,169,16,04,20,196,17,07,57,320,31,08,54,012,18*76
$GPGSV,2,2,08,09,28,232,27,16,16,078,08,21,61,132,28,27,24,037,13*78
$GNGLL,2217.88501,N,11410.65401,E,023453.00,A,A*75
$GNZDA,023453.00,17,05,2021,00,00*79
$GNVTG,228.54,T,,M,17.880,N,33.113,K,A*2F
$GNGGA,023454.00,2217.88167,N,11410.64999,E,1,07,1.33,17.0,M,-1.6,M,,*64
$GNGSA,A,3,08,27,04,07,01,21,09,,,,,,2.29,1.33,1.86*1E
$GPGSV,2,1,08,01,43,169,15,04,20,196,16,07,57,320,28,08,54,012,18*7C
$GPGSV,2,2,08,09,28,232,28,16,16,078,08,21,61,132,29,27,24,037,10*75
$GNGLL,2217.88167,N,11410.64999,E,023454.00,A,A*7B
$GNZDA,023454.00,17,05,2021,00,00*7E
$GNVTG,228.59,T,,M,17.889,N,33.130,K,A*2A
$GNGGA,023455.00,2217.87835,N,11410.64605,E,1,06,1.26,17.4,M,-1.6,M,,*6F
$GNGSA,A,3,08,04,07,01,21,09,,,,,,,2.36,1.26,2.00*1C
$GPGSV,2,1,08,01,43,169,14,04,20,196,14,07,57,320,29,08,54,012,17*71
$GPGSV,2,2,08,09,28,232,28,16,16,078,07,21,61,132,28,27,24,037,08*72
$GNGLL,2217.87835,N,11410.64605,E,023455.00,A,A*71
$GNZDA,023455.00,17,05,2021,00,00*7F
$GNVTG,228.68,T,,M,17.895,N,33.142,K,A*20
$GNGGA,023456.00,2217.87506,N,11410.64206,E,1,06,1.10,17.7,M,-1.6,M,,*60
$GNGSA,A,3,08,04,07,01,21,09,,,,,,,2.64,1.10,2.40*1A
$GPGSV,2,1,08,01,43,169,29,04,20,196,16,07,57,320,32,08,54,012,16*76
$GPGSV,2,2,08,09,28,232,31,16,16,078,07,21,61,132,27,27,24,037,10*7C
$GNGLL,2217.87506,N,11410.64206,E,023456.00,A,A*78
$GNZDA,023456.00,17,05,2021,00,00*7C
$GNVTG,229.15,T,,M,17.937,N,33.219,K,A*2F
$GNGGA,023457.00,2217.87189,N,11410.63772,E,1,06,1.10,17.6,M,-1.6,M,,*62
$GNGSA,A,3,08,04,07,01,21,09,,,,,,,2.64,1.10,2.40*1A
$GPGSV,2,1,08,01,43,169,33,04,20,196,17,07,57,320,27,08,54,012,28*75
$GPGSV,2,2,08,09,28,232,31,16,16,078,08,21,61,132,34,27,24,037,09*79
$GNGLL,2217.87189,N,11410.63772,E,023457.00,A,A*7B
$GNZDA,023457.00,17,05,2021,00,00*7D
$GNVTG,229.34,T,,M,17.993,N,33.322,K,A*2B
$GNGGA,023458.00,2217.86835,N,11410.63359,E,1,06,1.22,16.2,M,-1.6,M,,*6B
$GNGSA,A,3,08,04,07,01,21,09,,,,,,,2.70,1.22,2.41*1F
$GPGSV,2,1,08,01,43,169,36,04,20,196,19,07,57,320,35,08,54,012,33*77
$GPGSV,2,2,08,09,28,232,33,16,16,078,08,21,61,132,35,27,24,037,10*72
$GNGLL,2217.86835,N,11410.63359,E,023458.00,A,A*76
$GNZDA,023458.00,17,05,2021,00,00*72
$GNVTG,229.29,T,,M,18.012,N,33.359,K,A*24
$GNGGA,023459.00,2217.86499,N,11410.62946,E,1,06,1.22,16.6,M,-1.6,M,,*61
$GNGSA,A,3,08,04,07,01,21,09,,,,,,,2.70,1.22,2.41*1F
$GPGSV,2,1,08,01,43,169,21,04,20,196,18,07,57,320,34,08,54,012,32*70
$GPGSV,2,2,08,09,28,232,18,16,16,078,08,21,61,132,35,27,24,037,10*7B
$GNGLL,2217.86499,N,11410.62946,E,023459.00,A,A*78
$GNZDA,023459.00,17,05,2021,00,00*73
$GNVTG,229.28,T,,M,18.015,N,33.363,K,A*2B
$GNGGA,023500.00,2217.86170,N,11410.62535,E,1,07,1.16,16.9,M,-1.6,M,,*6F
$GNGSA,A,3,08,27,04,07,01,21,09,,,,,,2.13,1.16,1.79*10
$GPGSV,2,1,08,01,43,169,19,04,20,196,17,07,57,320,19,08,54,012,25*7D
$GPGSV,2,2,08,09,28,232,19,16,16,078,09,21,61,132,23,27,24,037,13*7F
$GNGLL,2217.86170,N,11410.62535,E,023500.00,A,A*7F
$GNZDA,023500.00,17,05,2021,00,00*7E
$GNVTG,229.30,T,,M,18.017,N,33.367,K,A*24
$GNGGA,023501.00,2217.85841,N,11410.62124,E,1,07,1.16,17.1,M,-1.6,M,,*6B
$GNGSA,A,3,08,27,04,07,01,21,09,,,,,,2.13,1.16,1.78*11
$GPGSV,2,1,08,01,43,169,16,04,20,196,13,07,57,320,18,08,54,012,22*70
$GPGSV,2,2,08,09,28,232,21,16,16,078,10,21,61,132,25,27,24,037,12*7B
$GNGLL,2217.85841,N,11410.62124,E,023501.00,A,A*72
$GNZDA,023501.00,17,05,2021,00,00*7F
$GNVTG,229.24,T,,M,18.026,N,33.385,K,A*2F
$GNGGA,023502.00,2217.85498,N,11410.61723,E,1,06,1.22,17.1,M,-1.6,M,,*64
$GNGSA,A,3,08,04,07,01,21,09,,,,,,,2.70,1.22,2.41*1F
$GPGSV,2,1,08,01,43,169,16,04,20,196,13,07,57,320,30,08,54,012,31*78
$GPGSV,2,2,08,09,28,232,25,16,16,078,09,21,61,132,22,27,24,037,10*72
$GNGLL,2217.85498,N,11410.61723,E,023502.00,A,A*7B
$GNZDA,023502.00,17,05,2021,00,00*7C
$GNVTG,229.07,T,,M,18.077,N,33.479,K,A*2E
$GNGGA,023503.00,2217.85129,N,11410.61317,E,1,06,1.22,15.8,M,-1.6,M,,*62
$GNGSA,A,3,08,04,07,01,21,09,,,,,,,2.70,1.22,2.41*1F
$GPGSV,2,1,08,01,43,169,20,04,20,196,13,07,57,320,34,08,54,012,32*7A
$GPGSV,2,2,08,09,28,232,32,16,16,078,09,21,61,132,20,27,24,037,09*7E
$GNGLL,2217.85129,N,11410.61317,E,023503.00,A,A*76
$GNZDA,023503.00,17,05,2021,00,00*7D
$GNRMC,023504.00,A,2217.84761,N,11410.60895,E,18.146,228.74,170521,,,A*4C
$GNVTG,228.74,T,,M,18.146,N,33.606,K,A*22
$GNGGA,023504.00,2217.84761,N,11410.60895,E,1,06,1.22,15.3,M,-1.6,M,,*65
$GNGSA,A,3,08,04,07,01,21,09,,,,,,,2.70,1.22,2.41*1F
$GPGSV,2,1,08,01,43,169,29,04,20,196,14,07,57,320,22,08,54,012,32*73
$GPGSV,2,2,08,09,28,232,29,16,16,078,08,21,61,132,36,27,24,037,09*72
$GNGLL,2217.84761,N,11410.60895,E,023504.00,A,A*7A
$GNZDA,023504.00,17,05,2021,00,00*7A
$GNVTG,228.65,T,,M,18.222,N,33.748,K,A*28
$GNGGA,023505.00,2217.84395,N,11410.60461,E,1,05,1.22,15.8,M,-1.6,M,,*64
$GNGSA,A,3,08,07,01,21,09,,,,,,,,2.70,1.22,2.41*1B
$GPGSV,2,1,08,01,43,169,22,04,20,196,,07,57,320,20,08,54,012,34*79
$GPGSV,2,2,08,09,28,232,28,16,16,078,07,21,61,132,36,27,24,037,12*76
$GNGLL,2217.84395,N,11410.60461,E,023505.00,A,A*73
$GNZDA,023505.00,17,05,2021,00,00*7B
$GNVTG,228.59,T,,M,18.254,N,33.807,K,A*22
$GNGGA,023506.00,2217.84041,N,11410.60040,E,1,06,1.16,15.7,M,-1.6,M,,*61
$GNGSA,A,3,08,27,07,01,21,09,,,,,,,2.13,1.16,1.78*15
$GPGSV,2,1,08,01,43,169,22,04,20,196,,07,57,320,17,08,54,012,36*7F
$GPGSV,2,2,08,09,28,232,28,16,16,078,07,21,61,132,29,27,24,037,15*7F
$GNGLL,2217.84041,N,11410.60040,E,023506.00,A,A*7D
$GNZDA,023506.00,17,05,2021,00,00*78
$GNVTG,228.59,T,,M,18.253,N,33.804,K,A*26
$GNGGA,023507.00,2217.83702,N,11410.59623,E,1,06,1.16,15.5,M,-1.6,M,,*6C
$GNGSA,A,3,08,27,07,01,21,09,,,,,,,2.13,1.16,1.78*15
$GPGSV,2,1,08,01,43,169,19,04,20,196,,07,57,320,19,08,54,012,29*77
$GPGSV,2,2,08,09,28,232,32,16,16,078,07,21,61,132,21,27,24,037,16*7F
$GNGLL,2217.83702,N,11410.59623,E,023507.00,A,A*72
$GNZDA,023507.00,17,05,2021,00,00*79
$GNVTG,228.46,T,,M,18.207,N,33.720,K,A*20
$GNGGA,023508.00,2217.83343,N,11410.59282,E,1,06,1.16,14.0,M,-1.6,M,,*69
$GNGSA,A,3,08,27,07,01,21,09,,,,,,,2.13,1.16,1.78*15
$GPGSV,2,1,08,01,43,169,19,04,20,196,,07,57,320,38,08,54,012,29*74
$GPGSV,2,2,08,09,28,232,31,16,16,078,,21,61,132,22,27,24,037,17*79
$GNGLL,2217.83343,N,11410.59282,E,023508.00,A,A*73
$GNZDA,023508.00,17,05,2021,00,00*76
$GNVTG,228.68,T,,M,18.211,N,33.726,K,A*2D
$GNGGA,023509.00,2217.83023,N,11410.58855,E,1,06,1.17,14.5,M,-1.6,M,,*68
$GNGSA,A,3,08,27,07,01,21,09,,,,,,,2.22,1.17,1.88*19
$GPGSV,2,1,08,01,43,169,16,04,20,196,,07,57,320,36,08,54,012,29*75
$GPGSV,2,2,08,09,28,232,24,16,16,078,,21,61,132,19,27,24,037,16*74
$GNGLL,2217.83023,N,11410.58855,E,023509.00,A,A*76
$GNZDA,023509.00,17,05,2021,00,00*77
$GNVTG,229.72,T,,M,18.193,N,33.693,K,A*21
$GNGGA,023510.00,2217.82810,N,11410.58348,E,1,06,1.33,13.9,M,-1.6,M,,*63
$GNGSA,A,3,08,27,07,01,21,09,,,,,,,2.28,1.33,1.85*18
$GPGSV,2,1,08,01,43,169,16,04,20,196,,07,57,320,36,08,54,012,29*75
$GPGSV,2,2,08,09,28,232,24,16,16,078,,21,61,132,36,27,24,037,17*78
$GNGLL,2217.82810,N,11410.58348,E,023510.00,A,A*70
$GNZDA,023510.00,17,05,2021,00,00*7F
$GNVTG,231.39,T,,M,18.053,N,33.434,K,A*25
$GNGGA,023511.00,2217.82716,N,11410.57837,E,1,06,1.14,11.3,M,-1.6,M,,*6A
$GNGSA,A,3,08,27,07,01,21,09,,,,,,,2.17,1.14,1.84*10
$GPGSV,2,1,08,01,43,169,14,04,20,196,,07,57,320,36,08,54,012,26*78
$GPGSV,2,2,08,09,28,232,34,16,16,078,,21,61,132,35,27,24,037,18*75
$GNGLL,2217.82716,N,11410.57837,E,023511.00,A,A*74
$GNZDA,023511.00,17,05,2021,00,00*7E
$GNVTG,233.06,T,,M,18.037,N,33.405,K,A*2B
$GNGGA,023512.00,2217.82591,N,11410.57298,E,1,06,1.98,7.8,M,-1.6,M,,*53
$GNGSA,A,3,08,27,07,01,21,09,,,,,,,4.01,1.98,3.48*17
$GPGSV,2,1,08,01,43,169,15,04,20,196,,07,57,320,34,08,54,012,31*7D
$GPGSV,2,2,08,09,28,232,32,16,16,078,,21,61,132,27,27,24,037,17*7F
$GNGLL,2217.82591,N,11410.57298,E,023512.00,A,A*75
$GNZDA,023512.00,17,05,2021,00,00*7D
$GNVTG,233.97,T,,M,17.970,N,33.280,K,A*2D
$GNGGA,023513.00,2217.82421,N,11410.56829,E,1,06,1.98,4.5,M,-1.6,M,,*57
$GNGSA,A,3,08,27,07,01,21,09,,,,,,,4.01,1.98,3.48*17
$GPGSV,2,1,08,01,43,169,14,04,20,196,,07,57,320,31,08,54,012,33*7B
$GPGSV,2,2,08,09,28,232,26,16,16,078,,21,61,132,28,27,24,037,15*77
$GNGLL,2217.82421,N,11410.56829,E,023513.00,A,A*7F
$GNZDA,023513.00,17,05,2021,00,00*7C
$GNVTG,235.12,T,,M,17.904,N,33.159,K,A*22
$GNGGA,023514.00,2217.82293,N,11410.56339,E,1,06,1.98,2.2,M,-1.6,M,,*54
$GNGSA,A,3,08,27,07,01,21,09,,,,,,,4.01,1.98,3.48*17
$GPGSV,2,1,08,01,43,169,14,04,20,196,,07,57,320,25,08,54,012,32*7F
$GPGSV,2,2,08,09,28,232,25,16,16,078,15,21,61,132,32,27,24,037,15*7B
$GNGLL,2217.82293,N,11410.56339,E,023514.00,A,A*7D
$GNZDA,023514.00,17,05,2021,00,00*7B
$GNVTG,235.54,T,,M,17.835,N,33.031,K,A*2C
$GNGGA,023515.00,2217.82093,N,11410.55899,E,1,06,1.98,0.3,M,-1.6,M,,*56
$GNGSA,A,3,08,27,07,01,21,09,,,,,,,4.01,1.98,3.48*17
$GPGSV,2,1,08,01,43,169,14,04,20,196,,07,57,320,27,08,54,012,27*79
$GPGSV,2,2,08,09,28,232,22,16,16,078,13,21,61,132,32,27,24,037,14*7B
$GNGLL,2217.82093,N,11410.55899,E,023515.00,A,A*7C
$GNZDA,023515.00,17,05,2021,00,00*7A
$GNVTG,235.52,T,,M,17.719,N,32.816,K,A*27
$GNGGA,023516.00,2217.81858,N,11410.55522,E,1,05,2.02,-2.4,M,-1.6,M,,*7F
$GNGSA,A,3,08,27,07,01,21,,,,,,,,4.06,2.02,3.52*12
$GPGSV,2,1,08,01,43,169,17,04,20,196,,07,57,320,27,08,54,012,25*78
$GPGSV,2,2,08,09,28,232,,16,16,078,09,21,61,132,32,27,24,037,13*77
$GNGLL,2217.81858,N,11410.55522,E,023516.00,A,A*7E
$GNZDA,023516.00,17,05,2021,00,00*79
$GNVTG,234.99,T,,M,17.470,N,32.355,K,A*21
$GNGGA,023517.00,2217.81605,N,11410.55268,E,1,05,2.21,-8.6,M,-1.6,M,,*78
$GNGSA,A,3,08,27,07,01,21,,,,,,,,7.26,2.21,6.92*1B
$GPGSV,2,1,08,01,43,169,21,04,20,196,,07,57,320,32,08,54,012,26*7A
$GPGSV,2,2,08,09,28,232,19,16,16,078,10,21,61,132,33,27,24,037,14*71
$GNGLL,2217.81605,N,11410.55268,E,023517.00,A,A*70
$GNZDA,023517.00,17,05,2021,00,00*78
$GNVTG,234.44,T,,M,17.224,N,31.898,K,A*2F
$GNGGA,023518.00,2217.81349,N,11410.55035,E,1,05,2.21,-14.8,M,-1.6,M,,*43
$GNGSA,A,3,08,27,07,01,21,,,,,,,,7.27,2.21,6.92*1A
$GPGSV,2,1,08,01,43,169,23,04,20,196,,07,57,320,31,08,54,012,26*7B
$GPGSV,2,2,08,09,28,232,19,16,16,078,13,21,61,132,32,27,24,037,15*72
$GNGLL,2217.81349,N,11410.55035,E,023518.00,A,A*78
$GNZDA,023518.00,17,05,2021,00,00*77
$sA??9?%™AÐtÞÄ
$GNVTG,233.86,T,,M,17.005,N,31.493,K,A*20
$GNGGA,023519.00,2217.81086,N,11410.54801,E,1,06,2.21,-20.8,M,-1.6,M,,*48
$GNGSA,A,3,08,27,16,07,01,21,,,,,,,7.27,2.21,6.92*1D
$GPGSV,2,1,08,01,43,169,23,04,20,196,,07,57,320,30,08,54,012,26*7A
$GPGSV,2,2,08,09,28,232,18,16,16,078,12,21,61,132,31,27,24,037,16*72
$GNGLL,2217.81086,N,11410.54801,E,023519.00,A,A*77
$GNZDA,023519.00,17,05,2021,00,00*76
$GNVTG,233.31,T,,M,16.795,N,31.104,K,A*28
$GNGGA,023520.00,2217.80825,N,11410.54576,E,1,07,2.21,-27.1,M,-1.6,M,,*40
$GNGSA,A,3,08,27,16,07,01,21,09,,,,,,7.27,2.21,6.92*14
$GPGSV,2,1,08,01,43,169,24,04,20,196,,07,57,320,30,08,54,012,25*7E
$GPGSV,2,2,08,09,28,232,18,16,16,078,11,21,61,132,31,27,24,037,15*72
$GNGLL,2217.80825,N,11410.54576,E,023520.00,A,A*70
$GNZDA,023520.00,17,05,2021,00,00*7C
$GNVTG,232.82,T,,M,16.602,N,30.746,K,A*2F
$GNGGA,023521.00,2217.80568,N,11410.54349,E,1,06,2.21,-33.4,M,-1.6,M,,*4E
$GNGSA,A,3,08,27,07,01,21,09,,,,,,,7.27,2.21,6.93*12
$GPGSV,2,1,08,01,43,169,25,04,20,196,,07,57,320,29,08,54,012,24*76
$GPGSV,2,2,08,09,28,232,19,16,16,078,09,21,61,132,30,27,24,037,15*7B
$GNGLL,2217.80568,N,11410.54349,E,023521.00,A,A*7F
$GNZDA,023521.00,17,05,2021,00,00*7D
$GNVTG,,T,,M,1.412,N,2.615,K,A*3B
$GNGGA,023522.00,2217.82315,N,11410.56395,E,1,07,2.42,-38.6,M,-1.6,M,,*4D
$GNGSA,A,3,08,27,16,07,01,21,09,,,,,,7.62,2.42,7.22*1A
$GPGSV,2,1,08,01,43,169,25,04,20,196,,07,57,320,29,08,54,012,24*76
$GPGSV,2,2,08,09,28,232,18,16,16,078,11,21,61,131,31,27,24,037,14*70
$GNGLL,2217.82315,N,11410.56395,E,023522.00,A,A*71
$GNZDA,023522.00,17,05,2021,00,00*7E
$GNVTG,,T,,M,1.216,N,2.252,K,A*3E
$GNGGA,023523.00,2217.82593,N,11410.56701,E,1,06,2.02,-33.9,M,-1.6,M,,*4C
$GNGSA,A,3,08,27,07,01,21,09,,,,,,,4.06,2.02,3.52*1B
$GPGSV,2,1,08,01,43,169,25,04,20,196,,07,57,320,28,08,54,012,25*76
$GPGSV,2,2,08,09,28,232,19,16,16,078,09,21,61,131,32,27,24,037,15*7A
$GNGLL,2217.82593,N,11410.56701,E,023523.00,A,A*71
$GNZDA,023523.00,17,05,2021,00,00*7F
$GNVTG,,T,,M,1.112,N,2.060,K,A*3A
$GNGGA,023524.00,2217.82692,N,11410.56859,E,1,06,2.03,-30.5,M,-1.6,M,,*45
$GNGSA,A,3,08,27,07,01,21,09,,,,,,,4.06,2.03,3.52*1A
