$GPGGA,023255.00,2218.070600,N,11410.742212,E,1,15,1.1,2.7,M,,M,,*7D,1621218775004
$GNGSA,A,3,1,4,7,8,16,21,27,30,206,207,209,213,1.9,1.1,1.6*21,1621218775004
$GPGSA,A,3,1,4,7,8,16,21,27,30,,,,,1.9,1.1,1.6,1*28,1621218775004
$GPGSA,A,3,1,,,,,,,,,,,,1.9,1.1,1.6,8*18,1621218775004
$GLGSA,A,3,79,,,,,,,,,,,,1.9,1.1,1.6,1*32,1621218775004
$BDGSA,A,3,206,207,209,213,216,227,228,230,237,,,,1.9,1.1,1.6,1*06,1621218775004
$BDGSA,A,3,227,228,230,237,,,,,,,,,1.9,1.1,1.6,7*3F,1621218775004
$BDGSA,A,3,227,228,230,237,,,,,,,,,1.9,1.1,1.6,8*30,1621218775004
$GAGSA,A,3,101,104,113,121,126,133,,,,,,,1.9,1.1,1.6,7*37,1621218775004
$GAGSA,A,3,113,,,,,,,,,,,,1.9,1.1,1.6,1*02,1621218775004
$QZGSA,A,3,,,,,,,,,,,,,1.9,1.1,1.6,1*3C,1621218775004
$QZGSA,A,3,194,,,,,,,,,,,,1.9,1.1,1.6,8*09,1621218775004
$PIGSA,A,3,282,283,284,285,287,,,,,,,,1.9,1.1,1.6,8*1A,1621218775004
$GPGSV,4,1,13,01,42,169,18,04,20,196,16,07,55,320,09,08,54,011,27,1*6F,1621218775004
$GPGSV,4,2,13,09,19,196,,11,32,194,,14,08,295,,16,16,076,22,1*60,1621218775004
$GPGSV,4,3,13,21,60,133,26,22,08,137,,27,24,036,12,30,17,320,16,1*6A,1621218775004
$GPGSV,4,4,13,01,42,169,23,8*57,1621218775004
$GLGSV,2,1,06,71,02,267,,79,12,117,12,80,53,066,,82,24,026,,1*75,1621218775004
$GLGSV,2,2,06,83,73,028,,84,40,204,,1*75,1621218775004
$BDGSV,7,1,26,201,47,122,,202,46,234,,203,62,189,,204,33,109,,1*7A,1621218775004
$BDGSV,7,2,26,205,22,254,,206,34,189,16,207,56,011,25,208,35,158,,1*75,1621218775004
$BDGSV,7,3,26,209,50,220,15,210,49,325,,213,22,179,12,216,37,195,09,1*7C,1621218775004
$BDGSV,7,4,26,227,71,026,33,228,17,037,13,230,50,229,19,231,17,212,,1*7D,1621218775004
$BDGSV,7,5,26,236,13,318,,237,50,106,22,1*78,1621218775004
$BDGSV,7,6,26,227,71,026,31,228,17,037,,230,50,229,21,237,50,106,28,7*7B,1621218775004
$BDGSV,7,7,26,227,71,026,24,228,17,037,,230,50,229,22,237,50,106,22,8*78,1621218775004
$QZGSV,2,1,04,193,11,156,,194,62,069,,195,64,063,,1*7B,1621218775004
$QZGSV,2,2,04,194,62,069,12,8*71,1621218775004
$GAGSV,3,1,09,101,40,335,23,104,16,274,24,113,35,046,26,119,19,217,,7*7B,1621218775004
$GAGSV,3,2,09,121,49,051,10,126,69,137,15,127,13,097,,133,29,196,12,7*75,1621218775004
$GAGSV,3,3,09,113,35,046,16,1*7C,1621218775004
$PIGSV,2,1,06,282,24,284,14,283,45,236,32,284,85,002,23,285,34,179,17,8*6C,1621218775004
$PIGSV,2,2,06,287,57,145,22,289,07,240,,8*68,1621218775004
$GPRMC,023255.00,A,2218.070600,N,11410.742212,E,000.0,227.2,170521,,E,A*10,1621218775004
$GPGGA,023256.00,2218.070621,N,11410.742077,E,1,16,1.0,2.7,M,,M,,*7E,1621218776005
$GNGSA,A,3,1,4,7,8,16,21,27,30,206,207,209,213,1.6,1.0,1.2*2B,1621218776005
$GPGSA,A,3,1,4,7,8,16,21,27,30,,,,,1.6,1.0,1.2,1*22,1621218776005
$GPGSA,A,3,1,,,,,,,,,,,,1.6,1.0,1.2,8*12,1621218776005
$GLGSA,A,3,79,,,,,,,,,,,,1.6,1.0,1.2,1*38,1621218776005
$BDGSA,A,3,206,207,209,213,216,227,228,230,237,,,,1.6,1.0,1.2,1*0C,1621218776005
$BDGSA,A,3,227,228,230,237,,,,,,,,,1.6,1.0,1.2,7*35,1621218776005
$BDGSA,A,3,227,228,230,237,,,,,,,,,1.6,1.0,1.2,8*3A,1621218776005
$GAGSA,A,3,101,104,113,121,126,133,,,,,,,1.6,1.0,1.2,7*3D,1621218776005
$GAGSA,A,3,113,,,,,,,,,,,,1.6,1.0,1.2,1*08,1621218776005
$QZGSA,A,3,,,,,,,,,,,,,1.6,1.0,1.2,1*36,1621218776005
$QZGSA,A,3,194,,,,,,,,,,,,1.6,1.0,1.2,8*03,1621218776005
$PIGSA,A,3,282,283,284,285,287,,,,,,,,1.6,1.0,1.2,8*10,1621218776005
$GPGSV,4,1,12,01,42,169,18,04,20,196,15,07,55,320,15,08,54,011,27,1*60,1621218776005
$GPGSV,4,2,12,09,19,196,,14,08,295,,16,16,076,21,21,60,133,26,1*6F,1621218776005
$GPGSV,4,3,12,22,08,137,,27,24,036,11,30,17,320,16,1*58,1621218776005
$GPGSV,4,4,12,01,42,169,23,8*56,1621218776005
$GLGSV,2,1,06,71,02,267,,79,12,117,12,80,53,066,,82,24,026,,1*75,1621218776005
$GLGSV,2,2,06,83,73,028,,84,40,204,,1*75,1621218776005
$BDGSV,9,1,33,201,47,122,,202,46,234,,203,62,189,,204,33,109,,1*70,1621218776005
$BDGSV,9,2,33,205,22,254,,206,34,189,15,207,56,011,25,208,35,158,,1*7C,1621218776005
$BDGSV,9,3,33,209,50,220,15,210,49,325,,213,22,179,14,216,37,195,09,1*70,1621218776005
$BDGSV,9,4,33,227,71,026,32,228,17,037,13,230,50,229,19,236,13,318,,1*7E,1621218776005
$BDGSV,9,5,33,237,50,106,22,1*7D,1621218776005
$BDGSV,9,6,33,227,71,026,30,228,17,037,,230,50,229,20,237,50,106,28,7*71,1621218776005
$BDGSV,9,7,33,227,71,026,24,228,17,037,,230,50,229,22,236,13,318,,8*79,1621218776005
$BDGSV,9,8,33,237,50,106,21,238,32,169,,239,38,204,,240,47,344,,8*7F,1621218776005
$BDGSV,9,9,33,246,59,347,,259,50,127,,260,44,241,,261,66,190,,8*71,1621218776005
$QZGSV,2,1,04,193,11,156,,194,62,069,,195,64,063,,1*7B,1621218776005
$QZGSV,2,2,04,194,62,069,11,8*72,1621218776005
$GAGSV,3,1,09,101,40,335,23,104,16,274,25,113,35,046,26,119,19,217,,7*7A,1621218776005
$GAGSV,3,2,09,121,49,051,09,126,69,137,15,127,13,097,,133,29,196,12,7*7D,1621218776005
$GAGSV,3,3,09,113,35,046,16,1*7C,1621218776005
$PIGSV,2,1,06,282,24,284,13,283,45,236,32,284,85,002,21,285,34,179,17,8*69,1621218776005
$PIGSV,2,2,06,287,57,145,21,289,07,240,,8*6B,1621218776005
$GPRMC,023256.00,A,2218.070621,N,11410.742077,E,000.0,227.3,170521,,E,A*10,1621218776005
$GPGGA,023257.00,2218.070634,N,11410.742130,E,1,17,1.0,2.7,M,,M,,*78,1621218777003
$GNGSA,A,3,1,4,7,8,16,21,27,30,206,207,209,213,1.6,1.0,1.3*2A,1621218777003
$GPGSA,A,3,1,4,7,8,16,21,27,30,,,,,1.6,1.0,1.3,1*23,1621218777003
$GPGSA,A,3,1,,,,,,,,,,,,1.6,1.0,1.3,8*13,1621218777003
$GLGSA,A,3,79,,,,,,,,,,,,1.6,1.0,1.3,1*39,1621218777003
$BDGSA,A,3,206,207,209,213,216,227,228,230,237,,,,1.6,1.0,1.3,1*0D,1621218777003
$BDGSA,A,3,227,228,230,237,,,,,,,,,1.6,1.0,1.3,7*34,1621218777003
$BDGSA,A,3,227,228,230,237,,,,,,,,,1.6,1.0,1.3,8*3B,1621218777003
$GAGSA,A,3,101,104,113,121,126,133,,,,,,,1.6,1.0,1.3,7*3C,1621218777003
$GAGSA,A,3,113,,,,,,,,,,,,1.6,1.0,1.3,1*09,1621218777003
$QZGSA,A,3,,,,,,,,,,,,,1.6,1.0,1.3,1*37,1621218777003
$QZGSA,A,3,194,,,,,,,,,,,,1.6,1.0,1.3,8*02,1621218777003
$PIGSA,A,3,282,283,284,285,287,,,,,,,,1.6,1.0,1.3,8*11,1621218777003
$GPGSV,4,1,13,01,42,169,18,04,20,196,16,07,55,320,15,08,54,011,27,1*62,1621218777003
$GPGSV,4,2,13,09,19,196,,11,32,194,,14,08,295,,16,16,076,21,1*63,1621218777003
$GPGSV,4,3,13,21,60,133,27,22,08,137,,27,24,036,09,30,17,320,15,1*62,1621218777003
$GPGSV,4,4,13,01,42,169,23,8*57,1621218777003
$GLGSV,2,1,06,71,02,267,,79,12,117,12,80,53,066,,82,24,026,,1*75,1621218777003
$GLGSV,2,2,06,83,73,028,,84,40,204,,1*75,1621218777003
$BDGSV,7,1,26,201,47,122,,202,46,234,,203,62,189,,204,33,109,,1*7A,1621218777003
$BDGSV,7,2,26,205,22,254,,206,34,189,14,207,56,011,25,208,35,158,,1*77,1621218777003
$BDGSV,7,3,26,209,50,220,15,210,49,325,,213,22,179,14,216,37,195,09,1*7A,1621218777003
$BDGSV,7,4,26,227,71,026,33,228,17,037,12,230,50,229,19,231,17,212,,1*7C,1621218777003
$BDGSV,7,5,26,236,13,318,,237,50,106,21,1*7B,1621218777003
$BDGSV,7,6,26,227,71,026,31,228,17,037,,230,50,229,20,237,50,106,28,7*7A,1621218777003
$BDGSV,7,7,26,227,71,026,23,228,17,037,,230,50,229,22,237,50,106,21,8*7C,1621218777003
$QZGSV,2,1,04,193,11,156,,194,62,069,,195,64,063,,1*7B,1621218777003
$QZGSV,2,2,04,194,62,069,10,8*73,1621218777003
$GAGSV,3,1,09,101,40,335,24,104,16,274,26,113,35,046,26,119,19,217,,7*7E,1621218777003
$GAGSV,3,2,09,121,49,052,10,126,69,137,13,127,13,097,,133,29,196,11,7*73,1621218777003
$GAGSV,3,3,09,113,35,046,16,1*7C,1621218777003
$PIGSV,2,1,06,282,24,284,14,283,45,236,32,284,85,002,21,285,34,179,17,8*6E,1621218777003
$PIGSV,2,2,06,287,57,145,21,289,07,240,,8*6B,1621218777003
$GPRMC,023257.00,A,2218.070634,N,11410.742130,E,000.0,227.3,170521,,E,A*17,1621218777003
$GPGGA,023258.00,2218.070640,N,11410.742138,E,1,18,1.0,2.7,M,,M,,*73,1621218778006
$GNGSA,A,3,1,4,7,8,16,21,27,30,206,207,209,213,1.5,1.0,1.2*28,1621218778006
$GPGSA,A,3,1,4,7,8,16,21,27,30,,,,,1.5,1.0,1.2,1*21,1621218778006
$GPGSA,A,3,1,,,,,,,,,,,,1.5,1.0,1.2,8*11,1621218778006
$GLGSA,A,3,79,,,,,,,,,,,,1.5,1.0,1.2,1*3B,1621218778006
$BDGSA,A,3,206,207,209,213,216,227,228,230,237,,,,1.5,1.0,1.2,1*0F,1621218778006
$BDGSA,A,3,227,228,230,237,,,,,,,,,1.5,1.0,1.2,7*36,1621218778006
$BDGSA,A,3,227,228,230,237,,,,,,,,,1.5,1.0,1.2,8*39,1621218778006
$GAGSA,A,3,101,104,113,121,126,133,,,,,,,1.5,1.0,1.2,7*3E,1621218778006
$GAGSA,A,3,113,,,,,,,,,,,,1.5,1.0,1.2,1*0B,1621218778006
$QZGSA,A,3,193,195,,,,,,,,,,,1.5,1.0,1.2,1*33,1621218778006
$QZGSA,A,3,194,,,,,,,,,,,,1.5,1.0,1.2,8*00,1621218778006
$PIGSA,A,3,282,283,284,285,287,,,,,,,,1.5,1.0,1.2,8*13,1621218778006
$GPGSV,4,1,13,01,42,169,18,04,20,196,15,07,55,320,14,08,54,011,27,1*60,1621218778006
$GPGSV,4,2,13,09,19,196,,11,32,194,,14,08,295,,16,16,076,23,1*61,1621218778006
$GPGSV,4,3,13,21,60,133,27,22,08,137,,27,24,036,11,30,17,320,15,1*6B,1621218778006
$GPGSV,4,4,13,01,42,169,24,8*50,1621218778006
$GLGSV,2,1,06,71,02,267,,79,12,117,11,80,53,066,,82,24,026,,1*76,1621218778006
$GLGSV,2,2,06,83,73,028,,84,40,204,,1*75,1621218778006
$BDGSV,7,1,26,201,47,122,,202,46,234,,203,62,189,,204,33,109,,1*7A,1621218778006
$BDGSV,7,2,26,205,22,254,,206,34,189,13,207,56,011,26,208,35,158,,1*73,1621218778006
$BDGSV,7,3,26,209,50,220,15,210,49,325,,213,22,179,13,216,37,195,09,1*7D,1621218778006
$BDGSV,7,4,26,227,71,026,33,228,17,037,11,230,50,229,18,231,17,212,,1*7E,1621218778006
$BDGSV,7,5,26,236,13,318,,237,50,106,21,1*7B,1621218778006
$BDGSV,7,6,26,227,71,026,32,228,17,037,,230,50,229,20,237,50,106,28,7*79,1621218778006
$BDGSV,7,7,26,227,70,026,24,228,17,037,,230,50,229,22,237,50,106,20,8*7B,1621218778006
$QZGSV,2,1,04,193,11,156,18,194,62,069,,195,64,063,18,1*7B,1621218778006
$QZGSV,2,2,04,194,62,069,10,8*73,1621218778006
$GAGSV,3,1,09,101,40,335,23,104,16,274,24,113,35,046,27,119,19,217,,7*7A,1621218778006
$GAGSV,3,2,09,121,49,052,10,126,69,137,13,127,13,097,,133,29,196,11,7*73,1621218778006
$GAGSV,3,3,09,113,35,046,16,1*7C,1621218778006
$PIGSV,2,1,06,282,24,284,15,283,45,236,33,284,85,002,22,285,34,179,17,8*6D,1621218778006
$PIGSV,2,2,06,287,57,145,22,289,07,240,,8*68,1621218778006
$GPRMC,023258.00,A,2218.070640,N,11410.742138,E,000.0,227.3,170521,,E,A*13,1621218778006
$GPGGA,023259.00,2218.070627,N,11410.742145,E,1,19,1.0,2.7,M,,M,,*78,1621218779005
$GNGSA,A,3,1,4,7,8,16,21,27,30,206,207,209,213,1.5,1.0,1.2*28,1621218779005
$GPGSA,A,3,1,4,7,8,16,21,27,30,,,,,1.5,1.0,1.2,1*21,1621218779005
$GPGSA,A,3,1,,,,,,,,,,,,1.5,1.0,1.2,8*11,1621218779005
$GLGSA,A,3,79,,,,,,,,,,,,1.5,1.0,1.2,1*3B,1621218779005
$BDGSA,A,3,206,207,209,213,216,227,228,230,237,,,,1.5,1.0,1.2,1*0F,1621218779005
$BDGSA,A,3,227,228,230,237,,,,,,,,,1.5,1.0,1.2,7*36,1621218779005
$BDGSA,A,3,227,228,230,237,,,,,,,,,1.5,1.0,1.2,8*39,1621218779005
$GAGSA,A,3,101,104,113,121,126,133,,,,,,,1.5,1.0,1.2,7*3E,1621218779005
$GAGSA,A,3,113,,,,,,,,,,,,1.5,1.0,1.2,1*0B,1621218779005
$QZGSA,A,3,193,195,,,,,,,,,,,1.5,1.0,1.2,1*33,1621218779005
$QZGSA,A,3,194,,,,,,,,,,,,1.5,1.0,1.2,8*00,1621218779005
$PIGSA,A,3,282,283,284,285,287,,,,,,,,1.5,1.0,1.2,8*13,1621218779005
$GPGSV,4,1,13,01,42,169,18,04,20,196,15,07,55,320,15,08,54,011,27,1*61,1621218779005
$GPGSV,4,2,13,09,19,196,,11,32,194,,14,08,295,,16,16,076,21,1*63,1621218779005
$GPGSV,4,3,13,21,60,133,26,22,08,137,,27,24,036,13,30,17,320,14,1*69,1621218779005
$GPGSV,4,4,13,01,42,169,23,8*57,1621218779005
$GLGSV,2,1,06,71,02,267,,79,12,117,09,80,53,066,,82,24,026,,1*7F,1621218779005
$GLGSV,2,2,06,83,73,028,,84,40,204,,1*75,1621218779005
$BDGSV,7,1,26,201,47,122,,202,46,234,,203,62,189,,204,33,109,,1*7A,1621218779005
$BDGSV,7,2,26,205,22,254,,206,34,189,13,207,56,011,25,208,35,158,,1*70,1621218779005
$BDGSV,7,3,26,209,50,220,15,210,49,325,,213,22,179,12,216,37,195,09,1*7C,1621218779005
$BDGSV,7,4,26,227,70,026,33,228,17,037,12,230,50,229,18,231,17,212,,1*7C,1621218779005
$BDGSV,7,5,26,236,13,318,,237,50,106,20,1*7A,1621218779005
$BDGSV,7,6,26,227,70,026,32,228,17,037,,230,50,229,20,237,50,106,28,7*78,1621218779005
$BDGSV,7,7,26,227,70,026,24,228,17,037,,230,50,229,22,237,50,106,23,8*78,1621218779005
$QZGSV,2,1,04,193,11,156,18,194,62,069,,195,64,063,18,1*7B,1621218779005
$QZGSV,2,2,04,194,62,069,12,8*71,1621218779005
$GAGSV,3,1,09,101,40,335,23,104,16,274,25,113,35,046,27,119,19,217,,7*7B,1621218779005
$GAGSV,3,2,09,121,49,052,10,126,69,137,12,127,13,097,,133,29,196,11,7*72,1621218779005
$GAGSV,3,3,09,113,35,046,16,1*7C,1621218779005
$PIGSV,2,1,06,282,24,284,14,283,45,236,33,284,85,002,23,285,34,179,16,8*6C,1621218779005
$PIGSV,2,2,06,287,57,145,21,289,07,240,,8*6B,1621218779005
$GPRMC,023259.00,A,2218.070627,N,11410.742145,E,000.0,227.3,170521,,E,A*19,1621218779005
$GPGGA,023300.00,2218.070609,N,11410.742144,E,1,19,1.0,2.7,M,,M,,*78,1621218780006
$GNGSA,A,3,1,4,7,8,16,21,27,30,206,207,209,213,1.5,1.0,1.2*28,1621218780006
$GPGSA,A,3,1,4,7,8,16,21,27,30,,,,,1.5,1.0,1.2,1*21,1621218780006
$GPGSA,A,3,1,,,,,,,,,,,,1.5,1.0,1.2,8*11,1621218780006
$GLGSA,A,3,79,,,,,,,,,,,,1.5,1.0,1.2,1*3B,1621218780006
$BDGSA,A,3,206,207,209,213,216,227,228,230,237,,,,1.5,1.0,1.2,1*0F,1621218780006
$BDGSA,A,3,227,228,230,237,,,,,,,,,1.5,1.0,1.2,7*36,1621218780006
$BDGSA,A,3,227,228,230,237,,,,,,,,,1.5,1.0,1.2,8*39,1621218780006
$GAGSA,A,3,101,104,113,121,126,133,,,,,,,1.5,1.0,1.2,7*3E,1621218780006
$GAGSA,A,3,113,,,,,,,,,,,,1.5,1.0,1.2,1*0B,1621218780006
$QZGSA,A,3,193,195,,,,,,,,,,,1.5,1.0,1.2,1*33,1621218780006
$QZGSA,A,3,194,,,,,,,,,,,,1.5,1.0,1.2,8*00,1621218780006
$PIGSA,A,3,282,283,284,285,287,,,,,,,,1.5,1.0,1.2,8*13,1621218780006
$GPGSV,4,1,13,01,42,169,17,04,20,196,15,07,55,320,15,08,54,011,26,1*6F,1621218780006
$GPGSV,4,2,13,09,19,196,,11,32,194,,14,08,295,,16,16,076,19,1*68,1621218780006
$GPGSV,4,3,13,21,60,133,26,22,08,137,,27,24,036,14,30,17,320,14,1*6E,1621218780006
$GPGSV,4,4,13,01,42,169,24,8*50,1621218780006
$GLGSV,2,1,06,71,02,267,,79,12,117,09,80,53,066,,82,24,026,,1*7F,1621218780006
$GLGSV,2,2,06,83,73,028,,84,40,204,,1*75,1621218780006
$BDGSV,7,1,26,201,47,122,,202,46,234,,203,62,189,,204,33,109,,1*7A,1621218780006
$BDGSV,7,2,26,205,22,254,,206,34,189,12,207,56,011,26,208,35,158,,1*72,1621218780006
$BDGSV,7,3,26,209,50,220,15,210,49,325,,213,22,179,12,216,37,195,09,1*7C,1621218780006
$BDGSV,7,4,26,227,70,026,33,228,17,037,12,230,50,229,18,231,17,212,,1*7C,1621218780006
$BDGSV,7,5,26,236,13,318,,237,50,106,20,1*7A,1621218780006
$BDGSV,7,6,26,227,70,026,31,228,17,037,,230,50,229,20,237,50,106,28,7*7B,1621218780006
$BDGSV,7,7,26,227,70,026,23,228,17,037,,230,50,229,22,237,50,106,21,8*7D,1621218780006
$QZGSV,2,1,04,193,11,156,15,194,62,069,,195,64,063,18,1*76,1621218780006
$QZGSV,2,2,04,194,62,069,12,8*71,1621218780006
$GAGSV,3,1,09,101,40,335,22,104,16,274,24,113,35,046,26,119,19,217,,7*7A,1621218780006
$GAGSV,3,2,09,121,49,052,12,126,69,137,12,127,13,097,,133,29,196,12,7*73,1621218780006
$GAGSV,3,3,09,113,35,046,16,1*7C,1621218780006
$PIGSV,2,1,06,282,24,284,13,283,45,236,33,284,85,002,22,285,34,179,16,8*6A,1621218780006
$PIGSV,2,2,06,287,57,145,21,289,07,240,,8*6B,1621218780006
$GPRMC,023300.00,A,2218.070609,N,11410.742144,E,000.0,227.3,170521,,E,A*19,1621218780006
$GPGGA,023301.00,2218.070632,N,11410.742172,E,1,20,0.9,2.7,M,,M,,*76,1621218781006
$GNGSA,A,3,1,4,7,8,16,21,27,30,206,207,209,213,1.5,0.9,1.2*20,1621218781006
$GPGSA,A,3,1,4,7,8,16,21,27,30,,,,,1.5,0.9,1.2,1*29,1621218781006
$GPGSA,A,3,1,,,,,,,,,,,,1.5,0.9,1.2,8*19,1621218781006
$GLGSA,A,3,79,,,,,,,,,,,,1.5,0.9,1.2,1*33,1621218781006
$BDGSA,A,3,206,207,209,213,216,227,228,230,237,,,,1.5,0.9,1.2,1*07,1621218781006
$BDGSA,A,3,227,228,230,237,,,,,,,,,1.5,0.9,1.2,7*3E,1621218781006
$BDGSA,A,3,227,228,230,237,,,,,,,,,1.5,0.9,1.2,8*31,1621218781006
$GAGSA,A,3,101,104,113,121,126,133,,,,,,,1.5,0.9,1.2,7*36,1621218781006
$GAGSA,A,3,113,,,,,,,,,,,,1.5,0.9,1.2,1*03,1621218781006
$QZGSA,A,3,193,195,,,,,,,,,,,1.5,0.9,1.2,1*3B,1621218781006
$QZGSA,A,3,194,,,,,,,,,,,,1.5,0.9,1.2,8*08,1621218781006
$PIGSA,A,3,282,283,284,285,287,,,,,,,,1.5,0.9,1.2,8*1B,1621218781006
$GPGSV,4,1,13,01,42,169,16,04,20,196,15,07,55,320,14,08,54,011,25,1*6C,1621218781006
$GPGSV,4,2,13,09,19,196,,11,32,194,,14,08,295,,16,16,076,18,1*69,1621218781006
$GPGSV,4,3,13,21,60,133,25,22,08,137,,27,24,036,15,30,17,320,14,1*6C,1621218781006
$GPGSV,4,4,13,01,42,169,23,8*57,1621218781006
$GLGSV,2,1,06,71,02,267,,79,12,117,09,80,53,066,,82,24,026,,1*7F,1621218781006
$GLGSV,2,2,06,83,73,028,,84,40,204,,1*75,1621218781006
$BDGSV,7,1,26,201,47,122,,202,46,234,,203,62,189,,204,33,109,,1*7A,1621218781006
$BDGSV,7,2,26,205,22,254,,206,34,189,11,207,56,011,26,208,35,158,,1*71,1621218781006
$BDGSV,7,3,26,209,50,220,16,210,49,325,,213,22,179,11,216,37,195,09,1*7C,1621218781006
$BDGSV,7,4,26,227,70,026,33,228,17,037,12,230,50,229,18,231,17,212,,1*7C,1621218781006
$BDGSV,7,5,26,236,13,318,,237,50,106,20,1*7A,1621218781006
$BDGSV,7,6,26,227,70,026,31,228,17,037,,230,50,229,20,237,50,106,26,7*75,1621218781006
$BDGSV,7,7,26,227,70,026,22,228,17,037,,230,50,229,21,237,50,106,22,8*7C,1621218781006
$QZGSV,2,1,04,193,11,156,15,194,62,069,,195,64,063,18,1*76,1621218781006
$QZGSV,2,2,04,194,62,069,12,8*71,1621218781006
$GAGSV,3,1,09,101,40,335,22,104,16,274,23,113,35,046,25,119,19,217,,7*7E,1621218781006
$GAGSV,3,2,09,121,49,052,13,126,69,137,13,127,13,097,,133,29,196,12,7*73,1621218781006
$GAGSV,3,3,09,113,35,046,17,1*7D,1621218781006
$PIGSV,2,1,06,282,24,284,15,283,45,236,32,284,85,002,22,285,34,179,15,8*6E,1621218781006
$PIGSV,2,2,06,287,57,145,22,289,07,240,,8*68,1621218781006
$GPRMC,023301.00,A,2218.070632,N,11410.742172,E,000.0,227.3,170521,,E,A*15,1621218781006
$GPGGA,023302.00,2218.070675,N,11410.742166,E,1,20,0.8,2.7,M,,M,,*72,1621218782005
$GNGSA,A,3,1,4,7,8,16,21,27,30,206,207,209,213,1.4,0.8,1.2*20,1621218782005
$GPGSA,A,3,1,4,7,8,16,21,27,30,,,,,1.4,0.8,1.2,1*29,1621218782005
$GPGSA,A,3,1,,,,,,,,,,,,1.4,0.8,1.2,8*19,1621218782005
$GLGSA,A,3,79,,,,,,,,,,,,1.4,0.8,1.2,1*33,1621218782005
$BDGSA,A,3,206,207,209,213,216,227,228,230,237,,,,1.4,0.8,1.2,1*07,1621218782005
$BDGSA,A,3,227,228,230,237,,,,,,,,,1.4,0.8,1.2,7*3E,1621218782005
$BDGSA,A,3,227,228,230,237,,,,,,,,,1.4,0.8,1.2,8*31,1621218782005
$GAGSA,A,3,101,104,113,121,126,133,,,,,,,1.4,0.8,1.2,7*36,1621218782005
$GAGSA,A,3,113,,,,,,,,,,,,1.4,0.8,1.2,1*03,1621218782005
$QZGSA,A,3,193,195,,,,,,,,,,,1.4,0.8,1.2,1*3B,1621218782005
$QZGSA,A,3,194,,,,,,,,,,,,1.4,0.8,1.2,8*08,1621218782005
$PIGSA,A,3,282,283,284,285,287,,,,,,,,1.4,0.8,1.2,8*1B,1621218782005
$GPGSV,4,1,13,01,42,169,15,04,20,196,15,07,55,320,14,08,54,011,25,1*6F,1621218782005
$GPGSV,4,2,13,09,19,196,,11,32,194,,14,08,295,,16,16,076,16,1*67,1621218782005
$GPGSV,4,3,13,21,60,133,26,22,08,137,,27,24,036,17,30,17,320,13,1*6A,1621218782005
$GPGSV,4,4,13,01,42,169,24,8*50,1621218782005
$GLGSV,2,1,06,71,02,267,,79,12,117,09,80,53,066,,82,24,026,,1*7F,1621218782005
$GLGSV,2,2,06,83,73,028,,84,40,204,,1*75,1621218782005
$BDGSV,7,1,26,201,47,122,,202,46,234,,203,62,189,,204,33,109,,1*7A,1621218782005
$BDGSV,7,2,26,205,22,254,,206,34,189,12,207,56,011,25,208,35,158,,1*71,1621218782005
$BDGSV,7,3,26,209,50,220,16,210,49,325,,213,22,179,12,216,37,195,09,1*7F,1621218782005
$BDGSV,7,4,26,227,70,026,32,228,17,037,11,230,50,229,18,231,17,212,,1*7E,1621218782005
$BDGSV,7,5,26,236,13,318,,237,50,106,20,1*7A,1621218782005
$BDGSV,7,6,26,227,70,026,31,228,17,037,,230,50,229,20,237,50,106,26,7*75,1621218782005
$BDGSV,7,7,26,227,70,026,24,228,17,037,,230,50,229,22,237,50,106,22,8*79,1621218782005
$QZGSV,2,1,04,193,11,156,14,194,62,069,,195,64,063,18,1*77,1621218782005
$QZGSV,2,2,04,194,62,069,13,8*70,1621218782005
$GAGSV,3,1,09,101,40,335,22,104,16,274,23,113,35,046,25,119,19,217,,7*7E,1621218782005
$GAGSV,3,2,09,121,49,052,14,126,69,137,13,127,13,097,,133,29,196,14,7*72,1621218782005
$GAGSV,3,3,09,113,35,046,17,1*7D,1621218782005
$PIGSV,2,1,06,282,24,284,14,283,45,236,32,284,85,002,23,285,34,179,15,8*6E,1621218782005
$PIGSV,2,2,06,287,57,145,22,289,07,240,,8*68,1621218782005
$GPRMC,023302.00,A,2218.070675,N,11410.742166,E,000.0,227.4,170521,,E,A*17,1621218782005
$GPGGA,023303.00,2218.070794,N,11410.741969,E,1,19,0.9,3.3,M,,M,,*77,1621218783005
$GNGSA,A,3,1,4,7,8,16,21,27,30,206,207,209,213,1.5,0.9,1.3*21,1621218783005
$GPGSA,A,3,1,4,7,8,16,21,27,30,,,,,1.5,0.9,1.3,1*28,1621218783005
$GPGSA,A,3,1,,,,,,,,,,,,1.5,0.9,1.3,8*18,1621218783005
$GLGSA,A,3,79,,,,,,,,,,,,1.5,0.9,1.3,1*32,1621218783005
$BDGSA,A,3,206,207,209,213,216,227,228,230,237,,,,1.5,0.9,1.3,1*06,1621218783005
$BDGSA,A,3,227,228,230,237,,,,,,,,,1.5,0.9,1.3,7*3F,1621218783005
$BDGSA,A,3,227,228,230,237,,,,,,,,,1.5,0.9,1.3,8*30,1621218783005
$GAGSA,A,3,101,104,113,121,126,133,,,,,,,1.5,0.9,1.3,7*37,1621218783005
$GAGSA,A,3,113,,,,,,,,,,,,1.5,0.9,1.3,1*02,1621218783005
$QZGSA,A,3,193,195,,,,,,,,,,,1.5,0.9,1.3,1*3A,1621218783005
$QZGSA,A,3,194,,,,,,,,,,,,1.5,0.9,1.3,8*09,1621218783005
$PIGSA,A,3,282,283,284,285,287,,,,,,,,1.5,0.9,1.3,8*1A,1621218783005
$GPGSV,4,1,13,01,42,169,13,04,20,196,14,07,55,320,14,08,54,011,25,1*68,1621218783005
$GPGSV,4,2,13,09,19,196,,11,32,194,,14,08,295,,16,16,076,16,1*67,1621218783005
$GPGSV,4,3,13,21,60,133,26,22,08,137,,27,24,036,18,30,17,320,10,1*66,1621218783005
$GPGSV,4,4,13,01,42,169,23,8*57,1621218783005
$GLGSV,2,1,06,71,02,267,,79,12,117,09,80,53,067,,82,24,026,,1*7E,1621218783005
$GLGSV,2,2,06,83,73,028,,84,40,204,,1*75,1621218783005
$BDGSV,7,1,26,201,47,122,,202,46,234,,203,62,189,,204,33,109,,1*7A,1621218783005
$BDGSV,7,2,26,205,22,254,,206,34,189,12,207,56,011,24,208,35,158,,1*70,1621218783005
$BDGSV,7,3,26,209,50,220,16,210,49,325,,213,22,179,12,216,37,195,09,1*7F,1621218783005
$BDGSV,7,4,26,227,70,026,32,228,17,037,12,230,50,229,19,231,17,212,,1*7C,1621218783005
$BDGSV,7,5,26,236,13,318,,237,50,106,20,1*7A,1621218783005
$BDGSV,7,6,26,227,70,026,31,228,17,037,,230,50,229,20,237,50,106,25,7*76,1621218783005
$BDGSV,7,7,26,227,70,026,23,228,17,037,,230,50,229,22,237,50,106,22,8*7E,1621218783005
$QZGSV,2,1,04,193,11,156,15,194,62,069,,195,64,063,18,1*76,1621218783005
$QZGSV,2,2,04,194,62,069,14,8*77,1621218783005
$GAGSV,3,1,09,101,40,335,22,104,16,274,22,113,35,046,24,119,19,217,,7*7E,1621218783005
$GAGSV,3,2,09,121,49,052,14,126,69,137,10,127,13,097,,133,29,196,15,7*70,1621218783005
$GAGSV,3,3,09,113,35,046,17,1*7D,1621218783005
$PIGSV,2,1,06,282,24,284,13,283,45,236,32,284,85,002,22,285,34,179,16,8*6B,1621218783005
$PIGSV,2,2,06,287,57,145,21,289,07,240,,8*6B,1621218783005
$GPRMC,023303.00,A,2218.070794,N,11410.741969,E,000.0,227.4,170521,,E,A*1C,1621218783005
$GPGGA,023304.00,2218.070790,N,11410.741692,E,1,20,0.8,3.2,M,,M,,*75,1621218784007
$GNGSA,A,3,1,4,7,8,16,21,27,30,206,207,208,209,1.3,0.8,1.1*2E,1621218784007
$GPGSA,A,3,1,4,7,8,16,21,27,30,,,,,1.3,0.8,1.1,1*2D,1621218784007
$GPGSA,A,3,1,,,,,,,,,,,,1.3,0.8,1.1,8*1D,1621218784007
$GLGSA,A,3,79,,,,,,,,,,,,1.3,0.8,1.1,1*37,1621218784007
$BDGSA,A,3,206,207,208,209,213,216,227,228,230,237,,,1.3,0.8,1.1,1*39,1621218784007
$BDGSA,A,3,227,228,230,237,,,,,,,,,1.3,0.8,1.1,7*3A,1621218784007
$BDGSA,A,3,227,228,230,237,,,,,,,,,1.3,0.8,1.1,8*35,1621218784007
$GAGSA,A,3,101,104,113,121,126,133,,,,,,,1.3,0.8,1.1,7*32,1621218784007
$GAGSA,A,3,113,,,,,,,,,,,,1.3,0.8,1.1,1*07,1621218784007
$QZGSA,A,3,193,195,,,,,,,,,,,1.3,0.8,1.1,1*3F,1621218784007
$QZGSA,A,3,194,,,,,,,,,,,,1.3,0.8,1.1,8*0C,1621218784007
$PIGSA,A,3,282,283,284,285,287,,,,,,,,1.3,0.8,1.1,8*1F,1621218784007
$GPGSV,4,1,13,01,42,169,16,04,20,196,14,07,55,320,14,08,54,011,25,1*6D,1621218784007
$GPGSV,4,2,13,09,19,196,,11,32,194,,14,08,295,,16,16,076,17,1*66,1621218784007
$GPGSV,4,3,13,21,60,133,29,22,08,137,,27,24,036,19,30,17,320,10,1*68,1621218784007
$GPGSV,4,4,13,01,42,169,21,8*55,1621218784007
$GLGSV,2,1,06,71,02,267,,79,12,117,09,80,53,067,,82,24,026,,1*7E,1621218784007
$GLGSV,2,2,06,83,73,028,,84,40,204,,1*75,1621218784007
$BDGSV,7,1,26,201,47,122,,202,46,234,,203,62,189,,204,33,109,,1*7A,1621218784007
$BDGSV,7,2,26,205,22,254,,206,34,189,10,207,56,011,23,208,35,158,18,1*7C,1621218784007
$BDGSV,7,3,26,209,50,220,15,210,49,325,,213,22,179,13,216,37,195,09,1*7D,1621218784007
$BDGSV,7,4,26,227,70,026,33,228,17,037,12,230,50,229,19,231,17,212,,1*7D,1621218784007
$BDGSV,7,5,26,236,13,318,,237,50,106,20,1*7A,1621218784007
$BDGSV,7,6,26,227,70,026,31,228,17,037,,230,50,229,20,237,50,106,25,7*76,1621218784007
$BDGSV,7,7,26,227,70,026,22,228,17,037,,230,50,229,24,237,50,106,20,8*7B,1621218784007
$QZGSV,2,1,04,193,11,156,13,194,62,069,,195,64,063,18,1*70,1621218784007
$QZGSV,2,2,04,194,62,069,13,8*70,1621218784007
$GAGSV,3,1,09,101,40,335,23,104,16,274,18,113,35,046,23,119,19,217,,7*71,1621218784007
$GAGSV,3,2,09,121,49,052,15,126,69,137,14,127,13,097,,133,29,196,15,7*75,1621218784007
$GAGSV,3,3,09,113,35,046,17,1*7D,1621218784007
$PIGSV,2,1,06,282,24,284,13,283,45,236,32,284,85,002,20,285,34,179,17,8*68,1621218784007
$PIGSV,2,2,06,287,57,145,22,289,07,240,,8*68,1621218784007
$GPRMC,023304.00,A,2218.070790,N,11410.741692,E,002.5,227.5,170521,,E,A*12,1621218784007
$GPGGA,023305.00,2218.070309,N,11410.741074,E,1,19,0.8,2.2,M,,M,,*75,1621218785006
$GNGSA,A,3,1,4,7,8,16,21,27,30,206,207,208,209,1.4,0.8,1.1*29,1621218785006
$GPGSA,A,3,1,4,7,8,16,21,27,30,,,,,1.4,0.8,1.1,1*2A,1621218785006
$GPGSA,A,3,1,,,,,,,,,,,,1.4,0.8,1.1,8*1A,1621218785006
$GLGSA,A,3,,,,,,,,,,,,,1.4,0.8,1.1,1*3E,1621218785006
$BDGSA,A,3,206,207,208,209,213,227,228,230,237,,,,1.4,0.8,1.1,1*0B,1621218785006
$BDGSA,A,3,227,228,230,237,,,,,,,,,1.4,0.8,1.1,7*3D,1621218785006
$BDGSA,A,3,227,228,230,237,,,,,,,,,1.4,0.8,1.1,8*32,1621218785006
$GAGSA,A,3,101,104,113,121,126,133,,,,,,,1.4,0.8,1.1,7*35,1621218785006
$GAGSA,A,3,113,,,,,,,,,,,,1.4,0.8,1.1,1*00,1621218785006
$QZGSA,A,3,193,195,,,,,,,,,,,1.4,0.8,1.1,1*38,1621218785006
$QZGSA,A,3,194,,,,,,,,,,,,1.4,0.8,1.1,8*0B,1621218785006
$PIGSA,A,3,282,283,284,285,287,,,,,,,,1.4,0.8,1.1,8*18,1621218785006
$GPGSV,4,1,13,01,42,169,29,04,20,196,15,07,55,320,13,08,54,011,24,1*66,1621218785006
$GPGSV,4,2,13,09,19,196,,11,32,194,,14,08,295,,16,16,076,18,1*69,1621218785006
$GPGSV,4,3,13,21,60,133,27,22,08,137,,27,24,036,20,30,17,320,12,1*6E,1621218785006
$GPGSV,4,4,13,01,42,169,16,8*51,1621218785006
$GLGSV,2,1,06,71,02,267,,79,12,117,,80,53,067,,82,24,026,,1*77,1621218785006
$GLGSV,2,2,06,83,73,028,,84,40,204,,1*75,1621218785006
$BDGSV,7,1,26,201,47,122,,202,46,234,,203,62,189,,204,33,109,,1*7A,1621218785006
$BDGSV,7,2,26,205,22,254,,206,34,189,11,207,56,011,22,208,35,158,21,1*76,1621218785006
$BDGSV,7,3,26,209,50,220,15,210,49,325,,213,22,179,13,216,37,195,,1*74,1621218785006
$BDGSV,7,4,26,227,70,026,32,228,17,037,12,230,50,229,20,231,17,212,,1*76,1621218785006
$BDGSV,7,5,26,236,13,318,,237,50,106,20,1*7A,1621218785006
$BDGSV,7,6,26,227,70,026,31,228,17,037,,230,50,229,20,237,50,106,26,7*75,1621218785006
$BDGSV,7,7,26,227,70,026,23,228,17,037,,230,50,229,22,237,50,106,19,8*76,1621218785006
$QZGSV,2,1,04,193,11,156,13,194,62,069,,195,64,063,18,1*70,1621218785006
$QZGSV,2,2,04,194,62,069,14,8*77,1621218785006
$GAGSV,3,1,09,101,40,335,23,104,16,274,21,113,35,046,23,119,19,217,,7*7B,1621218785006
$GAGSV,3,2,09,121,49,052,15,126,69,137,17,127,13,097,,133,29,196,14,7*77,1621218785006
$GAGSV,3,3,09,113,35,046,17,1*7D,1621218785006
$PIGSV,2,1,06,282,24,284,15,283,45,236,33,284,85,002,21,285,34,179,19,8*60,1621218785006
$PIGSV,2,2,06,287,57,145,21,289,07,240,,8*6B,1621218785006
$GPRMC,023305.00,A,2218.070309,N,11410.741074,E,004.3,227.6,170521,,E,A*1A,1621218785006
$GPGGA,023306.00,2218.069431,N,11410.740047,E,1,18,1.0,1.7,M,,M,,*7D,1621218786003
$GNGSA,A,3,1,4,7,8,16,21,27,30,206,207,208,209,1.6,1.0,1.2*21,1621218786003
$GPGSA,A,3,1,4,7,8,16,21,27,30,,,,,1.6,1.0,1.2,1*22,1621218786003
$GPGSA,A,3,1,,,,,,,,,,,,1.6,1.0,1.2,8*12,1621218786003
$GLGSA,A,3,82,,,,,,,,,,,,1.6,1.0,1.2,1*3C,1621218786003
$BDGSA,A,3,206,207,208,209,213,227,228,230,237,,,,1.6,1.0,1.2,1*03,1621218786003
$BDGSA,A,3,227,228,230,237,,,,,,,,,1.6,1.0,1.2,7*35,1621218786003
$BDGSA,A,3,227,230,237,,,,,,,,,,1.6,1.0,1.2,8*02,1621218786003
$GAGSA,A,3,101,104,113,121,126,133,,,,,,,1.6,1.0,1.2,7*3D,1621218786003
$GAGSA,A,3,113,133,,,,,,,,,,,1.6,1.0,1.2,1*39,1621218786003
$QZGSA,A,3,193,194,195,,,,,,,,,,1.6,1.0,1.2,1*0C,1621218786003
$QZGSA,A,3,194,,,,,,,,,,,,1.6,1.0,1.2,8*03,1621218786003
$PIGSA,A,3,282,283,284,285,287,,,,,,,,1.6,1.0,1.2,8*10,1621218786003
$GPGSV,4,1,13,01,42,169,31,04,20,196,15,07,55,320,13,08,54,011,22,1*69,1621218786003
$GPGSV,4,2,13,09,19,196,,11,32,194,,14,08,295,,16,16,076,19,1*68,1621218786003
$GPGSV,4,3,13,21,60,133,29,22,08,137,,27,24,036,20,30,17,320,12,1*60,1621218786003
$GPGSV,4,4,13,01,42,169,16,8*51,1621218786003
$GLGSV,2,1,06,71,02,267,,79,12,117,,80,53,067,,82,24,026,18,1*7E,1621218786003
$GLGSV,2,2,06,83,73,028,,84,40,204,,1*75,1621218786003
$BDGSV,7,1,25,201,47,122,,202,46,234,,203,62,189,,204,33,109,,1*79,1621218786003
$BDGSV,7,2,25,205,22,254,,206,34,189,12,207,56,011,21,208,35,158,28,1*7C,1621218786003
$BDGSV,7,3,25,209,49,220,13,210,49,325,,213,22,179,14,216,37,195,,1*7E,1621218786003
$BDGSV,7,4,25,227,70,026,34,228,17,037,14,230,50,229,20,231,17,212,,1*75,1621218786003
$BDGSV,7,5,25,236,13,318,,237,50,106,20,1*79,1621218786003
$BDGSV,7,6,25,227,70,026,30,228,17,037,,230,50,229,20,237,50,106,24,7*75,1621218786003
$BDGSV,7,7,25,227,70,026,23,230,50,229,22,237,50,106,18,8*7E,1621218786003
$QZGSV,2,1,04,193,11,156,12,194,62,069,18,195,64,063,18,1*78,1621218786003
$QZGSV,2,2,04,194,62,069,13,8*70,1621218786003
$GAGSV,3,1,10,101,40,335,22,104,16,274,20,113,35,046,24,119,19,217,,7*74,1621218786003
$GAGSV,3,2,10,121,49,052,15,126,69,137,19,127,13,097,,133,29,196,13,7*76,1621218786003
$GAGSV,3,3,10,113,35,046,16,133,29,196,,1*70,1621218786003
$PIGSV,2,1,06,282,24,284,17,283,45,236,32,284,85,002,22,285,34,179,19,8*60,1621218786003
$PIGSV,2,2,06,287,57,145,19,289,07,240,,8*60,1621218786003
$GPRMC,023306.00,A,2218.069431,N,11410.740047,E,006.3,228.1,170521,,E,A*16,1621218786003
$GPGGA,023307.00,2218.068219,N,11410.738568,E,1,17,1.0,1.0,M,,M,,*7E,1621218787004
$GNGSA,A,3,1,4,7,8,16,21,27,30,206,207,208,209,1.7,1.0,1.3*21,1621218787004
$GPGSA,A,3,1,4,7,8,16,21,27,30,,,,,1.7,1.0,1.3,1*22,1621218787004
$GPGSA,A,3,1,,,,,,,,,,,,1.7,1.0,1.3,8*12,1621218787004
$GLGSA,A,3,82,,,,,,,,,,,,1.7,1.0,1.3,1*3C,1621218787004
$BDGSA,A,3,206,207,208,209,213,227,228,230,237,,,,1.7,1.0,1.3,1*03,1621218787004
$BDGSA,A,3,227,228,230,237,,,,,,,,,1.7,1.0,1.3,7*35,1621218787004
$BDGSA,A,3,227,228,230,237,,,,,,,,,1.7,1.0,1.3,8*3A,1621218787004
$GAGSA,A,3,101,104,113,121,126,133,,,,,,,1.7,1.0,1.3,7*3D,1621218787004
$GAGSA,A,3,113,,,,,,,,,,,,1.7,1.0,1.3,1*08,1621218787004
$QZGSA,A,3,193,194,195,,,,,,,,,,1.7,1.0,1.3,1*0C,1621218787004
$QZGSA,A,3,194,,,,,,,,,,,,1.7,1.0,1.3,8*03,1621218787004
$PIGSA,A,3,282,283,284,285,287,,,,,,,,1.7,1.0,1.3,8*10,1621218787004
$GPGSV,4,1,13,01,42,169,25,04,20,196,15,07,55,320,13,08,54,011,17,1*6A,1621218787004
$GPGSV,4,2,13,09,19,196,,11,32,194,,14,08,295,,16,16,076,24,1*66,1621218787004
$GPGSV,4,3,13,21,60,133,26,22,08,137,,27,24,036,20,30,17,320,12,1*6F,1621218787004
$GPGSV,4,4,13,01,42,169,17,8*50,1621218787004
$GLGSV,2,1,06,71,02,267,,79,12,117,,80,53,067,,82,24,026,09,1*7E,1621218787004
$GLGSV,2,2,06,83,73,028,,84,40,204,,1*75,1621218787004
$BDGSV,7,1,26,201,47,122,,202,46,234,,203,62,189,,204,33,109,,1*7A,1621218787004
$BDGSV,7,2,26,205,22,254,,206,34,189,10,207,56,011,17,208,35,158,27,1*77,1621218787004
$BDGSV,7,3,26,209,49,220,12,210,49,325,,213,22,179,15,216,37,195,,1*7D,1621218787004
$BDGSV,7,4,26,227,70,026,38,228,17,037,16,230,50,229,26,231,17,212,,1*7E,1621218787004
$BDGSV,7,5,26,236,13,318,,237,50,106,20,1*7A,1621218787004
$BDGSV,7,6,26,227,70,026,30,228,17,037,,230,50,229,20,237,50,106,15,7*74,1621218787004
$BDGSV,7,7,26,227,70,026,26,228,17,037,,230,50,229,23,237,50,106,16,8*7D,1621218787004
$QZGSV,2,1,04,193,11,156,12,194,62,069,14,195,64,063,18,1*74,1621218787004
$QZGSV,2,2,04,194,62,069,12,8*71,1621218787004
$GAGSV,3,1,09,101,40,335,21,104,16,274,18,113,35,046,20,119,19,217,,7*70,1621218787004
$GAGSV,3,2,09,121,49,052,15,126,69,137,23,127,13,097,,133,29,196,10,7*74,1621218787004
$GAGSV,3,3,09,113,35,046,16,1*7C,1621218787004
$PIGSV,2,1,06,282,24,284,25,283,45,236,32,284,85,002,22,285,34,179,19,8*61,1621218787004
$PIGSV,2,2,06,287,57,145,21,289,07,240,,8*6B,1621218787004
$GPRMC,023307.00,A,2218.068219,N,11410.738568,E,007.2,229.4,170521,,E,A*19,1621218787004
$GPGGA,023308.00,2218.066975,N,11410.736997,E,1,17,1.0,-0.4,M,,M,,*54,1621218788005
$GNGSA,A,3,1,4,7,8,16,21,27,30,206,207,208,209,1.6,1.0,1.3*20,1621218788005
$GPGSA,A,3,1,4,7,8,16,21,27,30,,,,,1.6,1.0,1.3,1*23,1621218788005
$GPGSA,A,3,1,,,,,,,,,,,,1.6,1.0,1.3,8*13,1621218788005
$GLGSA,A,3,82,,,,,,,,,,,,1.6,1.0,1.3,1*3D,1621218788005
$BDGSA,A,3,206,207,208,209,213,227,228,230,237,,,,1.6,1.0,1.3,1*02,1621218788005
$BDGSA,A,3,227,228,230,237,,,,,,,,,1.6,1.0,1.3,7*34,1621218788005
$BDGSA,A,3,227,228,230,237,,,,,,,,,1.6,1.0,1.3,8*3B,1621218788005
$GAGSA,A,3,101,104,113,121,126,133,,,,,,,1.6,1.0,1.3,7*3C,1621218788005
$GAGSA,A,3,113,,,,,,,,,,,,1.6,1.0,1.3,1*09,1621218788005
$QZGSA,A,3,193,194,195,,,,,,,,,,1.6,1.0,1.3,1*0D,1621218788005
$QZGSA,A,3,194,,,,,,,,,,,,1.6,1.0,1.3,8*02,1621218788005
$PIGSA,A,3,282,283,284,285,287,,,,,,,,1.6,1.0,1.3,8*11,1621218788005
$GPGSV,4,1,13,01,42,169,20,04,20,196,14,07,55,320,13,08,54,011,17,1*6E,1621218788005
$GPGSV,4,2,13,09,19,196,,11,32,194,,14,08,295,,16,16,076,29,1*6B,1621218788005
$GPGSV,4,3,13,21,60,133,25,22,08,137,,27,24,036,19,30,17,320,12,1*66,1621218788005
$GPGSV,4,4,13,01,42,169,16,8*51,1621218788005
$GLGSV,2,1,06,71,02,267,,79,12,117,,80,53,067,,82,24,026,13,1*75,1621218788005
$GLGSV,2,2,06,83,73,028,,84,40,204,,1*75,1621218788005
$BDGSV,7,1,26,201,47,122,,202,46,234,,203,62,189,,204,33,109,,1*7A,1621218788005
$BDGSV,7,2,26,205,22,254,,206,34,189,10,207,56,011,16,208,35,158,24,1*75,1621218788005
$BDGSV,7,3,26,209,49,220,09,210,49,325,,213,22,179,15,216,37,195,,1*77,1621218788005
$BDGSV,7,4,26,227,70,026,38,228,17,037,16,230,50,229,26,231,17,212,,1*7E,1621218788005
$BDGSV,7,5,26,236,13,318,,237,50,106,19,1*70,1621218788005
$BDGSV,7,6,26,227,70,026,31,228,17,037,,230,50,229,20,237,50,106,13,7*73,1621218788005
$BDGSV,7,7,26,227,70,026,26,228,17,037,,230,50,229,23,237,50,106,15,8*7E,1621218788005
$QZGSV,2,1,04,193,11,156,09,194,62,069,18,195,64,063,17,1*7D,1621218788005
$QZGSV,2,2,04,194,62,069,10,8*73,1621218788005
$GAGSV,3,1,09,101,40,335,09,104,16,274,18,113,35,046,22,119,19,217,,7*78,1621218788005
$GAGSV,3,2,09,121,49,052,16,126,69,137,21,127,13,097,,133,29,196,09,7*7D,1621218788005
$GAGSV,3,3,09,113,35,046,17,1*7D,1621218788005
$PIGSV,2,1,06,282,24,284,21,283,45,236,31,284,85,002,26,285,34,179,19,8*62,1621218788005
$PIGSV,2,2,06,287,57,145,21,289,07,240,,8*6B,1621218788005
$GPRMC,023308.00,A,2218.066975,N,11410.736997,E,007.1,228.7,170521,,E,A*1A,1621218788005
$GPGGA,023309.00,2218.065692,N,11410.735468,E,1,15,1.1,-1.0,M,,M,,*58,1621218789005
$GNGSA,A,3,1,4,7,8,16,21,27,30,206,207,208,209,2.0,1.1,1.6*21,1621218789005
$GPGSA,A,3,1,4,7,8,16,21,27,30,,,,,2.0,1.1,1.6,1*22,1621218789005
$GPGSA,A,3,1,,,,,,,,,,,,2.0,1.1,1.6,8*12,1621218789005
$GLGSA,A,3,82,,,,,,,,,,,,2.0,1.1,1.6,1*3C,1621218789005
$BDGSA,A,3,206,207,208,209,213,227,228,230,237,,,,2.0,1.1,1.6,1*03,1621218789005
$BDGSA,A,3,227,228,230,237,,,,,,,,,2.0,1.1,1.6,7*35,1621218789005
$BDGSA,A,3,227,228,230,237,,,,,,,,,2.0,1.1,1.6,8*3A,1621218789005
$GAGSA,A,3,101,104,113,121,126,133,,,,,,,2.0,1.1,1.6,7*3D,1621218789005
$GAGSA,A,3,113,126,133,,,,,,,,,,2.0,1.1,1.6,1*0C,1621218789005
$QZGSA,A,3,193,194,195,,,,,,,,,,2.0,1.1,1.6,1*0C,1621218789005
$QZGSA,A,3,194,,,,,,,,,,,,2.0,1.1,1.6,8*03,1621218789005
$PIGSA,A,3,282,283,284,285,287,,,,,,,,2.0,1.1,1.6,8*10,1621218789005
$GPGSV,4,1,13,01,42,169,22,04,20,196,15,07,55,320,13,08,54,011,18,1*62,1621218789005
$GPGSV,4,2,13,09,19,196,,11,32,194,,14,08,295,,16,16,076,29,1*6B,1621218789005
$GPGSV,4,3,13,21,60,133,21,22,08,137,,27,24,036,17,30,17,320,11,1*6F,1621218789005
$GPGSV,4,4,13,01,42,169,15,8*52,1621218789005
$GLGSV,2,1,06,71,02,267,,79,12,117,,80,53,067,,82,24,026,19,1*7F,1621218789005
$GLGSV,2,2,06,83,73,028,,84,40,204,,1*75,1621218789005
$BDGSV,7,1,25,201,47,122,,202,46,234,,203,62,189,,204,33,109,,1*79,1621218789005
$BDGSV,7,2,25,205,22,254,,206,34,189,09,207,56,011,15,208,35,158,25,1*7C,1621218789005
$BDGSV,7,3,25,209,49,220,10,210,49,325,,213,22,179,15,216,37,195,,1*7C,1621218789005
$BDGSV,7,4,25,227,70,026,37,228,17,037,16,230,50,229,23,236,13,318,,1*7F,1621218789005
$BDGSV,7,5,25,237,50,106,19,1*7C,1621218789005
$BDGSV,7,6,25,227,70,026,32,228,17,037,,230,50,229,19,237,50,106,13,7*79,1621218789005
$BDGSV,7,7,25,227,70,026,26,228,17,037,,230,50,229,24,237,50,106,14,8*7B,1621218789005
$QZGSV,2,1,04,193,11,156,11,194,62,069,23,195,64,063,18,1*73,1621218789005
$QZGSV,2,2,04,194,62,069,12,8*71,1621218789005
$GAGSV,3,1,11,101,40,335,09,104,16,274,17,113,35,046,23,119,19,217,,7*7F,1621218789005
$GAGSV,3,2,11,121,49,052,16,126,69,137,22,127,13,097,,133,29,196,09,7*77,1621218789005
$GAGSV,3,3,11,113,35,046,17,126,69,137,19,133,29,196,,1*77,1621218789005
$PIGSV,2,1,06,282,24,284,26,283,45,236,32,284,85,002,27,285,34,179,17,8*69,1621218789005
$PIGSV,2,2,06,287,57,145,22,289,07,240,,8*68,1621218789005
$GPRMC,023309.00,A,2218.065692,N,11410.735468,E,007.3,219.8,170521,,E,A*1F,1621218789005
$GPGGA,023310.00,2218.063975,N,11410.734452,E,1,16,1.1,-1.5,M,,M,,*5E,1621218790004
$GNGSA,A,3,1,4,7,8,16,21,27,30,206,207,208,209,1.9,1.1,1.6*2B,1621218790004
$GPGSA,A,3,1,4,7,8,16,21,27,30,,,,,1.9,1.1,1.6,1*28,1621218790004
$GPGSA,A,3,1,,,,,,,,,,,,1.9,1.1,1.6,8*18,1621218790004
$GLGSA,A,3,82,,,,,,,,,,,,1.9,1.1,1.6,1*36,1621218790004
$BDGSA,A,3,206,207,208,209,213,227,228,230,237,,,,1.9,1.1,1.6,1*09,1621218790004
$BDGSA,A,3,227,228,230,237,,,,,,,,,1.9,1.1,1.6,7*3F,1621218790004
$BDGSA,A,3,227,228,230,237,,,,,,,,,1.9,1.1,1.6,8*30,1621218790004
$GAGSA,A,3,101,104,113,121,126,133,,,,,,,1.9,1.1,1.6,7*37,1621218790004
$GAGSA,A,3,113,126,133,,,,,,,,,,1.9,1.1,1.6,1*06,1621218790004
$QZGSA,A,3,193,194,195,,,,,,,,,,1.9,1.1,1.6,1*06,1621218790004
$QZGSA,A,3,194,,,,,,,,,,,,1.9,1.1,1.6,8*09,1621218790004
$PIGSA,A,3,282,283,284,285,287,,,,,,,,1.9,1.1,1.6,8*1A,1621218790004
$GPGSV,4,1,13,01,42,169,21,04,20,196,13,07,55,320,16,08,54,011,19,1*63,1621218790004
$GPGSV,4,2,13,09,19,196,,11,32,194,,14,08,295,,16,16,076,22,1*60,1621218790004
$GPGSV,4,3,13,21,60,133,20,22,08,137,,27,24,036,17,30,17,320,09,1*67,1621218790004
$GPGSV,4,4,13,01,42,169,15,8*52,1621218790004
$GLGSV,2,1,06,71,02,267,,79,12,117,,80,53,067,,82,24,026,19,1*7F,1621218790004
$GLGSV,2,2,06,83,73,028,,84,40,204,,1*75,1621218790004
$BDGSV,7,1,25,201,47,122,,202,46,234,,203,62,189,,204,33,109,,1*79,1621218790004
$BDGSV,7,2,25,205,22,254,,206,34,189,09,207,56,011,14,208,35,158,28,1*70,1621218790004
$BDGSV,7,3,25,209,49,220,12,210,49,325,,213,22,179,16,216,37,195,,1*7D,1621218790004
$BDGSV,7,4,25,227,70,026,32,228,17,037,17,230,50,229,24,236,13,318,,1*7C,1621218790004
$BDGSV,7,5,25,237,50,106,18,1*7D,1621218790004
$BDGSV,7,6,25,227,70,026,32,228,17,037,,230,50,229,19,237,50,106,13,7*79,1621218790004
$BDGSV,7,7,25,227,70,026,22,228,17,037,,230,50,229,25,237,50,106,10,8*7A,1621218790004
$QZGSV,2,1,04,193,11,156,13,194,62,069,16,195,64,063,19,1*76,1621218790004
$QZGSV,2,2,04,194,62,069,12,8*71,1621218790004
$GAGSV,3,1,11,101,40,335,09,104,16,274,12,113,35,046,20,119,19,217,,7*79,1621218790004
$GAGSV,3,2,11,121,49,052,16,126,69,137,19,127,13,097,,133,29,196,09,7*7F,1621218790004
$GAGSV,3,3,11,113,35,046,19,126,69,137,14,133,29,196,,1*74,1621218790004
$PIGSV,2,1,06,282,24,284,23,283,45,236,25,284,85,002,25,285,34,179,14,8*6B,1621218790004
$PIGSV,2,2,06,287,57,145,15,289,07,240,,8*6C,1621218790004
$GPRMC,023310.00,A,2218.063975,N,11410.734452,E,006.1,195.3,170521,,E,A*10,1621218790004
$GPGGA,023311.00,2218.062231,N,11410.734312,E,1,18,0.8,-2.0,M,,M,,*56,1621218791004
$GNGSA,A,3,1,4,7,8,16,21,27,30,206,207,208,209,1.5,0.8,1.3*2A,1621218791004
$GPGSA,A,3,1,4,7,8,16,21,27,30,,,,,1.5,0.8,1.3,1*29,1621218791004
$GPGSA,A,3,1,,,,,,,,,,,,1.5,0.8,1.3,8*19,1621218791004
$GLGSA,A,3,82,,,,,,,,,,,,1.5,0.8,1.3,1*37,1621218791004
$BDGSA,A,3,206,207,208,209,213,227,228,230,237,,,,1.5,0.8,1.3,1*08,1621218791004
$BDGSA,A,3,227,228,230,237,,,,,,,,,1.5,0.8,1.3,7*3E,1621218791004
$BDGSA,A,3,227,228,230,237,,,,,,,,,1.5,0.8,1.3,8*31,1621218791004
$GAGSA,A,3,101,104,113,121,126,133,,,,,,,1.5,0.8,1.3,7*36,1621218791004
$GAGSA,A,3,113,126,133,,,,,,,,,,1.5,0.8,1.3,1*07,1621218791004
$QZGSA,A,3,193,194,195,,,,,,,,,,1.5,0.8,1.3,1*07,1621218791004
$QZGSA,A,3,194,,,,,,,,,,,,1.5,0.8,1.3,8*08,1621218791004
$PIGSA,A,3,282,283,284,285,287,,,,,,,,1.5,0.8,1.3,8*1B,1621218791004
$GPGSV,4,1,13,01,42,169,25,04,20,196,13,07,55,320,27,08,54,011,20,1*6F,1621218791004
$GPGSV,4,2,13,09,19,196,,11,32,194,,14,08,295,,16,16,076,16,1*67,1621218791004
$GPGSV,4,3,13,21,60,133,28,22,08,137,,27,24,036,16,30,17,320,14,1*62,1621218791004
$GPGSV,4,4,13,01,42,169,14,8*53,1621218791004
$GLGSV,2,1,06,71,02,267,,79,12,117,,80,53,067,,82,24,026,18,1*7E,1621218791004
$GLGSV,2,2,06,83,73,028,,84,40,204,,1*75,1621218791004
$BDGSV,7,1,25,201,47,122,,202,46,234,,203,62,189,,204,33,109,,1*79,1621218791004
$BDGSV,7,2,25,205,22,254,,206,34,189,10,207,56,011,15,208,35,158,27,1*76,1621218791004
$BDGSV,7,3,25,209,49,220,13,210,49,325,,213,22,179,17,216,37,195,,1*7D,1621218791004
$BDGSV,7,4,25,227,70,026,15,228,17,037,17,230,50,229,15,236,13,318,,1*7B,1621218791004
$BDGSV,7,5,25,237,50,106,17,1*72,1621218791004
$BDGSV,7,6,25,227,70,026,16,228,17,037,,230,50,229,18,237,50,106,14,7*79,1621218791004
$BDGSV,7,7,25,227,70,026,14,228,17,037,,230,50,229,11,237,50,106,09,8*70,1621218791004
$QZGSV,2,1,04,193,11,156,13,194,62,069,15,195,64,063,19,1*75,1621218791004
$QZGSV,2,2,04,194,62,069,12,8*71,1621218791004
$GAGSV,3,1,11,101,40,335,10,104,16,274,10,113,35,046,10,119,19,217,,7*70,1621218791004
$GAGSV,3,2,11,121,49,052,16,126,69,137,18,127,13,097,,133,29,196,09,7*7E,1621218791004
$GAGSV,3,3,11,113,35,046,18,126,69,137,15,133,29,196,,1*74,1621218791004
$PIGSV,2,1,06,282,24,284,16,283,45,236,13,284,85,002,11,285,34,179,17,8*6C,1621218791004
$PIGSV,2,2,06,287,57,145,19,289,07,240,,8*60,1621218791004
$GPRMC,023311.00,A,2218.062231,N,11410.734312,E,005.4,161.0,170521,,E,A*16,1621218791004
$GPGGA,023312.00,2218.060765,N,11410.735292,E,1,15,1.0,-2.8,M,,M,,*57,1621218792005
$GNGSA,A,3,1,4,7,8,16,21,27,30,206,207,208,209,1.8,1.0,1.5*28,1621218792005
$GPGSA,A,3,1,4,7,8,16,21,27,30,,,,,1.8,1.0,1.5,1*2B,1621218792005
$GPGSA,A,3,1,8,,,,,,,,,,,1.8,1.0,1.5,8*23,1621218792005
$GLGSA,A,3,82,,,,,,,,,,,,1.8,1.0,1.5,1*35,1621218792005
$BDGSA,A,3,206,207,208,209,213,216,227,228,230,237,,,1.8,1.0,1.5,1*3F,1621218792005
$BDGSA,A,3,227,228,230,237,,,,,,,,,1.8,1.0,1.5,7*3C,1621218792005
$BDGSA,A,3,227,228,230,237,,,,,,,,,1.8,1.0,1.5,8*33,1621218792005
$GAGSA,A,3,101,104,113,121,126,133,,,,,,,1.8,1.0,1.5,7*34,1621218792005
$GAGSA,A,3,113,121,126,133,,,,,,,,,1.8,1.0,1.5,1*37,1621218792005
$QZGSA,A,3,193,194,195,,,,,,,,,,1.8,1.0,1.5,1*05,1621218792005
$QZGSA,A,3,194,,,,,,,,,,,,1.8,1.0,1.5,8*0A,1621218792005
$PIGSA,A,3,282,283,284,285,287,,,,,,,,1.8,1.0,1.5,8*19,1621218792005
$GPGSV,4,1,14,01,42,169,25,04,20,196,14,07,55,320,22,08,54,011,23,1*69,1621218792005
$GPGSV,4,2,14,09,19,196,,11,32,194,,14,08,295,,16,16,076,20,1*65,1621218792005
$GPGSV,4,3,14,21,60,132,32,22,08,137,,27,24,036,16,30,17,320,16,1*6D,1621218792005
$GPGSV,4,4,14,01,42,169,16,08,54,011,22,8*6F,1621218792005
$GLGSV,2,1,06,71,02,267,,79,12,117,,80,53,067,,82,24,026,17,1*71,1621218792005
$GLGSV,2,2,06,83,73,028,,84,40,204,,1*75,1621218792005
$BDGSV,7,1,25,201,47,122,,202,46,234,,203,62,189,,204,33,109,,1*79,1621218792005
$BDGSV,7,2,25,205,22,254,,206,34,189,12,207,56,011,15,208,35,158,30,1*72,1621218792005
$BDGSV,7,3,25,209,49,220,13,210,49,325,,213,22,179,17,216,37,195,17,1*7B,1621218792005
$BDGSV,7,4,25,227,70,026,19,228,17,037,17,230,50,229,25,236,13,318,,1*74,1621218792005
$BDGSV,7,5,25,237,50,106,18,1*7D,1621218792005
$BDGSV,7,6,25,227,70,026,15,228,17,037,,230,50,229,25,237,50,106,17,7*77,1621218792005
$BDGSV,7,7,25,227,70,026,15,228,17,037,,230,50,229,14,237,50,106,09,8*74,1621218792005
$QZGSV,2,1,04,193,11,156,14,194,62,069,26,195,64,063,24,1*7C,1621218792005
$QZGSV,2,2,04,194,62,069,14,8*77,1621218792005
$GAGSV,3,1,12,101,40,335,10,104,16,274,11,113,35,046,18,119,19,217,,7*7A,1621218792005
$GAGSV,3,2,12,121,49,052,25,126,69,137,27,127,13,097,,133,29,196,09,7*71,1621218792005
$GAGSV,3,3,12,113,35,046,18,121,49,052,21,126,69,137,19,133,29,196,,1*70,1621218792005
$PIGSV,2,1,06,282,24,284,15,283,45,236,27,284,85,002,18,285,34,179,19,8*6F,1621218792005
$PIGSV,2,2,06,287,57,145,27,289,07,240,,8*6D,1621218792005
$GPRMC,023312.00,A,2218.060765,N,11410.735292,E,006.5,136.4,170521,,E,A*1F,1621218792005
$GPGGA,023313.00,2218.059337,N,11410.736725,E,1,17,0.9,-1.5,M,,M,,*51,1621218793005
$GNGSA,A,3,1,4,7,8,16,21,27,30,206,207,208,209,1.7,0.9,1.5*2F,1621218793005
$GPGSA,A,3,1,4,7,8,16,21,27,30,,,,,1.7,0.9,1.5,1*2C,1621218793005
$GPGSA,A,3,1,8,27,30,,,,,,,,,1.7,0.9,1.5,8*22,1621218793005
$GLGSA,A,3,82,,,,,,,,,,,,1.7,0.9,1.5,1*32,1621218793005
$BDGSA,A,3,206,207,208,209,210,213,216,227,228,230,237,,1.7,0.9,1.5,1*0B,1621218793005
$BDGSA,A,3,227,228,230,237,,,,,,,,,1.7,0.9,1.5,7*3B,1621218793005
$BDGSA,A,3,227,230,237,,,,,,,,,,1.7,0.9,1.5,8*0C,1621218793005
$GAGSA,A,3,101,104,113,121,126,,,,,,,,1.7,0.9,1.5,7*02,1621218793005
$GAGSA,A,3,113,121,126,,,,,,,,,,1.7,0.9,1.5,1*01,1621218793005
$QZGSA,A,3,193,194,195,,,,,,,,,,1.7,0.9,1.5,1*02,1621218793005
$QZGSA,A,3,193,194,195,,,,,,,,,,1.7,0.9,1.5,8*0B,1621218793005
$PIGSA,A,3,282,283,284,285,287,,,,,,,,1.7,0.9,1.5,8*1E,1621218793005
$GPGSV,4,1,16,01,42,169,30,04,20,196,15,07,55,320,24,08,54,011,26,1*6D,1621218793005
$GPGSV,4,2,16,09,19,196,,11,32,194,,14,08,295,,16,16,076,19,1*6D,1621218793005
$GPGSV,4,3,16,21,60,132,28,22,08,137,,27,24,036,25,30,17,320,17,1*65,1621218793005
$GPGSV,4,4,16,01,42,169,25,08,54,011,25,27,24,036,30,30,17,320,18,8*62,1621218793005
$GLGSV,2,1,06,71,02,267,,79,12,117,,80,53,067,,82,24,026,17,1*71,1621218793005
$GLGSV,2,2,06,83,73,028,,84,40,204,,1*75,1621218793005
$BDGSV,7,1,24,201,47,122,,202,46,234,,203,62,189,,204,33,109,,1*78,1621218793005
$BDGSV,7,2,24,205,22,254,,206,34,189,15,207,56,011,24,208,35,158,23,1*74,1621218793005
$BDGSV,7,3,24,209,49,220,14,210,49,325,18,213,22,179,17,216,37,195,21,1*71,1621218793005
$BDGSV,7,4,24,227,70,026,29,228,17,037,27,230,50,229,17,236,13,318,,1*74,1621218793005
$BDGSV,7,5,24,237,50,106,20,1*77,1621218793005
$BDGSV,7,6,24,227,70,026,24,228,17,037,28,230,50,229,12,237,50,106,24,7*7A,1621218793005
$BDGSV,7,7,24,227,70,026,23,230,50,229,17,237,50,106,09,8*79,1621218793005
$QZGSV,2,1,06,193,11,156,14,194,62,069,32,195,64,063,30,1*7E,1621218793005
$QZGSV,2,2,06,193,11,156,,194,62,069,26,195,64,063,15,8*73,1621218793005
$GAGSV,3,1,11,101,40,335,09,104,16,274,10,113,35,046,28,119,19,217,,7*73,1621218793005
$GAGSV,3,2,11,121,49,052,24,126,69,137,29,127,13,098,,133,29,196,,7*7B,1621218793005
$GAGSV,3,3,11,113,35,046,18,121,49,052,23,126,69,137,25,1*7A,1621218793005
$PIGSV,2,1,06,282,24,284,15,283,45,236,24,284,85,002,27,285,34,179,20,8*6A,1621218793005
$PIGSV,2,2,06,287,57,145,34,289,07,240,,8*6F,1621218793005
$GPRMC,023313.00,A,2218.059337,N,11410.736725,E,007.9,133.8,170521,,E,A*19,1621218793005
$GPGGA,023314.00,2218.057553,N,11410.738457,E,1,17,0.8,-0.7,M,,M,,*56,1621218794006
$GNGSA,A,3,1,4,7,8,16,21,27,30,206,207,208,209,1.4,0.8,1.1*29,1621218794006
$GPGSA,A,3,1,4,7,8,16,21,27,30,,,,,1.4,0.8,1.1,1*2A,1621218794006
$GPGSA,A,3,1,8,27,30,,,,,,,,,1.4,0.8,1.1,8*24,1621218794006
$GLGSA,A,3,82,,,,,,,,,,,,1.4,0.8,1.1,1*34,1621218794006
$BDGSA,A,3,206,207,208,209,210,213,216,227,228,230,237,,1.4,0.8,1.1,1*0D,1621218794006
$BDGSA,A,3,227,228,230,237,,,,,,,,,1.4,0.8,1.1,7*3D,1621218794006
$BDGSA,A,3,227,228,230,,,,,,,,,,1.4,0.8,1.1,8*04,1621218794006
$GAGSA,A,3,101,104,113,121,126,,,,,,,,1.4,0.8,1.1,7*04,1621218794006
$GAGSA,A,3,113,121,126,,,,,,,,,,1.4,0.8,1.1,1*07,1621218794006
$QZGSA,A,3,193,194,195,,,,,,,,,,1.4,0.8,1.1,1*04,1621218794006
$QZGSA,A,3,193,194,195,,,,,,,,,,1.4,0.8,1.1,8*0D,1621218794006
$PIGSA,A,3,282,283,284,285,287,,,,,,,,1.4,0.8,1.1,8*18,1621218794006
$GPGSV,4,1,16,01,42,169,26,04,20,196,16,07,56,320,27,08,54,011,26,1*69,1621218794006
$GPGSV,4,2,16,09,19,196,,11,32,194,,14,08,295,,16,16,076,18,1*6C,1621218794006
$GPGSV,4,3,16,21,60,132,30,22,08,137,,27,24,036,30,30,17,320,18,1*67,1621218794006
$GPGSV,4,4,16,01,42,169,22,08,54,011,25,27,24,036,24,30,17,320,19,8*61,1621218794006
$GLGSV,2,1,06,71,02,267,,79,12,117,,80,53,067,,82,24,026,16,1*70,1621218794006
$GLGSV,2,2,06,83,73,028,,84,40,204,,1*75,1621218794006
$BDGSV,7,1,24,201,47,122,,202,46,234,,203,62,189,,204,33,109,,1*78,1621218794006
$BDGSV,7,2,24,205,22,254,,206,34,189,24,207,56,011,26,208,35,158,17,1*73,1621218794006
$BDGSV,7,3,24,209,49,220,13,210,49,325,14,213,22,179,17,216,37,195,25,1*7E,1621218794006
$BDGSV,7,4,24,227,70,026,28,228,17,037,25,230,50,229,16,236,13,318,,1*76,1621218794006
$BDGSV,7,5,24,237,50,106,25,1*72,1621218794006
$BDGSV,7,6,24,227,70,026,25,228,17,037,25,230,50,229,10,237,50,106,24,7*74,1621218794006
$BDGSV,7,7,24,227,70,026,23,228,17,037,,230,50,229,16,8*7F,1621218794006
$QZGSV,2,1,06,193,11,156,13,194,62,069,33,195,64,063,33,1*7B,1621218794006
$QZGSV,2,2,06,193,11,156,,194,62,069,27,195,64,063,28,8*7C,1621218794006
$GAGSV,3,1,11,101,40,335,09,104,16,274,09,113,35,046,28,119,19,217,,7*7B,1621218794006
$GAGSV,3,2,11,121,49,052,25,126,69,137,24,127,13,098,,133,29,196,,7*77,1621218794006
$GAGSV,3,3,11,113,35,046,17,121,49,052,21,126,69,137,28,1*7A,1621218794006
$PIGSV,2,1,06,282,24,284,15,283,45,236,15,284,85,002,28,285,34,179,20,8*67,1621218794006
$PIGSV,2,2,06,287,57,145,34,289,07,240,,8*6F,1621218794006
$GPRMC,023314.00,A,2218.057553,N,11410.738457,E,009.8,137.2,170521,,E,A*1D,1621218794006
$GPGGA,023315.00,2218.054881,N,11410.740618,E,1,18,0.9,1.6,M,,M,,*73,1621218795003
$GNGSA,A,3,1,4,7,8,16,21,27,30,206,207,208,209,1.7,0.9,1.4*2E,1621218795003
$GPGSA,A,3,1,4,7,8,16,21,27,30,,,,,1.7,0.9,1.4,1*2D,1621218795003
$GPGSA,A,3,1,8,27,30,,,,,,,,,1.7,0.9,1.4,8*23,1621218795003
$GLGSA,A,3,82,,,,,,,,,,,,1.7,0.9,1.4,1*33,1621218795003
$BDGSA,A,3,206,207,208,209,210,213,216,227,228,230,237,,1.7,0.9,1.4,1*0A,1621218795003
$BDGSA,A,3,227,228,230,237,,,,,,,,,1.7,0.9,1.4,7*3A,1621218795003
$BDGSA,A,3,227,228,230,,,,,,,,,,1.7,0.9,1.4,8*03,1621218795003
$GAGSA,A,3,101,104,113,121,126,133,,,,,,,1.7,0.9,1.4,7*32,1621218795003
$GAGSA,A,3,113,121,126,,,,,,,,,,1.7,0.9,1.4,1*00,1621218795003
$QZGSA,A,3,193,194,195,,,,,,,,,,1.7,0.9,1.4,1*03,1621218795003
$QZGSA,A,3,193,194,195,,,,,,,,,,1.7,0.9,1.4,8*0A,1621218795003
$PIGSA,A,3,282,283,284,285,287,,,,,,,,1.7,0.9,1.4,8*1F,1621218795003
$GPGSV,4,1,16,01,42,169,25,04,20,196,17,07,56,320,26,08,54,011,28,1*64,1621218795003
$GPGSV,4,2,16,09,19,196,,11,32,194,,14,08,295,,16,16,076,18,1*6C,1621218795003
$GPGSV,4,3,16,21,60,132,31,22,08,137,,27,24,036,34,30,17,320,19,1*63,1621218795003
$GPGSV,4,4,16,01,42,169,21,08,54,011,25,27,24,036,23,30,17,320,09,8*64,1621218795003
$GLGSV,2,1,06,71,02,267,,79,12,117,,80,53,067,,82,24,026,26,1*73,1621218795003
$GLGSV,2,2,06,83,73,028,,84,40,204,,1*75,1621218795003
$BDGSV,7,1,24,201,47,122,,202,46,234,,203,62,189,,204,33,109,,1*78,1621218795003
$BDGSV,7,2,24,205,22,254,,206,34,189,26,207,56,011,28,208,35,158,17,1*7F,1621218795003
$BDGSV,7,3,24,209,49,220,12,210,49,325,09,213,22,179,18,216,37,195,23,1*7A,1621218795003
$BDGSV,7,4,24,227,70,026,23,228,17,037,25,230,50,229,16,236,13,318,,1*7D,1621218795003
$BDGSV,7,5,24,237,50,106,22,1*75,1621218795003
$BDGSV,7,6,24,227,70,026,27,228,17,037,27,230,50,229,12,237,50,106,23,7*71,1621218795003
$BDGSV,7,7,24,227,70,026,22,228,17,037,,230,50,229,15,8*7D,1621218795003
$QZGSV,2,1,06,193,11,156,11,194,62,069,33,195,64,063,35,1*7F,1621218795003
$QZGSV,2,2,06,193,11,156,,194,62,069,30,195,64,063,26,8*74,1621218795003
$GAGSV,3,1,11,101,40,335,12,104,16,274,09,113,35,046,30,119,19,217,,7*78,1621218795003
$GAGSV,3,2,11,121,49,052,25,126,69,137,25,127,13,098,,133,29,196,20,7*74,1621218795003
$GAGSV,3,3,11,113,35,046,17,121,49,052,20,126,69,137,27,1*74,1621218795003
$PIGSV,2,1,06,282,24,284,14,283,45,236,16,284,85,002,29,285,34,179,20,8*64,1621218795003
$PIGSV,2,2,06,287,57,145,35,289,07,240,,8*6E,1621218795003
$GPRMC,023315.00,A,2218.054881,N,11410.740618,E,012.0,141.5,170521,,E,A*1F,1621218795003
$GPGGA,023316.00,2218.051681,N,11410.743178,E,1,17,1.0,2.5,M,,M,,*7E,1621218796005
$GNGSA,A,3,1,4,7,8,16,21,27,30,203,206,207,208,1.8,1.0,1.4*23,1621218796005
$GPGSA,A,3,1,4,7,8,16,21,27,30,,,,,1.8,1.0,1.4,1*2A,1621218796005
$GPGSA,A,3,1,8,27,30,,,,,,,,,1.8,1.0,1.4,8*24,1621218796005
$GLGSA,A,3,82,,,,,,,,,,,,1.8,1.0,1.4,1*34,1621218796005
$BDGSA,A,3,203,206,207,208,209,210,213,216,227,228,230,237,1.8,1.0,1.4,1*3C,1621218796005
$BDGSA,A,3,227,228,230,237,,,,,,,,,1.8,1.0,1.4,7*3D,1621218796005
$BDGSA,A,3,227,228,230,,,,,,,,,,1.8,1.0,1.4,8*04,1621218796005
$GAGSA,A,3,101,104,113,121,126,133,,,,,,,1.8,1.0,1.4,7*35,1621218796005
$GAGSA,A,3,113,121,126,,,,,,,,,,1.8,1.0,1.4,1*07,1621218796005
$QZGSA,A,3,193,194,195,,,,,,,,,,1.8,1.0,1.4,1*04,1621218796005
$QZGSA,A,3,193,194,195,,,,,,,,,,1.8,1.0,1.4,8*0D,1621218796005
$PIGSA,A,3,282,283,284,285,287,,,,,,,,1.8,1.0,1.4,8*18,1621218796005
$GPGSV,4,1,16,01,42,169,24,04,20,196,19,07,56,320,28,08,54,011,31,1*6D,1621218796005
$GPGSV,4,2,16,09,19,196,,11,32,194,,14,08,295,,16,16,076,17,1*63,1621218796005
$GPGSV,4,3,16,21,60,132,28,22,08,137,,27,24,036,28,30,17,320,18,1*67,1621218796005
$GPGSV,4,4,16,01,42,169,19,08,54,011,28,27,24,036,17,30,17,320,09,8*65,1621218796005
$GLGSV,2,1,06,71,02,267,,79,12,117,,80,53,067,,82,24,026,22,1*77,1621218796005
$GLGSV,2,2,06,83,73,028,,84,40,204,,1*75,1621218796005
$BDGSV,7,1,24,201,47,122,,202,46,234,,203,62,189,28,204,33,109,,1*72,1621218796005
$BDGSV,7,2,24,205,22,254,,206,34,189,27,207,56,011,27,208,35,158,17,1*71,1621218796005
$BDGSV,7,3,24,209,49,220,11,210,49,325,18,213,22,179,18,216,37,195,27,1*7D,1621218796005
$BDGSV,7,4,24,227,70,026,20,228,17,037,29,230,50,229,16,236,13,318,,1*72,1621218796005
$BDGSV,7,5,24,237,50,106,18,1*7C,1621218796005
$BDGSV,7,6,24,227,70,026,21,228,17,037,25,230,50,229,13,237,50,106,21,7*76,1621218796005
$BDGSV,7,7,24,227,70,026,23,228,17,037,,230,50,229,15,8*7C,1621218796005
$QZGSV,2,1,06,193,11,156,12,194,62,069,33,195,64,063,34,1*7D,1621218796005
$QZGSV,2,2,06,193,11,156,,194,62,069,28,195,64,063,26,8*7D,1621218796005
$GAGSV,3,1,11,101,40,335,12,104,16,274,09,113,35,046,25,119,19,217,,7*7C,1621218796005
$GAGSV,3,2,11,121,49,052,25,126,69,137,30,127,13,098,,133,29,196,15,7*76,1621218796005
$GAGSV,3,3,11,113,35,046,18,121,49,052,22,126,69,137,24,1*7A,1621218796005
$PIGSV,2,1,06,282,24,284,14,283,45,236,15,284,85,002,28,285,34,179,19,8*6C,1621218796005
$PIGSV,2,2,06,287,57,145,35,289,07,240,,8*6E,1621218796005
$GPRMC,023316.00,A,2218.051681,N,11410.743178,E,013.9,143.8,170521,,E,A*12,1621218796005
$GPGGA,023317.00,2218.048724,N,11410.745650,E,1,21,0.8,2.4,M,,M,,*7F,1621218797005
$GNGSA,A,3,1,4,7,8,16,21,27,30,203,206,207,208,1.5,0.8,1.3*20,1621218797005
$GPGSA,A,3,1,4,7,8,16,21,27,30,,,,,1.5,0.8,1.3,1*29,1621218797005
$GPGSA,A,3,1,8,27,30,,,,,,,,,1.5,0.8,1.3,8*27,1621218797005
$GLGSA,A,3,82,,,,,,,,,,,,1.5,0.8,1.3,1*37,1621218797005
$BDGSA,A,3,203,206,207,208,209,210,213,216,227,228,230,237,1.5,0.8,1.3,1*3F,1621218797005
$BDGSA,A,3,227,228,230,237,,,,,,,,,1.5,0.8,1.3,7*3E,1621218797005
$BDGSA,A,3,227,228,230,,,,,,,,,,1.5,0.8,1.3,8*07,1621218797005
$GAGSA,A,3,101,104,113,119,121,126,133,,,,,,1.5,0.8,1.3,7*0F,1621218797005
$GAGSA,A,3,113,121,126,,,,,,,,,,1.5,0.8,1.3,1*04,1621218797005
$QZGSA,A,3,193,194,195,,,,,,,,,,1.5,0.8,1.3,1*07,1621218797005
$QZGSA,A,3,193,194,195,,,,,,,,,,1.5,0.8,1.3,8*0E,1621218797005
$PIGSA,A,3,282,283,284,285,287,,,,,,,,1.5,0.8,1.3,8*1B,1621218797005
$GPGSV,4,1,16,01,42,169,28,04,20,196,20,07,56,320,30,08,54,011,31,1*62,1621218797005
$GPGSV,4,2,16,09,19,196,,11,32,194,,14,08,295,,16,16,076,14,1*60,1621218797005
$GPGSV,4,3,16,21,60,132,25,22,08,137,,27,24,036,32,30,17,320,18,1*61,1621218797005
$GPGSV,4,4,16,01,42,169,16,08,54,011,21,27,24,036,17,30,17,320,09,8*63,1621218797005
$GLGSV,2,1,06,71,02,267,,79,12,117,,80,53,067,,82,24,026,24,1*71,1621218797005
$GLGSV,2,2,06,83,73,028,,84,40,204,,1*75,1621218797005
$BDGSV,7,1,24,201,47,122,,202,46,234,,203,62,189,26,204,33,109,,1*7C,1621218797005
$BDGSV,7,2,24,205,22,254,,206,34,189,19,207,56,011,26,208,35,158,16,1*7C,1621218797005
$BDGSV,7,3,24,209,49,220,09,210,49,325,24,213,22,179,18,216,37,195,23,1*7F,1621218797005
$BDGSV,7,4,24,227,70,026,20,228,17,037,30,230,50,229,16,236,13,318,,1*7A,1621218797005
$BDGSV,7,5,24,237,50,106,18,1*7C,1621218797005
$BDGSV,7,6,24,227,70,026,21,228,17,037,28,230,50,229,15,237,50,106,22,7*7E,1621218797005
$BDGSV,7,7,24,227,70,026,22,228,17,037,,230,50,229,15,8*7D,1621218797005
$QZGSV,2,1,06,193,11,156,10,194,62,069,30,195,64,063,32,1*7A,1621218797005
$QZGSV,2,2,06,193,11,156,,194,62,069,21,195,64,063,26,8*74,1621218797005
$GAGSV,3,1,11,101,40,335,12,104,16,274,09,113,35,046,27,119,19,217,17,7*78,1621218797005
$GAGSV,3,2,11,121,49,052,22,126,69,137,31,127,13,098,,133,29,196,10,7*75,1621218797005
$GAGSV,3,3,11,113,35,046,18,121,49,052,24,126,69,137,21,1*79,1621218797005
$PIGSV,2,1,06,282,24,284,15,283,45,236,13,284,85,002,28,285,34,179,18,8*6A,1621218797005
$PIGSV,2,2,06,287,57,145,32,289,07,240,,8*69,1621218797005
$GPRMC,023317.00,A,2218.048724,N,11410.745650,E,015.0,142.3,170521,,E,A*1B,1621218797005
$GPGGA,023318.00,2218.045255,N,11410.748691,E,1,16,1.0,2.5,M,,M,,*72,1621218798005
$GNGSA,A,3,1,4,7,8,16,21,27,30,203,206,207,208,1.8,1.0,1.5*22,1621218798005
$GPGSA,A,3,1,4,7,8,16,21,27,30,,,,,1.8,1.0,1.5,1*2B,1621218798005
$GPGSA,A,3,1,8,27,,,,,,,,,,1.8,1.0,1.5,8*26,1621218798005
$GLGSA,A,3,82,,,,,,,,,,,,1.8,1.0,1.5,1*35,1621218798005
$BDGSA,A,3,203,206,207,208,209,210,213,216,227,228,230,237,1.8,1.0,1.5,1*3D,1621218798005
$BDGSA,A,3,227,228,230,237,,,,,,,,,1.8,1.0,1.5,7*3C,1621218798005
$BDGSA,A,3,227,228,230,,,,,,,,,,1.8,1.0,1.5,8*05,1621218798005
$GAGSA,A,3,101,104,113,119,121,126,133,,,,,,1.8,1.0,1.5,7*0D,1621218798005
$GAGSA,A,3,113,121,126,,,,,,,,,,1.8,1.0,1.5,1*06,1621218798005
$QZGSA,A,3,193,194,195,,,,,,,,,,1.8,1.0,1.5,1*05,1621218798005
$QZGSA,A,3,194,195,,,,,,,,,,,1.8,1.0,1.5,8*37,1621218798005
$PIGSA,A,3,282,283,284,285,287,,,,,,,,1.8,1.0,1.5,8*19,1621218798005
$GPGSV,4,1,15,01,42,169,25,04,20,196,20,07,56,320,28,08,54,011,29,1*6C,1621218798005
$GPGSV,4,2,15,09,19,196,,11,32,194,,14,08,295,,16,16,076,11,1*66,1621218798005
$GPGSV,4,3,15,21,60,132,27,22,08,137,,27,24,036,28,30,17,320,18,1*6B,1621218798005
$GPGSV,4,4,15,01,42,169,15,08,54,011,16,27,24,036,18,8*55,1621218798005
$GLGSV,2,1,06,71,02,267,,79,12,117,,80,53,067,,82,24,026,25,1*70,1621218798005
$GLGSV,2,2,06,83,73,028,,84,40,204,,1*75,1621218798005
$BDGSV,7,1,25,201,47,122,,202,46,234,,203,62,189,28,204,33,109,,1*73,1621218798005
$BDGSV,7,2,25,205,22,254,,206,34,189,19,207,56,011,27,208,35,158,16,1*7C,1621218798005
$BDGSV,7,3,25,209,49,220,13,210,49,325,23,213,22,179,19,216,37,195,18,1*7B,1621218798005
$BDGSV,7,4,25,227,70,026,22,228,17,037,24,230,50,229,16,231,17,212,,1*74,1621218798005
$BDGSV,7,5,25,236,13,318,,237,50,106,20,1*79,1621218798005
$BDGSV,7,6,25,227,70,026,22,228,17,037,26,230,50,229,16,237,50,106,29,7*7A,1621218798005
$BDGSV,7,7,25,227,70,026,23,228,17,037,,230,50,229,09,8*70,1621218798005
$QZGSV,2,1,05,193,11,156,11,194,62,069,22,195,64,063,31,1*78,1621218798005
$QZGSV,2,2,05,194,62,069,11,195,64,063,16,8*7E,1621218798005
$GAGSV,3,1,11,101,40,335,12,104,16,274,11,113,35,046,27,119,19,217,11,7*77,1621218798005
$GAGSV,3,2,11,121,49,052,20,126,69,137,32,127,13,098,,133,29,196,17,7*73,1621218798005
$GAGSV,3,3,11,113,35,046,17,121,49,052,23,126,69,137,21,1*71,1621218798005
$PIGSV,2,1,06,282,24,284,15,283,45,236,14,284,85,002,27,285,34,179,19,8*63,1621218798005
$PIGSV,2,2,06,287,57,145,33,289,07,240,,8*68,1621218798005
$GPRMC,023318.00,A,2218.045255,N,11410.748691,E,016.3,139.2,170521,,E,A*17,1621218798005
$GPGGA,023319.00,2218.041260,N,11410.752363,E,1,18,0.8,2.8,M,,M,,*78,1621218799004
$GNGSA,A,3,1,4,7,8,16,21,22,27,30,203,206,207,1.5,0.8,1.3*1A,1621218799004
$GPGSA,A,3,1,4,7,8,16,21,22,27,30,,,,1.5,0.8,1.3,1*29,1621218799004
$GPGSA,A,3,1,8,27,30,,,,,,,,,1.5,0.8,1.3,8*27,1621218799004
$GLGSA,A,3,82,,,,,,,,,,,,1.5,0.8,1.3,1*37,1621218799004
$BDGSA,A,3,203,206,207,208,209,210,213,216,227,228,230,237,1.5,0.8,1.3,1*3F,1621218799004
$BDGSA,A,3,227,228,230,237,,,,,,,,,1.5,0.8,1.3,7*3E,1621218799004
