GPS TOW (s), GPS Week, Latitude (deg), Longitude (deg), Ellipsoid Height (m), ECEF X (m), ECEF Y (m), ECEF Z (m), Roll (deg), Pitch (deg), Heading (deg), Velocity X (m/s), Velocity Y (m/s), Velocity Z (m/s), Acceleration X (m/s^2), Acceleration Y (m/s^2), Acceleration Z (m/s^2), Angular rate X (rad/s), Angular rate Y (rad/s), Angular rate Z (rad/s)
273375.10, 2032, 35.62931853, 139.78712595, 44.6995, -3963426.7981, 3350882.1576, 3694865.5458, -1.511332, 1.714764, 326.649944, 0.003000, -0.000000, 0.000000, -0.17517300, -0.04017600, -0.12864900, 0.00182900000, 0.00099200000, 0.00037100000
273375.20, 2032, 35.62931853, 139.78712595, 44.6995, -3963426.7981, 3350882.1576, 3694865.5458, -1.510209, 1.716332, 326.650903, -0.001000, -0.003000, 0.002000, 0.09731100, 0.00640500, -0.10055700, -0.00098200000, -0.00013900000, 0.00022900000
273375.30, 2032, 35.62931853, 139.78712595, 44.6995, -3963426.7981, 3350882.1576, 3694865.5458, -1.511738, 1.715360, 326.650709, -0.004000, 0.003000, -0.003000, 0.07764100, 0.00183200, 0.17685000, -0.00038900000, -0.00172700000, -0.00066200000
273375.40, 2032, 35.62931853, 139.78712595, 44.6995, -3963426.7981, 3350882.1576, 3694865.5458, -1.509344, 1.715168, 326.650174, 0.003000, 0.000000, -0.000000, -0.18142700, 0.01004500, -0.14535600, 0.00203100000, 0.00015500000, 0.00051700000
273375.50, 2032, 35.62931853, 139.78712595, 44.6995, -3963426.7981, 3350882.1576, 3694865.5458, -1.510240, 1.716274, 326.651083, -0.004000, -0.002000, 0.001000, 0.22127000, 0.01942500, 0.03911700, -0.00207300000, -0.00036000000, -0.00015700000
273375.60, 2032, 35.62931853, 139.78712595, 44.6995, -3963426.7981, 3350882.1576, 3694865.5458, -1.512607, 1.715823, 326.650743, -0.003000, 0.001000, -0.002000, -0.06089400, -0.04385900, 0.09449700, -0.00022700000, -0.00073700000, -0.00057800000
273375.70, 2032, 35.62931853, 139.78712595, 44.6995, -3963426.7981, 3350882.1576, 3694865.5458, -1.513837, 1.715007, 326.649840, 0.003000, -0.002000, 0.003000, -0.13739000, 0.01300700, -0.18607700, 0.00129000000, 0.00116000000, 0.00071400000
273375.80, 2032, 35.62931853, 139.78712595, 44.6995, -3963426.7981, 3350882.1576, 3694865.5458, -1.517585, 1.715032, 326.650491, -0.004000, -0.001000, -0.000000, 0.24029700, 0.08615500, 0.16887900, -0.00216700000, -0.00073800000, -0.00043200000
273375.90, 2032, 35.62931853, 139.78712595, 44.6995, -3963426.7981, 3350882.1576, 3694865.5458, -1.517116, 1.714936, 326.649692, 0.000000, -0.001000, 0.001000, -0.14697200, -0.07807400, -0.04613500, 0.00048100000, 0.00101400000, -0.00017600000
273376.00, 2032, 35.62931853, 139.78712595, 44.6995, -3963426.7981, 3350882.1576, 3694865.5458, -1.518249, 1.714892, 326.649872, 0.001000, -0.003000, 0.004000, -0.02303700, -0.00904800, -0.17597800, -0.00004200000, 0.00116400000, 0.00055700000
273376.10, 2032, 35.62931853, 139.78712595, 44.6994, -3963426.7980, 3350882.1576, 3694865.5458, -1.525163, 1.713767, 326.649734, -0.007000, 0.001000, -0.003000, 0.19322700, 0.07045700, 0.18185300, -0.00237500000, -0.00190700000, -0.00078300000
273376.20, 2032, 35.62931853, 139.78712595, 44.6994, -3963426.7980, 3350882.1576, 3694865.5457, -1.529971, 1.713142, 326.648250, 0.001000, -0.001000, 0.001000, -0.18326200, -0.01508300, -0.11714900, 0.00095800000, 0.00079500000, 0.00029100000
273376.30, 2032, 35.62931853, 139.78712595, 44.6994, -3963426.7980, 3350882.1576, 3694865.5458, -1.530781, 1.714441, 326.649066, -0.000000, -0.003000, 0.002000, 0.10549900, -0.00233100, -0.11184900, -0.00083900000, 0.00040100000, 0.00022400000
273376.40, 2032, 35.62931853, 139.78712595, 44.6994, -3963426.7980, 3350882.1576, 3694865.5457, -1.532232, 1.713213, 326.648384, -0.004000, 0.003000, -0.005000, 0.08517800, 0.01529600, 0.17200200, -0.00045300000, -0.00237500000, -0.00076900000
273376.50, 2032, 35.62931853, 139.78712595, 44.6994, -3963426.7980, 3350882.1576, 3694865.5458, -1.531664, 1.714150, 326.648080, 0.003000, -0.001000, 0.001000, -0.16495200, -0.00006200, -0.16686400, 0.00179600000, 0.00105800000, 0.00080200000
273376.60, 2032, 35.62931853, 139.78712595, 44.6994, -3963426.7980, 3350882.1576, 3694865.5458, -1.532549, 1.713462, 326.649207, -0.003000, -0.000000, 0.000000, 0.18998100, 0.03869100, 0.02878600, -0.00152700000, -0.00112700000, -0.00035800000
273376.70, 2032, 35.62931853, 139.78712595, 44.6993, -3963426.7980, 3350882.1576, 3694865.5457, -1.531186, 1.710694, 326.648276, -0.001000, 0.001000, -0.002000, -0.06695200, -0.05192200, 0.13191000, 0.00033900000, -0.00047100000, -0.00041500000
273376.80, 2032, 35.62931853, 139.78712595, 44.6994, -3963426.7980, 3350882.1576, 3694865.5457, -1.528646, 1.712090, 326.649150, 0.005000, -0.002000, 0.002000, -0.14820000, 0.02058800, -0.17042700, 0.00215000000, 0.00146800000, 0.00094500000
273376.90, 2032, 35.62931853, 139.78712595, 44.6994, -3963426.7980, 3350882.1576, 3694865.5457, -1.528364, 1.712958, 326.649443, -0.004000, -0.001000, -0.000000, 0.26639200, 0.07249800, 0.13646700, -0.00207900000, -0.00084200000, -0.00066400000
273377.00, 2032, 35.62931853, 139.78712595, 44.6993, -3963426.7980, 3350882.1575, 3694865.5457, -1.526708, 1.710959, 326.649055, 0.001000, 0.001000, 0.001000, -0.14500600, -0.06965700, 0.00483000, 0.00095900000, 0.00067900000, 0.00008700000
273377.10, 2032, 35.62931853, 139.78712595, 44.6993, -3963426.7979, 3350882.1574, 3694865.5457, -1.520026, 1.708080, 326.650928, 0.004000, -0.001000, 0.003000, -0.07946600, 0.01622000, -0.15141600, 0.00183000000, 0.00141500000, 0.00052500000
273377.20, 2032, 35.62931853, 139.78712595, 44.6992, -3963426.7979, 3350882.1575, 3694865.5457, -1.519443, 1.707242, 326.649614, -0.004000, -0.001000, -0.003000, 0.19683800, 0.04584800, 0.21381700, -0.00155300000, -0.00073800000, -0.00087700000
273377.30, 2032, 35.62931853, 139.78712595, 44.6994, -3963426.7980, 3350882.1575, 3694865.5457, -1.524449, 1.711663, 326.649179, -0.000000, -0.002000, 0.001000, -0.15242100, -0.03409900, -0.13085700, 0.00005700000, 0.00125200000, 0.00053400000
273377.40, 2032, 35.62931853, 139.78712595, 44.6994, -3963426.7980, 3350882.1575, 3694865.5457, -1.529885, 1.711428, 326.649484, -0.000000, -0.002000, 0.002000, 0.04820200, 0.01513800, -0.10369100, -0.00069100000, 0.00019800000, -0.00002000000
273377.50, 2032, 35.62931853, 139.78712595, 44.6994, -3963426.7980, 3350882.1576, 3694865.5457, -1.529403, 1.711427, 326.647987, -0.002000, 0.001000, -0.005000, 0.10290500, 0.01618500, 0.20987600, -0.00046700000, -0.00130300000, -0.00059500000
273377.60, 2032, 35.62931853, 139.78712595, 44.6995, -3963426.7981, 3350882.1576, 3694865.5458, -1.529021, 1.715987, 326.648715, 0.004000, -0.001000, -0.000000, -0.17180300, 0.00952300, -0.15532600, 0.00202700000, 0.00106700000, 0.00074900000
273377.70, 2032, 35.62931853, 139.78712595, 44.6995, -3963426.7981, 3350882.1576, 3694865.5458, -1.527990, 1.717058, 326.648517, -0.004000, -0.001000, 0.002000, 0.20709900, 0.02591300, 0.01595600, -0.00210400000, -0.00064700000, -0.00060200000
273377.80, 2032, 35.62931853, 139.78712595, 44.6994, -3963426.7980, 3350882.1576, 3694865.5457, -1.531377, 1.712364, 326.648303, -0.002000, 0.002000, -0.003000, -0.05238000, -0.06853900, 0.17335000, 0.00014400000, -0.00080800000, 0.00003300000
273377.90, 2032, 35.62931853, 139.78712595, 44.6994, -3963426.7980, 3350882.1576, 3694865.5458, -1.524879, 1.713281, 326.649898, 0.006000, -0.003000, 0.005000, -0.16516800, 0.05802900, -0.19959700, 0.00217700000, 0.00240600000, 0.00065900000
273378.00, 2032, 35.62931853, 139.78712595, 44.6994, -3963426.7980, 3350882.1576, 3694865.5458, -1.528984, 1.714453, 326.647962, -0.004000, -0.002000, -0.001000, 0.25206200, 0.03726300, 0.21005000, -0.00247600000, -0.00050600000, -0.00064300000
273378.10, 2032, 35.62931853, 139.78712595, 44.6995, -3963426.7981, 3350882.1576, 3694865.5458, -1.526861, 1.716928, 326.649376, 0.001000, -0.002000, 0.002000, -0.11665200, -0.05078500, -0.07795000, 0.00035100000, 0.00261100000, 0.00013900000
273378.20, 2032, 35.62931853, 139.78712595, 44.6995, -3963426.7981, 3350882.1576, 3694865.5458, -1.525979, 1.716390, 326.649026, 0.003000, -0.002000, 0.005000, -0.04622600, -0.01755900, -0.15552300, 0.00111200000, 0.00160900000, 0.00031600000
273378.30, 2032, 35.62931853, 139.78712595, 44.6994, -3963426.7980, 3350882.1576, 3694865.5457, -1.525251, 1.712820, 326.649114, -0.005000, 0.000000, -0.003000, 0.08863300, 0.01460400, 0.16535900, -0.00232600000, -0.00186300000, -0.00015800000
273378.40, 2032, 35.62931853, 139.78712595, 44.6994, -3963426.7980, 3350882.1576, 3694865.5458, -1.527039, 1.714415, 326.649300, -0.002000, -0.002000, -0.000000, -0.11655200, 0.02408900, -0.10057200, -0.00120800000, 0.00051200000, -0.00061400000
273378.50, 2032, 35.62931853, 139.78712595, 44.6995, -3963426.7981, 3350882.1577, 3694865.5458, -1.528508, 1.717808, 326.648170, 0.002000, -0.003000, 0.004000, -0.05598200, -0.08431000, -0.02619700, 0.00090500000, 0.00213800000, 0.00005300000
273378.60, 2032, 35.62931853, 139.78712595, 44.6995, -3963426.7981, 3350882.1576, 3694865.5458, -1.526887, 1.715558, 326.649400, 0.001000, 0.003000, -0.002000, 0.04274600, 0.03313100, 0.01517100, 0.00168300000, -0.00132200000, 0.00082500000
273378.70, 2032, 35.62931853, 139.78712595, 44.6994, -3963426.7980, 3350882.1576, 3694865.5458, -1.527080, 1.713871, 326.649335, -0.003000, 0.001000, -0.002000, 0.09620100, 0.02493600, 0.01227600, -0.00143500000, -0.00122900000, -0.00018100000
273378.80, 2032, 35.62931853, 139.78712595, 44.6995, -3963426.7981, 3350882.1576, 3694865.5458, -1.527698, 1.714796, 326.648981, -0.002000, -0.003000, 0.001000, -0.07589200, 0.01533100, -0.07516200, -0.00182100000, 0.00069300000, -0.00022500000
273378.90, 2032, 35.62931853, 139.78712595, 44.6995, -3963426.7981, 3350882.1576, 3694865.5458, -1.528657, 1.715545, 326.649447, -0.001000, 0.001000, -0.002000, -0.08416200, -0.01673500, -0.02471600, 0.00014500000, -0.00122000000, -0.00020800000
273379.00, 2032, 35.62931853, 139.78712595, 44.6995, -3963426.7981, 3350882.1576, 3694865.5458, -1.529072, 1.715609, 326.648617, 0.002000, -0.004000, 0.006000, -0.05505300, -0.04033700, 0.00699600, 0.00011300000, 0.00315900000, -0.00030100000
273379.10, 2032, 35.62931853, 139.78712595, 44.6995, -3963426.7981, 3350882.1576, 3694865.5458, -1.529012, 1.714971, 326.648761, 0.001000, 0.001000, -0.002000, 0.04403000, -0.00901600, 0.01875400, 0.00141500000, -0.00070100000, 0.00020200000
273379.20, 2032, 35.62931853, 139.78712595, 44.6995, -3963426.7981, 3350882.1576, 3694865.5458, -1.527371, 1.716172, 326.649369, 0.003000, -0.000000, -0.000000, -0.01345600, 0.00857900, 0.02618000, 0.00149000000, 0.00071300000, 0.00013500000
273379.30, 2032, 35.62931853, 139.78712595, 44.6995, -3963426.7981, 3350882.1576, 3694865.5458, -1.525743, 1.716522, 326.649020, 0.001000, 0.000000, -0.001000, 0.06796600, 0.02514200, -0.00773600, 0.00065200000, 0.00009600000, 0.00028500000
273379.40, 2032, 35.62931853, 139.78712595, 44.6995, -3963426.7981, 3350882.1576, 3694865.5458, -1.526918, 1.715378, 326.649599, -0.002000, 0.002000, -0.003000, 0.06529900, 0.02946100, -0.01790700, -0.00047700000, -0.00169900000, 0.00015900000
273379.50, 2032, 35.62931853, 139.78712595, 44.6994, -3963426.7980, 3350882.1576, 3694865.5458, -1.528413, 1.714391, 326.648890, -0.003000, 0.001000, -0.003000, -0.00608300, -0.00298900, 0.00147300, -0.00111100000, -0.00143100000, -0.00019900000
273379.60, 2032, 35.62931853, 139.78712595, 44.6995, -3963426.7981, 3350882.1576, 3694865.5458, -1.529260, 1.715403, 326.648926, -0.001000, -0.001000, 0.000000, -0.00507400, -0.01553800, -0.02756700, -0.00133600000, 0.00019300000, 0.00002000000
273379.70, 2032, 35.62931853, 139.78712595, 44.6995, -3963426.7981, 3350882.1576, 3694865.5458, -1.528070, 1.715193, 326.649369, -0.002000, 0.001000, -0.001000, 0.02533200, 0.00093000, -0.03270400, -0.00087200000, -0.00078600000, -0.00022300000
273379.80, 2032, 35.62931853, 139.78712595, 44.6995, -3963426.7980, 3350882.1576, 3694865.5458, -1.527629, 1.714549, 326.648915, -0.002000, 0.000000, -0.001000, -0.04819700, -0.01810200, -0.00315400, -0.00039200000, -0.00089500000, -0.00018000000
273379.90, 2032, 35.62931853, 139.78712595, 44.6995, -3963426.7981, 3350882.1576, 3694865.5458, -1.527651, 1.714787, 326.649254, -0.000000, -0.002000, 0.001000, -0.09069600, -0.01660800, 0.01922100, -0.00044400000, 0.00077800000, -0.00011500000
273380.00, 2032, 35.62931853, 139.78712595, 44.6995, -3963426.7981, 3350882.1576, 3694865.5458, -1.528539, 1.715654, 326.648917, 0.002000, -0.003000, 0.003000, -0.07118100, -0.01960700, -0.00147600, 0.00029300000, 0.00217200000, -0.00021400000
273380.10, 2032, 35.62931853, 139.78712595, 44.6995, -3963426.7981, 3350882.1576, 3694865.5458, -1.527752, 1.715678, 326.648859, 0.002000, -0.002000, 0.003000, -0.00622600, -0.00221400, -0.00652300, 0.00067800000, 0.00189700000, 0.00009000000
273380.20, 2032, 35.62931853, 139.78712595, 44.6995, -3963426.7981, 3350882.1576, 3694865.5458, -1.527354, 1.715640, 326.649195, 0.002000, 0.001000, -0.001000, 0.03187200, 0.01121600, 0.01322900, 0.00138100000, -0.00018600000, -0.00003600000
273380.30, 2032, 35.62931853, 139.78712595, 44.6995, -3963426.7981, 3350882.1576, 3694865.5458, -1.527187, 1.715431, 326.648872, 0.002000, 0.001000, -0.002000, 0.01820400, 0.00892500, 0.04197400, 0.00150400000, -0.00037200000, 0.00005700000
273380.40, 2032, 35.62931853, 139.78712595, 44.6995, -3963426.7981, 3350882.1576, 3694865.5458, -1.527190, 1.715744, 326.648986, 0.002000, 0.000000, -0.001000, 0.01719100, 0.00969000, 0.02749000, 0.00131800000, 0.00022900000, 0.00029000000
273380.50, 2032, 35.62931853, 139.78712595, 44.6995, -3963426.7981, 3350882.1576, 3694865.5458, -1.526324, 1.716124, 326.649193, 0.003000, 0.000000, 0.000000, 0.03515900, 0.02102200, 0.01309800, 0.00125900000, 0.00079800000, 0.00027900000
273380.60, 2032, 35.62931853, 139.78712595, 44.6995, -3963426.7981, 3350882.1576, 3694865.5458, -1.525630, 1.715765, 326.649102, 0.002000, 0.000000, -0.000000, 0.05562100, 0.01864000, -0.01527300, 0.00068000000, 0.00035000000, 0.00034700000
273380.70, 2032, 35.62931853, 139.78712595, 44.6995, -3963426.7981, 3350882.1576, 3694865.5458, -1.525750, 1.715704, 326.649294, 0.001000, 0.000000, -0.001000, 0.05871700, 0.02979600, -0.03536100, 0.00020700000, -0.00000800000, 0.00022600000
273380.80, 2032, 35.62931853, 139.78712595, 44.6995, -3963426.7981, 3350882.1576, 3694865.5458, -1.526539, 1.715453, 326.648999, -0.001000, 0.001000, -0.002000, 0.05001500, 0.01664900, -0.04165500, -0.00038300000, -0.00116000000, 0.00014100000
273380.90, 2032, 35.62931853, 139.78712595, 44.6995, -3963426.7981, 3350882.1576, 3694865.5458, -1.526593, 1.715290, 326.649192, -0.001000, 0.002000, -0.003000, 0.02236700, -0.00251300, -0.03777600, -0.00087000000, -0.00186100000, 0.00015900000
273381.00, 2032, 35.62931853, 139.78712595, 44.6995, -3963426.7981, 3350882.1576, 3694865.5458, -1.526759, 1.715225, 326.649155, -0.002000, 0.002000, -0.003000, 0.00335800, -0.01364200, -0.02018000, -0.00107800000, -0.00175200000, 0.00004500000
273381.10, 2032, 35.62931853, 139.78712595, 44.6995, -3963426.7981, 3350882.1576, 3694865.5458, -1.526386, 1.715033, 326.649321, -0.002000, 0.002000, -0.002000, -0.01756300, -0.01242100, -0.00809000, -0.00127700000, -0.00162000000, 0.00006300000
273381.20, 2032, 35.62931853, 139.78712595, 44.6994, -3963426.7981, 3350882.1575, 3694865.5458, -1.526562, 1.714466, 326.649279, -0.001000, -0.000000, -0.001000, -0.03115100, -0.02627300, -0.01867800, -0.00160000000, -0.00055600000, -0.00005500000
273381.30, 2032, 35.62931853, 139.78712595, 44.6994, -3963426.7981, 3350882.1574, 3694865.5458, -1.527381, 1.714972, 326.648850, -0.001000, -0.001000, 0.000000, -0.01007500, -0.01802800, -0.04007000, -0.00178600000, -0.00010300000, -0.00007000000
273381.40, 2032, 35.62931853, 139.78712595, 44.6993, -3963426.7981, 3350882.1574, 3694865.5458, -1.528892, 1.719986, 326.648907, -0.002000, 0.001000, 0.001000, 0.10546700, -0.02964100, 0.03165700, -0.00159700000, 0.00245900000, 0.00077800000
273381.50, 2032, 35.62931854, 139.78712595, 44.6994, -3963426.7974, 3350882.1575, 3694865.5465, -1.531746, 1.736418, 326.653440, -0.013000, 0.017000, -0.000000, 0.11711400, 0.05343000, -0.10501300, -0.00201000000, 0.00070700000, 0.00024800000
273381.60, 2032, 35.62931856, 139.78712593, 44.6994, -3963426.7953, 3350882.1578, 3694865.5483, -1.540496, 1.732315, 326.649369, -0.022000, 0.030000, -0.001000, 0.10129500, 0.00128900, 0.00514700, -0.00183600000, -0.00235200000, -0.00084900000
273381.70, 2032, 35.62931859, 139.78712590, 44.6994, -3963426.7926, 3350882.1583, 3694865.5509, -1.545754, 1.734286, 326.650674, -0.025000, 0.038000, -0.002000, 0.09778900, 0.01341200, 0.00449700, -0.00127000000, -0.00015800000, 0.00094400000
273381.80, 2032, 35.62931862, 139.78712587, 44.6995, -3963426.7891, 3350882.1588, 3694865.5543, -1.552758, 1.737896, 326.657401, -0.030000, 0.047000, 0.002000, -0.01035500, 0.00612000, -0.02258100, -0.00119500000, 0.00034900000, 0.00070100000
273381.90, 2032, 35.62931867, 139.78712584, 44.6994, -3963426.7846, 3350882.1593, 3694865.5585, -1.553754, 1.734678, 326.657570, -0.037000, 0.056000, 0.001000, 0.02692600, -0.00137100, -0.00354800, -0.00027000000, -0.00006500000, -0.00073100000
273382.00, 2032, 35.62931872, 139.78712579, 44.6996, -3963426.7795, 3350882.1603, 3694865.5634, -1.561347, 1.738535, 326.655596, -0.042000, 0.060000, 0.005000, -0.00752500, -0.03567600, -0.03087500, -0.00175500000, 0.00252900000, 0.00015700000
273382.10, 2032, 35.62931878, 139.78712574, 44.6997, -3963426.7737, 3350882.1612, 3694865.5689, -1.569532, 1.740499, 326.661059, -0.046000, 0.070000, 0.004000, 0.01815900, -0.00330600, -0.03516100, -0.00123400000, 0.00160600000, 0.00085800000
273382.20, 2032, 35.62931885, 139.78712569, 44.6998, -3963426.7672, 3350882.1621, 3694865.5750, -1.574108, 1.740158, 326.664508, -0.050000, 0.077000, 0.004000, 0.00737300, 0.00008700, -0.04277700, -0.00052900000, 0.00106600000, -0.00012900000
273382.30, 2032, 35.62931892, 139.78712563, 44.6999, -3963426.7604, 3350882.1630, 3694865.5817, -1.575951, 1.740098, 326.666163, -0.052000, 0.082000, 0.005000, 0.01382000, -0.04194200, -0.03427200, -0.00043100000, 0.00200600000, 0.00046400000
273382.40, 2032, 35.62931900, 139.78712558, 44.7000, -3963426.7531, 3350882.1639, 3694865.5889, -1.578456, 1.744458, 326.673701, -0.057000, 0.091000, 0.002000, 0.16720000, -0.03979600, 0.01099800, -0.00056800000, 0.00150100000, 0.00164600000
273382.50, 2032, 35.62931909, 139.78712551, 44.7001, -3963426.7448, 3350882.1651, 3694865.5969, -1.583183, 1.754673, 326.681324, -0.065000, 0.101000, 0.008000, 0.22617900, 0.02480000, 0.12137000, -0.00118400000, 0.00532000000, 0.00112600000
273382.60, 2032, 35.62931920, 139.78712542, 44.7004, -3963426.7351, 3350882.1665, 3694865.6064, -1.592176, 1.773004, 326.687598, -0.083000, 0.128000, 0.005000, 0.48996600, 0.03600500, 0.10475300, -0.00193700000, 0.00488500000, 0.00145000000
273382.70, 2032, 35.62931933, 139.78712532, 44.7010, -3963426.7229, 3350882.1684, 3694865.6187, -1.598813, 1.809269, 326.703088, -0.101000, 0.159000, 0.023000, 0.60035900, -0.07844500, -0.19557700, -0.00127700000, 0.01560100000, 0.00435400000
273382.80, 2032, 35.62931951, 139.78712519, 44.7019, -3963426.7065, 3350882.1708, 3694865.6356, -1.594884, 1.853375, 326.729549, -0.148000, 0.241000, 0.005000, 0.90866500, -0.05477100, 0.07614200, 0.00094500000, 0.00309600000, 0.00505300000
273382.90, 2032, 35.62931976, 139.78712500, 44.7033, -3963426.6841, 3350882.1743, 3694865.6587, -1.602404, 1.892994, 326.759525, -0.199000, 0.315000, 0.017000, 1.03236600, -0.06231700, -0.03716000, -0.00255600000, 0.00643000000, 0.00590800000
273383.00, 2032, 35.62932008, 139.78712474, 44.7046, -3963426.6539, 3350882.1790, 3694865.6889, -1.624218, 1.908739, 326.801723, -0.265000, 0.413000, 0.010000, 1.15825500, -0.05885200, -0.05283300, -0.00489800000, -0.00213900000, 0.00928200000
273383.10, 2032, 35.62932050, 139.78712441, 44.7059, -3963426.6151, 3350882.1850, 3694865.7270, -1.668507, 1.906351, 326.867606, -0.333000, 0.510000, 0.018000, 1.21265100, 0.06777400, -0.00759600, -0.01215900000, 0.00027500000, 0.01266600000
273383.20, 2032, 35.62932101, 139.78712401, 44.7074, -3963426.5670, 3350882.1926, 3694865.7741, -1.737158, 1.890403, 326.941986, -0.402000, 0.626000, 0.015000, 1.30043900, 0.05132600, -0.13412700, -0.01114300000, -0.00567900000, 0.01268600000
273383.30, 2032, 35.62932162, 139.78712353, 44.7089, -3963426.5099, 3350882.2014, 3694865.8295, -1.822335, 1.849447, 327.019278, -0.465000, 0.722000, 0.017000, 1.09054700, -0.07120700, 0.13188100, -0.01492800000, -0.00851200000, 0.01580900000
273383.40, 2032, 35.62932230, 139.78712300, 44.7105, -3963426.4461, 3350882.2102, 3694865.8923, -1.873136, 1.818235, 327.132166, -0.495000, 0.797000, 0.022000, 0.79756100, 0.09450900, 0.06855200, -0.00691000000, -0.00133000000, 0.02236700000
273383.50, 2032, 35.62932305, 139.78712243, 44.7122, -3963426.3768, 3350882.2190, 3694865.9612, -1.910041, 1.807410, 327.250399, -0.534000, 0.879000, 0.014000, 0.75144000, 0.23352900, -0.07138900, -0.00563900000, -0.00634300000, 0.01779300000
273383.60, 2032, 35.62932387, 139.78712183, 44.7134, -3963426.3018, 3350882.2273, 3694866.0357, -1.923720, 1.765114, 327.351221, -0.563000, 0.947000, 0.003000, 0.44192400, -0.08794100, 0.03363800, 0.00101800000, -0.01563200000, 0.01888300000
273383.70, 2032, 35.62932474, 139.78712120, 44.7145, -3963426.2231, 3350882.2351, 3694866.1143, -1.919509, 1.701987, 327.487542, -0.579000, 0.978000, 0.011000, 0.35164800, -0.01889600, -0.03012300, -0.00093400000, -0.01320600000, 0.02676400000
273383.80, 2032, 35.62932563, 139.78712056, 44.7158, -3963426.1425, 3350882.2430, 3694866.1953, -1.918457, 1.637838, 327.643304, -0.582000, 0.997000, 0.016000, 0.05225200, 0.19177100, 0.03002000, 0.00124500000, -0.01069900000, 0.02519800000
273383.90, 2032, 35.62932653, 139.78711992, 44.7171, -3963426.0616, 3350882.2499, 3694866.2777, -1.884840, 1.587743, 327.774480, -0.566000, 1.006000, 0.021000, -0.03856100, 0.15115600, 0.03589700, 0.00824600000, -0.00414200000, 0.02150200000
273384.00, 2032, 35.62932744, 139.78711931, 44.7188, -3963425.9820, 3350882.2551, 3694866.3607, -1.819501, 1.565030, 327.910705, -0.541000, 1.013000, 0.018000, -0.02830000, -0.05112500, -0.02800200, 0.01503100000, -0.00384800000, 0.02681000000
273384.10, 2032, 35.62932835, 139.78711872, 44.7203, -3963425.9034, 3350882.2588, 3694866.4436, -1.707148, 1.552868, 328.089222, -0.537000, 1.007000, 0.014000, -0.10048200, -0.09648700, 0.13118100, 0.01807000000, -0.00260400000, 0.03300500000
273384.20, 2032, 35.62932925, 139.78711812, 44.7217, -3963425.8247, 3350882.2635, 3694866.5256, -1.643853, 1.539323, 328.255966, -0.552000, 0.997000, 0.015000, -0.07955500, 0.13947200, 0.01793200, 0.00470100000, -0.00349100000, 0.02521300000
273384.30, 2032, 35.62933014, 139.78711751, 44.7236, -3963425.7459, 3350882.2696, 3694866.6074, -1.628103, 1.541166, 328.387457, -0.558000, 0.992000, 0.026000, 0.22136200, 0.03155800, 0.02710900, -0.00058200000, 0.00226800000, 0.02373800000
273384.40, 2032, 35.62933105, 139.78711689, 44.7260, -3963425.6668, 3350882.2759, 3694866.6901, -1.626798, 1.559570, 328.554862, -0.564000, 1.014000, 0.025000, 0.14436800, -0.16245000, -0.07617600, -0.00049500000, 0.00140700000, 0.03355800000
273384.50, 2032, 35.62933198, 139.78711626, 44.7291, -3963425.5859, 3350882.2823, 3694866.7759, -1.631139, 1.587356, 328.754442, -0.580000, 1.054000, 0.043000, 0.89128500, 0.22706800, 0.04515000, -0.00164600000, 0.00922800000, 0.03459400000
273384.60, 2032, 35.62933297, 139.78711560, 44.7321, -3963425.5004, 3350882.2882, 3694866.8668, -1.619122, 1.620807, 328.944838, -0.614000, 1.141000, 0.028000, 0.89673100, 0.06760900, 0.22577900, 0.00214700000, 0.00452700000, 0.03257500000
273384.70, 2032, 35.62933404, 139.78711490, 44.7348, -3963425.4085, 3350882.2932, 3694866.9648, -1.575301, 1.663095, 329.154847, -0.655000, 1.236000, 0.028000, 1.16509800, -0.15354900, -0.06286300, 0.00745900000, 0.00625900000, 0.04263500000
273384.80, 2032, 35.62933520, 139.78711415, 44.7374, -3963425.3085, 3350882.2977, 3694867.0718, -1.523006, 1.681088, 329.419505, -0.702000, 1.362000, 0.032000, 1.15199400, 0.36230200, -0.65661500, 0.01451400000, -0.00202000000, 0.04516600000
273384.90, 2032, 35.62933649, 139.78711334, 44.7406, -3963425.1993, 3350882.3022, 3694867.1897, -1.463724, 1.589500, 329.643807, -0.770000, 1.502000, 0.034000, 1.33304300, 0.14094700, -0.00864100, 0.00980200000, -0.02882400000, 0.03697400000
273385.00, 2032, 35.62933787, 139.78711247, 44.7446, -3963425.0831, 3350882.3063, 3694867.3167, -1.394878, 1.496864, 329.908008, -0.799000, 1.574000, 0.042000, 1.09496400, -0.26426600, 0.57331200, 0.01050500000, -0.00727700000, 0.05451900000
273385.10, 2032, 35.62933932, 139.78711157, 44.7480, -3963424.9609, 3350882.3100, 3694867.4493, -1.332495, 1.507740, 330.256270, -0.844000, 1.640000, 0.032000, 0.99867200, 0.44016400, 0.17620400, 0.00182600000, 0.00701800000, 0.06232900000
273385.20, 2032, 35.62934083, 139.78711061, 44.7496, -3963424.8310, 3350882.3145, 3694867.5865, -1.365200, 1.547250, 330.597663, -0.895000, 1.709000, 0.013000, 0.89085100, -0.45346800, 0.72433000, -0.00931100000, 0.01387800000, 0.06408200000
273385.30, 2032, 35.62934240, 139.78710960, 44.7519, -3963424.6965, 3350882.3200, 3694867.7287, -1.433930, 1.684369, 330.988178, -0.939000, 1.759000, 0.037000, 0.75029600, 0.71573900, -0.74993800, -0.02881100000, 0.02346800000, 0.06397900000
273385.40, 2032, 35.62934403, 139.78710854, 44.7554, -3963424.5563, 3350882.3268, 3694867.8781, -1.603449, 1.711818, 331.296383, -0.966000, 1.864000, 0.044000, 0.53565500, 0.18390600, -0.20325100, -0.02470900000, -0.00974400000, 0.04910100000
273385.50, 2032, 35.62934574, 139.78710749, 44.7594, -3963424.4127, 3350882.3302, 3694868.0348, -1.646025, 1.638152, 331.594189, -0.941000, 1.941000, 0.041000, 0.44173400, 0.13469700, -0.12990900, 0.00430300000, -0.01686900000, 0.05628700000
273385.60, 2032, 35.62934751, 139.78710646, 44.7639, -3963424.2681, 3350882.3299, 3694868.1969, -1.601460, 1.582749, 331.939711, -0.924000, 1.990000, 0.049000, 0.42726600, 0.06349600, 0.29873000, 0.01023900000, -0.00647200000, 0.06358100000
273385.70, 2032, 35.62934932, 139.78710545, 44.7681, -3963424.1216, 3350882.3269, 3694868.3629, -1.503686, 1.591852, 332.326369, -0.931000, 2.037000, 0.041000, 0.74446200, 0.22783300, 0.05465000, 0.01513800000, 0.00637000000, 0.06803300000
273385.80, 2032, 35.62935119, 139.78710440, 44.7715, -3963423.9704, 3350882.3234, 3694868.5329, -1.436799, 1.628327, 332.691924, -0.970000, 2.102000, 0.033000, 0.62589200, 0.15446800, -0.02524000, 0.00629600000, 0.00247800000, 0.06072300000
273385.90, 2032, 35.62935311, 139.78710331, 44.7746, -3963423.8138, 3350882.3202, 3694868.7079, -1.410994, 1.637817, 333.030685, -1.003000, 2.165000, 0.036000, 0.77777500, 0.07396700, -0.03229600, 0.00069100000, 0.00036900000, 0.05753200000
273386.00, 2032, 35.62935508, 139.78710219, 44.7788, -3963423.6538, 3350882.3174, 3694868.8882, -1.397650, 1.677577, 333.347527, -1.020000, 2.223000, 0.047000, 0.87948700, 0.32373800, 0.09307300, 0.00521700000, 0.00710900000, 0.05323300000
273386.10, 2032, 35.62935711, 139.78710105, 44.7832, -3963423.4896, 3350882.3139, 3694869.0740, -1.358629, 1.721173, 333.617055, -1.047000, 2.290000, 0.047000, 0.38035800, 0.27395600, -0.16821700, 0.00648100000, 0.00652400000, 0.04065000000
273386.20, 2032, 35.62935921, 139.78709987, 44.7874, -3963423.3200, 3350882.3101, 3694869.2653, -1.326416, 1.732233, 333.815244, -1.087000, 2.359000, 0.047000, 0.64531500, 0.12985900, -0.05654000, 0.00355600000, -0.00066600000, 0.02962200000
273386.30, 2032, 35.62936135, 139.78709867, 44.7922, -3963423.1467, 3350882.3062, 3694869.4616, -1.256095, 1.761569, 333.973087, -1.095000, 2.411000, 0.049000, 0.70046800, 0.05996300, -0.00842900, 0.01483600000, 0.00671500000, 0.02650600000
273386.40, 2032, 35.62936354, 139.78709743, 44.7978, -3963422.9697, 3350882.3033, 3694869.6624, -1.235151, 1.786813, 334.110443, -1.147000, 2.459000, 0.067000, 0.91661800, 0.05643200, -0.05991200, -0.00390100000, 0.00072300000, 0.02117700000
273386.50, 2032, 35.62936578, 139.78709615, 44.8035, -3963422.7880, 3350882.3015, 3694869.8674, -1.224873, 1.787132, 334.226351, -1.173000, 2.511000, 0.052000, 0.59136200, 0.06692100, 0.23173800, 0.00689800000, -0.00063000000, 0.01944800000
273386.60, 2032, 35.62936806, 139.78709484, 44.8088, -3963422.6020, 3350882.3002, 3694870.0759, -1.232330, 1.800291, 334.321264, -1.208000, 2.547000, 0.063000, 0.42511200, 0.11140100, -0.05620500, -0.00943700000, 0.00522300000, 0.01378000000
273386.70, 2032, 35.62937038, 139.78709350, 44.8139, -3963422.4123, 3350882.2985, 3694870.2884, -1.246460, 1.804468, 334.378757, -1.215000, 2.604000, 0.055000, 0.33364300, 0.00160100, -0.07307700, 0.00420400000, 0.00216300000, 0.00781200000
273386.80, 2032, 35.62937274, 139.78709215, 44.8196, -3963422.2202, 3350882.2961, 3694870.5049, -1.199750, 1.832706, 334.420523, -1.237000, 2.643000, 0.062000, 0.14728500, -0.13990400, -0.10381600, 0.00556300000, 0.00580500000, 0.00640000000
273386.90, 2032, 35.62937515, 139.78709077, 44.8254, -3963422.0243, 3350882.2945, 3694870.7250, -1.172571, 1.843855, 334.427108, -1.268000, 2.700000, 0.052000, 0.41430700, -0.01444900, -0.15593900, 0.00947400000, -0.00396400000, -0.00476000000
273387.00, 2032, 35.62937759, 139.78708935, 44.8311, -3963421.8242, 3350882.2936, 3694870.9488, -1.127416, 1.831741, 334.363508, -1.296000, 2.742000, 0.056000, 0.45633600, -0.08225200, -0.04609900, 0.01279900000, -0.00529800000, -0.01506900000
273387.10, 2032, 35.62938007, 139.78708790, 44.8372, -3963421.6211, 3350882.2937, 3694871.1756, -1.089575, 1.828501, 334.283054, -1.331000, 2.766000, 0.057000, 0.35753300, -0.12095000, -0.05871300, 0.00308600000, -0.00339500000, -0.01248800000
273387.20, 2032, 35.62938257, 139.78708642, 44.8432, -3963421.4143, 3350882.2953, 3694871.4049, -1.102406, 1.806515, 334.214273, -1.365000, 2.799000, 0.062000, 0.31561900, -0.03483100, -0.08359200, -0.00380200000, -0.00604800000, -0.01235500000
273387.30, 2032, 35.62938510, 139.78708489, 44.8497, -3963421.2045, 3350882.2984, 3694871.6368, -1.141832, 1.785936, 334.150663, -1.397000, 2.829000, 0.059000, 0.25874300, -0.34203400, -0.10278500, -0.00564000000, -0.00767900000, -0.01061900000
273387.40, 2032, 35.62938766, 139.78708335, 44.8561, -3963420.9916, 3350882.3017, 3694871.8717, -1.170778, 1.762252, 334.070618, -1.413000, 2.859000, 0.074000, 0.18732700, 0.08921000, -0.14275800, -0.01081300000, -0.00108800000, -0.01842900000
273387.50, 2032, 35.62939026, 139.78708178, 44.8626, -3963420.7759, 3350882.3051, 3694872.1096, -1.216254, 1.740102, 333.961440, -1.425000, 2.901000, 0.065000, 0.57962400, -0.06212500, 0.12691000, -0.00166700000, -0.00349600000, -0.01742900000
273387.60, 2032, 35.62939289, 139.78708021, 44.8689, -3963420.5580, 3350882.3076, 3694872.3504, -1.189772, 1.718061, 333.873232, -1.433000, 2.932000, 0.072000, 0.43337500, 0.09525800, 0.27621300, 0.00628100000, 0.00061400000, -0.01475300000
273387.70, 2032, 35.62939555, 139.78707862, 44.8758, -3963420.3378, 3350882.3105, 3694872.5941, -1.160976, 1.708336, 333.791141, -1.457000, 2.968000, 0.069000, 0.49800700, 0.01293500, -0.10767700, 0.00268000000, -0.00330500000, -0.01418900000
273387.80, 2032, 35.62939823, 139.78707700, 44.8821, -3963420.1145, 3350882.3137, 3694872.8400, -1.144489, 1.686756, 333.699254, -1.473000, 3.002000, 0.058000, 0.16324800, -0.21499800, 0.21026500, 0.00959000000, -0.00465800000, -0.01693100000
273387.90, 2032, 35.62940094, 139.78707535, 44.8889, -3963419.8890, 3350882.3183, 3694873.0879, -1.137989, 1.700517, 333.605216, -1.517000, 3.008000, 0.070000, 0.38753400, -0.11615600, 0.22300300, -0.00806000000, 0.00364300000, -0.01578400000
273388.00, 2032, 35.62940366, 139.78707366, 44.8950, -3963419.6591, 3350882.3250, 3694873.3372, -1.185465, 1.691666, 333.492573, -1.552000, 3.041000, 0.060000, 0.23619200, 0.15127900, -0.18752200, -0.00536100000, -0.00257300000, -0.02430200000
273388.10, 2032, 35.62940641, 139.78707193, 44.9014, -3963419.4262, 3350882.3332, 3694873.5890, -1.231515, 1.671129, 333.338017, -1.576000, 3.067000, 0.070000, 0.53336900, -0.18359500, 0.04556000, -0.00810500000, -0.00220000000, -0.02709700000
273388.20, 2032, 35.62940918, 139.78707018, 44.9083, -3963419.1914, 3350882.3421, 3694873.8429, -1.292040, 1.655719, 333.192606, -1.588000, 3.089000, 0.070000, -0.00327100, -0.07279900, 0.11030200, -0.00480400000, -0.00072700000, -0.02307000000
273388.30, 2032, 35.62941197, 139.78706842, 44.9155, -3963418.9555, 3350882.3507, 3694874.0988, -1.291990, 1.679708, 333.069041, -1.592000, 3.098000, 0.086000, 0.20384400, -0.17258900, -0.04508900, 0.00189500000, 0.01433000000, -0.02080000000
273388.40, 2032, 35.62941479, 139.78706665, 44.9227, -3963418.7174, 3350882.3597, 3694874.3570, -1.291935, 1.694932, 332.932773, -1.615000, 3.144000, 0.074000, 0.34803700, 0.07181300, -0.12919300, 0.00296000000, 0.00037500000, -0.02569800000
273388.50, 2032, 35.62941763, 139.78706486, 44.9301, -3963418.4772, 3350882.3690, 3694874.6171, -1.274486, 1.723589, 332.798408, -1.633000, 3.145000, 0.083000, 0.03888300, -0.32672200, -0.13940500, 0.00070500000, 0.01275100000, -0.02133600000
273388.60, 2032, 35.62942048, 139.78706304, 44.9370, -3963418.2342, 3350882.3793, 3694874.8787, -1.268813, 1.724635, 332.674883, -1.661000, 3.178000, 0.077000, 0.15227200, -0.29348800, -0.24739500, 0.00040300000, 0.00128800000, -0.02156900000
273388.70, 2032, 35.62942335, 139.78706120, 44.9442, -3963417.9891, 3350882.3909, 3694875.1417, -1.273476, 1.731817, 332.557005, -1.679000, 3.189000, 0.072000, 0.22668900, -0.10766200, 0.22814700, 0.00140900000, 0.00603600000, -0.01884300000
273388.80, 2032, 35.62942623, 139.78705934, 44.9519, -3963417.7431, 3350882.4033, 3694875.4060, -1.267779, 1.785883, 332.432004, -1.691000, 3.208000, 0.078000, 0.40411800, -0.11409300, -0.07706700, 0.00122800000, 0.00961700000, -0.02428700000
273388.90, 2032, 35.62942914, 139.78705748, 44.9592, -3963417.4954, 3350882.4145, 3694875.6721, -1.223060, 1.813715, 332.298970, -1.680000, 3.240000, 0.065000, -0.37026100, 0.08010100, -0.18838000, 0.01753000000, -0.00091200000, -0.02045300000
273389.00, 2032, 35.62943206, 139.78705562, 44.9655, -3963417.2469, 3350882.4245, 3694875.9390, -1.126322, 1.790647, 332.183479, -1.683000, 3.237000, 0.063000, -0.30581500, -0.00529900, 0.17532600, 0.01625800000, -0.00631600000, -0.02058700000
273389.10, 2032, 35.62943496, 139.78705376, 44.9719, -3963416.9986, 3350882.4354, 3694876.2047, -1.051273, 1.756918, 332.069256, -1.691000, 3.212000, 0.062000, -0.02988400, 0.00691200, 0.04953600, 0.01218700000, -0.00685100000, -0.01956400000
273389.20, 2032, 35.62943784, 139.78705189, 44.9783, -3963416.7507, 3350882.4483, 3694876.4681, -1.018014, 1.709690, 331.955148, -1.706000, 3.183000, 0.067000, 0.00813800, -0.02785000, -0.05563400, 0.00320500000, -0.00694600000, -0.02128300000
273389.30, 2032, 35.62944069, 139.78705000, 44.9857, -3963416.5041, 3350882.4636, 3694876.7297, -1.020185, 1.688731, 331.832069, -1.713000, 3.156000, 0.078000, -0.05970600, 0.10519100, 0.17756100, -0.00170300000, -0.00260700000, -0.02118900000
273389.40, 2032, 35.62944353, 139.78704811, 44.9932, -3963416.2580, 3350882.4801, 3694876.9900, -1.051324, 1.663493, 331.707581, -1.714000, 3.139000, 0.081000, -0.34389500, -0.02972200, -0.22975200, -0.00507200000, -0.00135500000, -0.02188800000
273389.50, 2032, 35.62944637, 139.78704622, 45.0003, -3963416.0122, 3350882.4959, 3694877.2498, -1.059104, 1.615724, 331.582186, -1.705000, 3.147000, 0.069000, -0.17928800, 0.09570600, 0.00454800, 0.00224100000, -0.01182800000, -0.02239700000
273389.60, 2032, 35.62944920, 139.78704435, 45.0068, -3963415.7670, 3350882.5103, 3694877.5092, -0.993877, 1.554669, 331.450387, -1.682000, 3.142000, 0.068000, 0.03157700, 0.07468500, 0.38796200, 0.01617000000, -0.00520900000, -0.02360600000
273389.70, 2032, 35.62945202, 139.78704249, 45.0134, -3963415.5229, 3350882.5249, 3694877.7675, -0.926171, 1.539858, 331.324614, -1.694000, 3.121000, 0.064000, -0.03662700, -0.40403700, -0.11715600, 0.00997700000, -0.00203700000, -0.01999900000
273389.80, 2032, 35.62945483, 139.78704061, 45.0191, -3963415.2782, 3350882.5404, 3694878.0242, -0.868996, 1.515453, 331.216379, -1.710000, 3.115000, 0.054000, 0.10827900, -0.16091400, -0.00898300, 0.00687700000, -0.00646300000, -0.01878000000
273389.90, 2032, 35.62945763, 139.78703871, 45.0254, -3963415.0329, 3350882.5585, 3694878.2800, -0.879440, 1.491583, 331.107400, -1.736000, 3.113000, 0.051000, -0.00541300, -0.30984400, -0.27289200, -0.00196800000, -0.01425700000, -0.01812000000
273390.00, 2032, 35.62946042, 139.78703680, 45.0321, -3963414.7870, 3350882.5782, 3694878.5358, -0.923759, 1.461765, 330.998704, -1.746000, 3.088000, 0.078000, -0.26091200, -0.08958200, -0.05970400, -0.01194300000, -0.00066600000, -0.02101100000
273390.10, 2032, 35.62946321, 139.78703488, 45.0386, -3963414.5410, 3350882.5979, 3694878.7913, -0.942943, 1.437651, 330.869861, -1.737000, 3.096000, 0.062000, 0.52364200, -0.06690300, -0.06734700, -0.00019800000, -0.00438100000, -0.02361500000
273390.20, 2032, 35.62946600, 139.78703297, 45.0442, -3963414.2956, 3350882.6163, 3694879.0457, -0.910761, 1.416880, 330.744642, -1.729000, 3.088000, 0.043000, -0.04221500, -0.12427700, 0.11212000, 0.00316600000, -0.00729300000, -0.02081700000
273390.30, 2032, 35.62946876, 139.78703108, 45.0505, -3963414.0526, 3350882.6354, 3694879.2982, -0.875753, 1.470271, 330.633838, -1.714000, 3.049000, 0.067000, 0.08405200, -0.23857700, -0.22263100, 0.00733500000, 0.01228200000, -0.01736500000
273390.40, 2032, 35.62947151, 139.78702918, 45.0569, -3963413.8096, 3350882.6556, 3694879.5498, -0.851057, 1.515757, 330.535455, -1.737000, 3.055000, 0.060000, -0.21959900, -0.08381900, 0.03883500, 0.00062100000, 0.00332600000, -0.01681100000
273390.50, 2032, 35.62947426, 139.78702725, 45.0636, -3963413.5649, 3350882.6777, 3694879.8022, -0.869193, 1.532197, 330.432031, -1.768000, 3.067000, 0.065000, 0.43502700, -0.32815500, 0.12341200, -0.00764400000, -0.00164700000, -0.01932600000
273390.60, 2032, 35.62947702, 139.78702530, 45.0709, -3963413.3192, 3350882.7014, 3694880.0553, -0.922047, 1.552559, 330.310977, -1.771000, 3.068000, 0.069000, 0.35054500, -0.08014400, -0.14839900, -0.00389000000, 0.00101300000, -0.02088000000
273390.70, 2032, 35.62947978, 139.78702335, 45.0780, -3963413.0737, 3350882.7245, 3694880.3083, -0.915149, 1.592334, 330.191344, -1.752000, 3.057000, 0.078000, -0.02619200, -0.05378100, -0.03805800, 0.00501700000, 0.01495500000, -0.01870000000
273390.80, 2032, 35.62948254, 139.78702142, 45.0846, -3963412.8283, 3350882.7463, 3694880.5613, -0.863727, 1.648885, 330.098051, -1.747000, 3.075000, 0.058000, 0.48445100, 0.24238100, -0.08510800, 0.01384300000, 0.00709300000, -0.01380900000
273390.90, 2032, 35.62948531, 139.78701947, 45.0910, -3963412.5819, 3350882.7686, 3694880.8149, -0.829577, 1.705760, 329.992929, -1.772000, 3.090000, 0.050000, -0.25096800, -0.20199500, -0.01200300, 0.01058900000, 0.00233100000, -0.02102300000
273391.00, 2032, 35.62948810, 139.78701750, 45.0974, -3963412.3331, 3350882.7917, 3694881.0700, -0.777797, 1.723266, 329.875950, -1.795000, 3.092000, 0.084000, 0.15501100, -0.22204600, -0.29777900, 0.00514700000, 0.00759100000, -0.02014100000
273391.10, 2032, 35.62949091, 139.78701551, 45.1041, -3963412.0819, 3350882.8161, 3694881.3273, -0.723228, 1.691935, 329.771096, -1.821000, 3.136000, 0.062000, 0.27601300, -0.44504400, -0.05551200, 0.00961100000, -0.01182700000, -0.01721700000
273391.20, 2032, 35.62949373, 139.78701348, 45.1115, -3963411.8288, 3350882.8424, 3694881.5860, -0.735779, 1.690054, 329.663845, -1.845000, 3.126000, 0.084000, 0.17933200, -0.13011600, -0.19080300, -0.00444600000, 0.00972100000, -0.01978100000
273391.30, 2032, 35.62949657, 139.78701144, 45.1191, -3963411.5738, 3350882.8693, 3694881.8466, -0.715626, 1.717501, 329.555992, -1.861000, 3.179000, 0.060000, 0.35708000, -0.11066800, 0.05084700, 0.01191200000, -0.00270900000, -0.01745000000
273391.40, 2032, 35.62949945, 139.78700936, 45.1267, -3963411.3151, 3350882.8968, 3694882.1104, -0.706446, 1.705792, 329.445816, -1.900000, 3.222000, 0.068000, 0.42537900, 0.13691500, 0.18076300, 0.00324100000, -0.01345900000, -0.02131400000
273391.50, 2032, 35.62950237, 139.78700726, 45.1322, -3963411.0514, 3350882.9231, 3694882.3770, -0.632651, 1.613687, 329.325441, -1.913000, 3.252000, 0.055000, 0.10474300, -0.04527000, 0.19010300, 0.00965700000, -0.00925200000, -0.02259400000
273391.60, 2032, 35.62950530, 139.78700515, 45.1395, -3963410.7877, 3350882.9507, 3694882.6458, -0.565469, 1.626617, 329.215364, -1.913000, 3.259000, 0.081000, 0.14035700, -0.50616500, 0.09222700, 0.01814000000, 0.00907000000, -0.01468200000
273391.70, 2032, 35.62950825, 139.78700301, 45.1475, -3963410.5215, 3350882.9800, 3694882.9167, -0.510667, 1.645980, 329.122251, -1.979000, 3.299000, 0.064000, 0.49086500, 0.05753700, -0.27553000, -0.00055300000, -0.01222900000, -0.02003900000
273391.80, 2032, 35.62951124, 139.78700079, 45.1536, -3963410.2487, 3350883.0118, 3694883.1892, -0.551018, 1.572201, 328.975922, -2.022000, 3.331000, 0.046000, 0.93240600, -0.13537300, 0.41655900, -0.00286400000, -0.01646400000, -0.02636800000
273391.90, 2032, 35.62951423, 139.78699856, 45.1604, -3963409.9742, 3350883.0451, 3694883.4634, -0.576512, 1.555704, 328.841589, -2.052000, 3.357000, 0.039000, 0.37543600, -0.05833900, 0.23975000, -0.00500700000, -0.02039900000, -0.02100400000
273392.00, 2032, 35.62951725, 139.78699628, 45.1689, -3963409.6976, 3350883.0813, 3694883.7400, -0.674340, 1.552972, 328.723134, -2.089000, 3.368000, 0.069000, 0.34312000, -0.18819700, 0.36828200, -0.01843200000, -0.01462200000, -0.02153300000
273392.10, 2032, 35.62952028, 139.78699398, 45.1762, -3963409.4174, 3350883.1178, 3694884.0182, -0.741055, 1.556270, 328.593581, -2.092000, 3.375000, 0.068000, 0.12995700, 0.23607200, 0.07889600, -0.00779500000, 0.00961300000, -0.02640300000
273392.20, 2032, 35.62952336, 139.78699166, 45.1824, -3963409.1340, 3350883.1534, 3694884.2989, -0.757573, 1.556328, 328.446825, -2.103000, 3.417000, 0.084000, 0.30796800, -0.14198900, -0.55583600, 0.00175500000, 0.00717400000, -0.02413700000
273392.30, 2032, 35.62952647, 139.78698931, 45.1891, -3963408.8474, 3350883.1890, 3694884.5837, -0.732770, 1.483718, 328.302753, -2.131000, 3.475000, 0.079000, 0.73023200, -0.47670300, 0.12165900, 0.00925500000, -0.01204700000, -0.02347500000
273392.40, 2032, 35.62952960, 139.78698696, 45.1963, -3963408.5597, 3350883.2246, 3694884.8704, -0.651575, 1.469358, 328.218526, -2.143000, 3.493000, 0.042000, 0.71252000, -0.20292600, 0.29986200, 0.01700700000, -0.00655500000, -0.01017700000
273392.50, 2032, 35.62953274, 139.78698458, 45.2037, -3963408.2703, 3350883.2625, 3694885.1573, -0.641319, 1.535081, 328.147689, -2.175000, 3.464000, 0.094000, -0.91956600, -0.07482600, 0.07248200, -0.01185900000, 0.02545500000, -0.01555600000
273392.60, 2032, 35.62953589, 139.78698215, 45.2111, -3963407.9768, 3350883.3031, 3694885.4463, -0.704943, 1.579680, 328.033363, -2.213000, 3.497000, 0.103000, 1.02250900, -0.25455600, -0.39698600, -0.01018000000, 0.02062500000, -0.02072700000
273392.70, 2032, 35.62953907, 139.78697968, 45.2187, -3963407.6802, 3350883.3450, 3694885.7376, -0.747675, 1.580925, 327.923960, -2.263000, 3.562000, 0.054000, 0.27916100, -0.31086700, -0.11165100, -0.00898400000, -0.01767600000, -0.01756900000
273392.80, 2032, 35.62954228, 139.78697719, 45.2273, -3963407.3816, 3350883.3881, 3694886.0316, -0.804780, 1.596929, 327.827212, -2.257000, 3.540000, 0.122000, 0.19110900, -0.00413100, 0.08279400, -0.01475800000, 0.02403100000, -0.01768800000
273392.90, 2032, 35.62954551, 139.78697469, 45.2345, -3963407.0802, 3350883.4299, 3694886.3275, -0.802849, 1.603844, 327.724284, -2.275000, 3.631000, 0.031000, 0.63185600, 0.30871500, 0.09090900, 0.01128500000, -0.01594900000, -0.01895800000
273393.00, 2032, 35.62954877, 139.78697217, 45.2427, -3963406.7778, 3350883.4722, 3694886.6256, -0.787253, 1.660409, 327.611469, -2.273000, 3.590000, 0.119000, -0.22354000, -0.19610000, -0.08133900, 0.00107000000, 0.02852200000, -0.01957800000
273393.10, 2032, 35.62955204, 139.78696963, 45.2502, -3963406.4723, 3350883.5151, 3694886.9253, -0.757850, 1.641816, 327.499152, -2.329000, 3.661000, 0.053000, 0.41619100, -0.16916600, -0.29911500, 0.00143000000, -0.02361600000, -0.02053200000
273393.20, 2032, 35.62955532, 139.78696707, 45.2584, -3963406.1653, 3350883.5603, 3694887.2259, -0.761604, 1.612302, 327.392788, -2.326000, 3.625000, 0.101000, -0.07226400, -0.14956700, 0.13552800, 0.00134900000, 0.00920000000, -0.01547700000
273393.30, 2032, 35.62955860, 139.78696447, 45.2669, -3963405.8569, 3350883.6075, 3694887.5265, -0.811721, 1.589807, 327.303782, -2.371000, 3.651000, 0.069000, 0.12139600, 0.05951800, 0.13463500, -0.01089200000, -0.01412200000, -0.01742100000
273393.40, 2032, 35.62956189, 139.78696186, 45.2753, -3963405.5470, 3350883.6556, 3694887.8278, -0.876622, 1.567740, 327.182750, -2.362000, 3.641000, 0.097000, 0.47064100, 0.05011700, 0.03378800, -0.00771300000, 0.00788500000, -0.02332500000
273393.50, 2032, 35.62956519, 139.78695925, 45.2818, -3963405.2353, 3350883.7017, 3694888.1296, -0.849432, 1.522497, 327.059349, -2.366000, 3.690000, 0.042000, -0.18694600, -0.30213500, -0.02512100, 0.01401600000, -0.02027600000, -0.01784200000
273393.60, 2032, 35.62956850, 139.78695663, 45.2889, -3963404.9236, 3350883.7482, 3694888.4320, -0.823988, 1.482980, 326.982625, -2.375000, 3.656000, 0.089000, 0.48027000, -0.20327800, 0.03569000, -0.00201800000, 0.00220800000, -0.01175100000
273393.70, 2032, 35.62957180, 139.78695400, 45.2971, -3963404.6116, 3350883.7970, 3694888.7345, -0.831844, 1.455734, 326.913519, -2.401000, 3.659000, 0.089000, -0.06545800, 0.08446000, -0.02416300, -0.00763000000, -0.00448500000, -0.01385800000
273393.80, 2032, 35.62957510, 139.78695133, 45.3056, -3963404.2982, 3350883.8483, 3694889.0368, -0.913503, 1.418257, 326.810545, -2.428000, 3.673000, 0.067000, 0.35990200, -0.05052600, 0.14639800, -0.01226200000, -0.01450500000, -0.02040400000
273393.90, 2032, 35.62957840, 139.78694866, 45.3138, -3963403.9843, 3350883.8997, 3694889.3391, -0.967128, 1.401134, 326.712357, -2.414000, 3.648000, 0.097000, 0.10175700, 0.04423200, 0.26115900, -0.01221100000, 0.00911200000, -0.01280700000
273394.00, 2032, 35.62958169, 139.78694599, 45.3221, -3963403.6709, 3350883.9511, 3694889.6408, -1.052196, 1.436345, 326.667383, -2.415000, 3.658000, 0.067000, -0.20332500, -0.09458900, 0.27134900, -0.01009400000, 0.00386900000, -0.00394700000
273394.10, 2032, 35.62958498, 139.78694334, 45.3298, -3963403.3579, 3350884.0012, 3694889.9425, -1.082098, 1.508836, 326.643878, -2.402000, 3.665000, 0.073000, 0.27184500, -0.00937100, -0.31730500, -0.00582400000, 0.00904500000, -0.00472700000
273394.20, 2032, 35.62958829, 139.78694069, 45.3375, -3963403.0441, 3350884.0506, 3694890.2456, -1.110531, 1.531094, 326.624914, -2.403000, 3.681000, 0.086000, -0.02204000, -0.07248100, 0.00658100, -0.00132800000, 0.00289000000, -0.00238300000
273394.30, 2032, 35.62959162, 139.78693803, 45.3454, -3963402.7296, 3350884.0995, 3694890.5501, -1.102842, 1.523245, 326.617284, -2.408000, 3.706000, 0.064000, 0.16303400, -0.13081400, -0.04658200, 0.00563500000, -0.00925900000, 0.00060900000
273394.40, 2032, 35.62959495, 139.78693538, 45.3532, -3963402.4148, 3350884.1483, 3694890.8551, -1.085920, 1.525506, 326.627985, -2.404000, 3.689000, 0.089000, 0.23616200, 0.21625400, -0.12707400, -0.00047500000, 0.00739600000, 0.00254600000
273394.50, 2032, 35.62959828, 139.78693272, 45.3608, -3963402.0995, 3350884.1971, 3694891.1600, -1.086326, 1.541132, 326.633441, -2.408000, 3.697000, 0.080000, -0.04468300, 0.03847800, 0.01960800, 0.00007300000, 0.00488900000, 0.00124700000
273394.60, 2032, 35.62960162, 139.78693006, 45.3682, -3963401.7836, 3350884.2458, 3694891.4655, -1.070066, 1.530904, 326.646931, -2.416000, 3.715000, 0.070000, -0.11326100, 0.07847200, -0.05231400, 0.00397900000, -0.00787900000, 0.00191800000
273394.70, 2032, 35.62960497, 139.78692738, 45.3767, -3963401.4673, 3350884.2959, 3694891.7719, -1.104391, 1.492268, 326.645221, -2.433000, 3.710000, 0.089000, -0.08387300, -0.05757600, -0.07897900, -0.00922000000, -0.00916200000, -0.00126300000
273394.80, 2032, 35.62960831, 139.78692471, 45.3852, -3963401.1513, 3350884.3455, 3694892.0785, -1.106097, 1.464630, 326.649087, -2.402000, 3.703000, 0.092000, -0.09439900, 0.17403700, 0.21518200, 0.00434200000, 0.00528200000, 0.00287100000
273394.90, 2032, 35.62961165, 139.78692206, 45.3932, -3963400.8362, 3350884.3936, 3694892.3846, -1.082640, 1.470711, 326.669000, -2.398000, 3.715000, 0.066000, 0.12336200, 0.06132200, 0.22120400, 0.00632200000, -0.00226800000, 0.00430500000
273395.00, 2032, 35.62961499, 139.78691941, 45.4006, -3963400.5214, 3350884.4411, 3694892.6900, -1.060545, 1.491681, 326.688969, -2.398000, 3.704000, 0.072000, 0.23219400, 0.07398300, -0.06635300, 0.00188900000, 0.00249800000, 0.00258500000
273395.10, 2032, 35.62961833, 139.78691677, 45.4080, -3963400.2066, 3350884.4888, 3694892.9952, -1.039430, 1.491982, 326.698268, -2.389000, 3.699000, 0.080000, -0.68156800, 0.10939600, -0.02131100, 0.00672000000, 0.00147600000, 0.00119300000
273395.20, 2032, 35.62962166, 139.78691412, 45.4161, -3963399.8923, 3350884.5376, 3694893.3001, -1.064652, 1.479663, 326.702484, -2.406000, 3.690000, 0.080000, 0.29925000, -0.10194900, -0.08201800, -0.00682500000, -0.00534300000, 0.00094500000
273395.30, 2032, 35.62962497, 139.78691148, 45.4244, -3963399.5792, 3350884.5862, 3694893.6041, -1.074007, 1.483795, 326.714409, -2.376000, 3.665000, 0.095000, -0.41242100, 0.11016500, 0.13116300, 0.00248700000, 0.01209900000, 0.00236800000
273395.40, 2032, 35.62962828, 139.78690885, 45.4325, -3963399.2673, 3350884.6339, 3694893.9073, -1.066495, 1.498003, 326.721493, -2.380000, 3.683000, 0.060000, -0.00871700, 0.04762900, -0.12528900, 0.00188400000, -0.00981000000, -0.00012800000
273395.50, 2032, 35.62963159, 139.78690624, 45.4399, -3963398.9559, 3350884.6807, 3694894.2097, -1.045819, 1.486339, 326.726334, -2.352000, 3.640000, 0.099000, -0.60587600, 0.07102300, -0.05848600, 0.00089800000, 0.01115200000, 0.00181400000
273395.60, 2032, 35.62963487, 139.78690363, 45.4475, -3963398.6463, 3350884.7275, 3694894.5104, -1.031908, 1.459869, 326.746237, -2.356000, 3.631000, 0.084000, 0.42202100, 0.14384100, -0.16884800, -0.00165300000, -0.00383700000, 0.00302900000
273395.70, 2032, 35.62963814, 139.78690104, 45.4553, -3963398.3384, 3350884.7751, 3694894.8090, -1.060118, 1.430462, 326.757248, -2.352000, 3.621000, 0.057000, -0.15714100, 0.09007600, 0.06204700, -0.00335500000, -0.01633600000, 0.00121700000
273395.80, 2032, 35.62964137, 139.78689846, 45.4631, -3963398.0326, 3350884.8223, 3694895.1057, -1.075603, 1.419012, 326.766051, -2.324000, 3.584000, 0.075000, -0.08530700, 0.04721600, 0.00363800, -0.00122300000, -0.00171000000, 0.00222900000
273395.90, 2032, 35.62964459, 139.78689590, 45.4707, -3963397.7288, 3350884.8690, 3694895.4005, -1.102685, 1.408349, 326.779723, -2.308000, 3.561000, 0.078000, -0.17474700, 0.09129200, -0.05237200, -0.00209000000, -0.00164900000, 0.00228900000
273396.00, 2032, 35.62964780, 139.78689336, 45.4777, -3963397.4264, 3350884.9144, 3694895.6935, -1.097389, 1.377881, 326.788551, -2.287000, 3.556000, 0.058000, -0.10050100, -0.11584300, 0.03942700, 0.00858900000, -0.01023200000, 0.00029700000
273396.10, 2032, 35.62965099, 139.78689084, 45.4842, -3963397.1258, 3350884.9592, 3694895.9848, -1.080779, 1.331624, 326.791840, -2.284000, 3.524000, 0.067000, -0.31155000, -0.09736100, 0.09661900, -0.00562600000, -0.00905200000, 0.00063700000
273396.20, 2032, 35.62965415, 139.78688834, 45.4918, -3963396.8282, 3350885.0043, 3694896.2742, -1.088702, 1.321560, 326.800607, -2.250000, 3.497000, 0.071000, -0.36739000, 0.00867400, -0.02427300, 0.00597700000, -0.00090900000, 0.00313900000
273396.30, 2032, 35.62965728, 139.78688587, 45.4994, -3963396.5332, 3350885.0488, 3694896.5616, -1.069674, 1.340666, 326.820138, -2.240000, 3.459000, 0.084000, -0.31614100, 0.11406600, -0.09898200, -0.00526900000, 0.00701100000, 0.00271000000
273396.40, 2032, 35.62966040, 139.78688340, 45.5062, -3963396.2393, 3350885.0927, 3694896.8469, -1.072396, 1.336490, 326.830752, -2.218000, 3.460000, 0.058000, 0.14420700, 0.05837700, 0.16407100, 0.00898500000, -0.00254400000, 0.00260800000
273396.50, 2032, 35.62966350, 139.78688094, 45.5117, -3963395.9457, 3350885.1367, 3694897.1294, -1.121464, 1.288945, 326.841144, -2.227000, 3.420000, 0.060000, -0.12672900, -0.02593300, 0.13165700, -0.00874500000, -0.00295400000, 0.00165600000
273396.60, 2032, 35.62966656, 139.78687850, 45.5195, -3963395.6570, 3350885.1815, 3694897.4102, -1.136958, 1.340666, 326.851637, -2.190000, 3.387000, 0.080000, -0.45362400, 0.02485600, -0.07135600, 0.00105500000, 0.01085200000, 0.00178700000
273396.70, 2032, 35.62966961, 139.78687609, 45.5273, -3963395.3707, 3350885.2252, 3694897.6891, -1.157773, 1.388523, 326.855681, -2.165000, 3.376000, 0.071000, -0.01732700, 0.12560500, -0.01641800, 0.00762600000, 0.00568000000, 0.00132000000
273396.80, 2032, 35.62967263, 139.78687372, 45.5357, -3963395.0879, 3350885.2673, 3694897.9669, -1.096022, 1.468241, 326.862791, -2.144000, 3.340000, 0.088000, -0.54179700, 0.02270000, -0.17127300, -0.00194200000, 0.01381000000, 0.00185400000
273396.90, 2032, 35.62967564, 139.78687135, 45.5431, -3963394.8056, 3350885.3095, 3694898.2425, -1.107799, 1.476455, 326.868573, -2.138000, 3.327000, 0.074000, -0.37741800, -0.42208400, 0.08709100, 0.00602800000, 0.00046800000, 0.00076300000
273397.00, 2032, 35.62967863, 139.78686900, 45.5498, -3963394.5248, 3350885.3513, 3694898.5156, -1.084967, 1.487345, 326.878242, -2.129000, 3.293000, 0.062000, -0.21818700, 0.08358500, 0.07595900, 0.00031500000, 0.00493200000, -0.00022400000
273397.10, 2032, 35.62968157, 139.78686666, 45.5566, -3963394.2468, 3350885.3934, 3694898.7855, -1.077297, 1.574167, 326.862956, -2.100000, 3.251000, 0.068000, -0.30715800, -0.06789300, -0.61067000, 0.00359400000, 0.02084800000, -0.00058500000
273397.20, 2032, 35.62968450, 139.78686434, 45.5641, -3963393.9710, 3350885.4361, 3694899.0538, -1.112783, 1.620564, 326.856292, -2.108000, 3.240000, 0.083000, -0.41681900, 0.11497200, -0.19604900, -0.00941800000, -0.00039500000, -0.00286500000
273397.30, 2032, 35.62968741, 139.78686203, 45.5723, -3963393.6975, 3350885.4782, 3694899.3214, -1.102274, 1.615286, 326.843378, -2.075000, 3.232000, 0.073000, -0.34645200, 0.06951300, 0.07999600, 0.00940200000, -0.00584700000, -0.00179300000
273397.40, 2032, 35.62969031, 139.78685976, 45.5810, -3963393.4266, 3350885.5192, 3694899.5879, -1.048472, 1.588699, 326.831046, -2.062000, 3.213000, 0.082000, -0.32827600, -0.06675600, -0.12214200, 0.00243400000, -0.01442500000, -0.00368400000
273397.50, 2032, 35.62969319, 139.78685750, 45.5890, -3963393.1574, 3350885.5598, 3694899.8519, -1.019860, 1.536877, 326.825856, -2.031000, 3.160000, 0.084000, -0.50575800, -0.45697500, 0.20974800, 0.00746000000, 0.00489100000, 0.00279400000
273397.60, 2032, 35.62969603, 139.78685525, 45.5964, -3963392.8906, 3350885.6009, 3694900.1118, -1.018742, 1.549423, 326.835442, -2.040000, 3.134000, 0.059000, -0.08881200, 0.04078200, 0.15948500, -0.00498100000, -0.00323600000, -0.00064800000
273397.70, 2032, 35.62969882, 139.78685301, 45.6040, -3963392.6260, 3350885.6432, 3694900.3688, -1.079368, 1.584058, 326.819652, -2.023000, 3.097000, 0.073000, -0.42390000, 0.09921600, -0.04506100, -0.00792500000, 0.00282700000, -0.00380400000
273397.80, 2032, 35.62970161, 139.78685078, 45.6114, -3963392.3628, 3350885.6850, 3694900.6241, -1.124653, 1.565386, 326.791486, -2.007000, 3.081000, 0.079000, -0.45067700, -0.25080300, -0.20691500, -0.00632400000, -0.00561600000, -0.00478300000
273397.90, 2032, 35.62970438, 139.78684859, 45.6192, -3963392.1028, 3350885.7253, 3694900.8782, -1.119082, 1.547830, 326.779938, -1.971000, 3.064000, 0.071000, -0.21562500, -0.00153800, -0.21255500, 0.00840500000, -0.00607300000, -0.00041900000
273398.00, 2032, 35.62970713, 139.78684643, 45.6263, -3963391.8451, 3350885.7636, 3694901.1306, -1.054156, 1.519066, 326.775197, -1.945000, 3.046000, 0.064000, -0.45527100, 0.03344500, 0.25677200, 0.01221200000, -0.00747400000, -0.00208400000
273398.10, 2032, 35.62970986, 139.78684429, 45.6326, -3963391.5890, 3350885.8009, 3694901.3806, -0.992544, 1.480653, 326.763467, -1.930000, 3.013000, 0.060000, -0.16619800, -0.14634400, 0.08948100, 0.00965700000, -0.00407700000, -0.00136900000
273398.20, 2032, 35.62971256, 139.78684216, 45.6387, -3963391.3354, 3350885.8383, 3694901.6276, -0.936594, 1.474241, 326.759186, -1.923000, 2.987000, 0.048000, -0.28596100, -0.21994000, -0.18856100, 0.00831100000, -0.00869300000, 0.00019100000
273398.30, 2032, 35.62971523, 139.78684004, 45.6454, -3963391.0838, 3350885.8772, 3694901.8721, -0.947950, 1.459671, 326.760099, -1.919000, 2.941000, 0.076000, -0.25924400, 0.05007200, 0.08391400, -0.00753400000, -0.00076200000, -0.00139000000
273398.40, 2032, 35.62971787, 139.78683793, 45.6520, -3963390.8340, 3350885.9160, 3694902.1147, -0.958489, 1.424137, 326.750137, -1.901000, 2.935000, 0.054000, -0.36624000, 0.00742100, 0.17641000, 0.00301700000, -0.01182200000, -0.00216900000
273398.50, 2032, 35.62972050, 139.78683585, 45.6589, -3963390.5872, 3350885.9542, 3694902.3552, -0.959263, 1.426769, 326.742922, -1.873000, 2.891000, 0.073000, -0.48267900, -0.13083900, -0.02534200, -0.00059300000, 0.00595400000, -0.00028000000
273398.60, 2032, 35.62972310, 139.78683380, 45.6654, -3963390.3425, 3350885.9912, 3694902.5938, -0.920104, 1.432429, 326.748613, -1.852000, 2.884000, 0.062000, -0.24253200, -0.02958100, -0.20724300, 0.01040200000, -0.00171800000, 0.00154400000
273398.70, 2032, 35.62972569, 139.78683175, 45.6714, -3963390.0989, 3350886.0277, 3694902.8306, -0.903051, 1.420101, 326.744827, -1.844000, 2.857000, 0.059000, -0.30545700, 0.07008800, 0.23099500, 0.00136800000, 0.00224000000, -0.00242900000
273398.80, 2032, 35.62972825, 139.78682972, 45.6773, -3963389.8574, 3350886.0640, 3694903.0654, -0.873596, 1.439748, 326.730089, -1.828000, 2.841000, 0.055000, -0.33045700, -0.09693600, -0.10367900, 0.00927800000, 0.00023500000, -0.00179500000
273398.90, 2032, 35.62973080, 139.78682771, 45.6835, -3963389.6175, 3350886.1005, 3694903.2988, -0.855325, 1.443294, 326.726368, -1.825000, 2.811000, 0.070000, -0.22181900, 0.07084700, 0.09368100, -0.00229400000, 0.00290400000, -0.00048200000
273399.00, 2032, 35.62973333, 139.78682569, 45.6907, -3963389.3794, 3350886.1383, 3694903.5308, -0.889050, 1.489840, 326.716159, -1.829000, 2.798000, 0.080000, 0.53962800, 0.01380900, 0.14761800, -0.00764800000, 0.01947900000, -0.00312900000
273399.10, 2032, 35.62973587, 139.78682366, 45.6987, -3963389.1401, 3350886.1765, 3694903.7650, -0.894185, 1.631702, 326.700051, -1.851000, 2.856000, 0.074000, 0.77435400, 0.01436400, -0.22836700, 0.00273200000, 0.02347800000, -0.00190800000
273399.20, 2032, 35.62973847, 139.78682160, 45.7068, -3963388.8959, 3350886.2152, 3694904.0042, -0.900088, 1.731031, 326.689532, -1.896000, 2.922000, 0.076000, 0.49445500, -0.07407400, -0.16096500, -0.00040600000, 0.00411300000, -0.00175900000
273399.30, 2032, 35.62974113, 139.78681950, 45.7137, -3963388.6462, 3350886.2534, 3694904.2478, -0.864218, 1.721248, 326.688545, -1.915000, 2.970000, 0.062000, 0.21836700, 0.29813200, 0.13973200, 0.00770700000, -0.00665800000, 0.00013700000
273399.40, 2032, 35.62974381, 139.78681736, 45.7199, -3963388.3927, 3350886.2923, 3694904.4935, -0.870613, 1.691761, 326.683635, -1.952000, 2.983000, 0.068000, 0.16527400, -0.15545800, 0.14722500, -0.00833400000, -0.00056400000, -0.00181400000
273399.50, 2032, 35.62974652, 139.78681520, 45.7268, -3963388.1371, 3350886.3327, 3694904.7413, -0.883483, 1.702747, 326.674758, -1.970000, 3.009000, 0.075000, 0.55036700, -0.01435700, -0.16187600, -0.00419600000, 0.00564600000, -0.00142100000
