% program   : RTKLIB ver.2.4.3
% inp file  : /home/kcwian/Workspace/catkin_gnss_2/src/raw_gnss_rtklib/dataset/UrbanNav/Tokyo/Odaiba/rover_trimble.obs
% inp file  : /home/kcwian/Workspace/catkin_gnss_2/src/raw_gnss_rtklib/dataset/UrbanNav/Tokyo/Odaiba/base_trim23ble.obs
% inp file  : /home/kcwian/Workspace/catkin_gnss_2/src/raw_gnss_rtklib/dataset/UrbanNav/Tokyo/Odaiba/base.nav
% inp file  : /home/kcwian/Workspace/catkin_gnss_2/src/raw_gnss_rtklib/dataset/UrbanNav/Tokyo/Odaiba/base.nav
% obs start : 2018/12/19 03:56:15.0 GPST (week2032 273375.0s)
% obs end   : 2018/12/19 04:16:56.0 GPST (week2032 274616.0s)
% pos mode  : Single
% elev mask : 15.0 deg
% ionos opt : Broadcast
% tropo opt : Saastamoinen
% ephemeris : Broadcast
% navi sys  : GPS GLONASS Galileo QZSS BDS NavIC SBAS
%
% (lat/lon/height=WGS84/ellipsoidal,Q=1:fix,2:float,3:sbas,4:dgps,5:single,6:ppp,ns=# of satellites)
%  GPST        , latitude(deg),longitude(deg), height(m),  Q, ns,  sdn(m),  sde(m),  sdu(m), sdne(m), sdeu(m), sdun(m),age(s), ratio
2032,273375.000,  35.629324177, 139.787139230,   41.7341,  5, 23,  2.4000,  2.3836,  5.6636,  1.5869, -2.2365, -2.0260,  0.00,   0.0
2032,273375.100,  35.629324170, 139.787139204,   41.7301,  5, 23,  2.4000,  2.3836,  5.6635,  1.5869, -2.2364, -2.0260,  0.00,   0.0
2032,273375.200,  35.629325214, 139.787138608,   41.9168,  5, 23,  2.4000,  2.3836,  5.6635,  1.5869, -2.2364, -2.0260,  0.00,   0.0
2032,273375.300,  35.629325194, 139.787138534,   41.9130,  5, 23,  2.4000,  2.3836,  5.6635,  1.5869, -2.2364, -2.0260,  0.00,   0.0
2032,273375.400,  35.629326851, 139.787141842,   41.4298,  5, 23,  2.4000,  2.3836,  5.6635,  1.5869, -2.2364, -2.0260,  0.00,   0.0
2032,273375.500,  35.629326867, 139.787141837,   41.4229,  5, 23,  2.4000,  2.3835,  5.6634,  1.5869, -2.2363, -2.0260,  0.00,   0.0
2032,273375.600,  35.629326693, 139.787142345,   41.3028,  5, 23,  2.4000,  2.3835,  5.6634,  1.5869, -2.2363, -2.0260,  0.00,   0.0
2032,273375.700,  35.629326700, 139.787142329,   41.3016,  5, 23,  2.4000,  2.3835,  5.6634,  1.5869, -2.2363, -2.0260,  0.00,   0.0
2032,273375.800,  35.629327248, 139.787140980,   41.2236,  5, 23,  2.4000,  2.3835,  5.6634,  1.5869, -2.2363, -2.0260,  0.00,   0.0
2032,273375.900,  35.629327148, 139.787140911,   41.2217,  5, 23,  2.4001,  2.3835,  5.6634,  1.5869, -2.2363, -2.0260,  0.00,   0.0
2032,273376.000,  35.629326609, 139.787141209,   41.6343,  5, 23,  2.4001,  2.3835,  5.6633,  1.5868, -2.2362, -2.0260,  0.00,   0.0
2032,273376.100,  35.629326618, 139.787141073,   41.6132,  5, 23,  2.4001,  2.3835,  5.6633,  1.5868, -2.2362, -2.0260,  0.00,   0.0
2032,273376.200,  35.629327175, 139.787143527,   41.3428,  5, 23,  2.4001,  2.3835,  5.6633,  1.5868, -2.2362, -2.0259,  0.00,   0.0
2032,273376.300,  35.629327178, 139.787143510,   41.3418,  5, 23,  2.4001,  2.3835,  5.6633,  1.5868, -2.2362, -2.0259,  0.00,   0.0
2032,273376.400,  35.629326102, 139.787141519,   41.4619,  5, 23,  2.4001,  2.3835,  5.6632,  1.5868, -2.2361, -2.0259,  0.00,   0.0
2032,273376.500,  35.629326124, 139.787141472,   41.4536,  5, 23,  2.4001,  2.3835,  5.6632,  1.5868, -2.2361, -2.0259,  0.00,   0.0
2032,273376.600,  35.629326095, 139.787141105,   41.6273,  5, 23,  2.4001,  2.3835,  5.6632,  1.5868, -2.2361, -2.0259,  0.00,   0.0
2032,273376.700,  35.629326074, 139.787141131,   41.6313,  5, 23,  2.4001,  2.3835,  5.6632,  1.5868, -2.2361, -2.0259,  0.00,   0.0
2032,273376.800,  35.629325076, 139.787138915,   41.5903,  5, 23,  2.4001,  2.3835,  5.6631,  1.5868, -2.2360, -2.0259,  0.00,   0.0
2032,273376.900,  35.629325253, 139.787139104,   41.5887,  5, 23,  2.4001,  2.3835,  5.6631,  1.5868, -2.2360, -2.0259,  0.00,   0.0
2032,273377.000,  35.629325063, 139.787138242,   41.6061,  5, 23,  2.4001,  2.3835,  5.6631,  1.5868, -2.2360, -2.0259,  0.00,   0.0
2032,273377.100,  35.629325028, 139.787138219,   41.6085,  5, 23,  2.4001,  2.3835,  5.6631,  1.5868, -2.2360, -2.0259,  0.00,   0.0
2032,273377.200,  35.629325427, 139.787137097,   41.6472,  5, 23,  2.4001,  2.3835,  5.6630,  1.5868, -2.2360, -2.0259,  0.00,   0.0
2032,273377.300,  35.629325441, 139.787137144,   41.6476,  5, 23,  2.4001,  2.3835,  5.6630,  1.5868, -2.2359, -2.0259,  0.00,   0.0
2032,273377.400,  35.629326061, 139.787137645,   41.2218,  5, 22,  2.5831,  2.4975,  5.6630,  1.7973, -2.2378, -2.0286,  0.00,   0.0
2032,273377.500,  35.629326051, 139.787137652,   41.2200,  5, 22,  2.5831,  2.4975,  5.6630,  1.7973, -2.2378, -2.0286,  0.00,   0.0
2032,273377.600,  35.629327187, 139.787140071,   40.9697,  5, 22,  2.5831,  2.4975,  5.6630,  1.7973, -2.2377, -2.0286,  0.00,   0.0
2032,273377.700,  35.629327198, 139.787140086,   40.9698,  5, 22,  2.5831,  2.4975,  5.6629,  1.7973, -2.2377, -2.0286,  0.00,   0.0
2032,273377.800,  35.629324570, 139.787139676,   41.2527,  5, 22,  2.5831,  2.4975,  5.6629,  1.7973, -2.2377, -2.0286,  0.00,   0.0
2032,273377.900,  35.629324606, 139.787139682,   41.2492,  5, 22,  2.5831,  2.4975,  5.6629,  1.7973, -2.2377, -2.0286,  0.00,   0.0
2032,273378.000,  35.629322578, 139.787138205,   41.4448,  5, 22,  2.5831,  2.4975,  5.6629,  1.7973, -2.2376, -2.0286,  0.00,   0.0
2032,273378.100,  35.629322565, 139.787138205,   41.4426,  5, 22,  2.5832,  2.4975,  5.6628,  1.7973, -2.2376, -2.0286,  0.00,   0.0
2032,273378.200,  35.629323630, 139.787137641,   41.5814,  5, 22,  2.5832,  2.4975,  5.6628,  1.7973, -2.2376, -2.0286,  0.00,   0.0
2032,273378.300,  35.629323645, 139.787137663,   41.5775,  5, 22,  2.5832,  2.4975,  5.6628,  1.7973, -2.2376, -2.0286,  0.00,   0.0
2032,273378.400,  35.629323173, 139.787136884,   41.4301,  5, 22,  2.5832,  2.4975,  5.6628,  1.7973, -2.2376, -2.0286,  0.00,   0.0
2032,273378.500,  35.629323142, 139.787136834,   41.4356,  5, 22,  2.5832,  2.4975,  5.6627,  1.7973, -2.2375, -2.0286,  0.00,   0.0
2032,273378.600,  35.629323580, 139.787135797,   41.7587,  5, 22,  2.5832,  2.4975,  5.6627,  1.7973, -2.2375, -2.0286,  0.00,   0.0
2032,273378.700,  35.629323600, 139.787135816,   41.7589,  5, 22,  2.5832,  2.4975,  5.6627,  1.7973, -2.2375, -2.0286,  0.00,   0.0
2032,273378.800,  35.629323166, 139.787135304,   41.9500,  5, 23,  2.4002,  2.3835,  5.6627,  1.5868, -2.2356, -2.0259,  0.00,   0.0
2032,273378.900,  35.629323146, 139.787135276,   41.9467,  5, 23,  2.4002,  2.3835,  5.6626,  1.5868, -2.2356, -2.0259,  0.00,   0.0
2032,273379.000,  35.629320443, 139.787135418,   41.8570,  5, 23,  2.4002,  2.3835,  5.6626,  1.5867, -2.2355, -2.0259,  0.00,   0.0
2032,273379.100,  35.629320492, 139.787135474,   41.8514,  5, 23,  2.4002,  2.3835,  5.6626,  1.5867, -2.2355, -2.0259,  0.00,   0.0
2032,273379.200,  35.629320491, 139.787136491,   41.9542,  5, 23,  2.4002,  2.3835,  5.6626,  1.5867, -2.2355, -2.0259,  0.00,   0.0
2032,273379.300,  35.629320468, 139.787136460,   41.9459,  5, 23,  2.4002,  2.3835,  5.6625,  1.5867, -2.2355, -2.0259,  0.00,   0.0
2032,273379.400,  35.629320128, 139.787134999,   41.9680,  5, 23,  2.4002,  2.3835,  5.6625,  1.5867, -2.2354, -2.0259,  0.00,   0.0
2032,273379.500,  35.629320112, 139.787134953,   41.9734,  5, 23,  2.4002,  2.3835,  5.6625,  1.5867, -2.2354, -2.0259,  0.00,   0.0
2032,273379.600,  35.629321877, 139.787135951,   41.4758,  5, 23,  2.4002,  2.3835,  5.6625,  1.5867, -2.2354, -2.0259,  0.00,   0.0
2032,273379.700,  35.629321886, 139.787135952,   41.4722,  5, 23,  2.4002,  2.3835,  5.6624,  1.5867, -2.2354, -2.0259,  0.00,   0.0
2032,273379.800,  35.629320532, 139.787133746,   42.0577,  5, 23,  2.4002,  2.3835,  5.6624,  1.5867, -2.2353, -2.0259,  0.00,   0.0
2032,273379.900,  35.629320570, 139.787133807,   42.0611,  5, 23,  2.4002,  2.3835,  5.6624,  1.5867, -2.2353, -2.0259,  0.00,   0.0
2032,273380.000,  35.629319802, 139.787133696,   42.0866,  5, 23,  2.4002,  2.3835,  5.6624,  1.5867, -2.2353, -2.0259,  0.00,   0.0
2032,273380.100,  35.629319817, 139.787133681,   42.0916,  5, 23,  2.4002,  2.3835,  5.6623,  1.5867, -2.2353, -2.0259,  0.00,   0.0
2032,273380.200,  35.629319090, 139.787133271,   42.1601,  5, 23,  2.4003,  2.3835,  5.6623,  1.5867, -2.2353, -2.0259,  0.00,   0.0
2032,273380.300,  35.629319118, 139.787133247,   42.1607,  5, 23,  2.4003,  2.3835,  5.6623,  1.5867, -2.2352, -2.0259,  0.00,   0.0
2032,273380.400,  35.629319996, 139.787133617,   41.7006,  5, 23,  2.4003,  2.3834,  5.6623,  1.5867, -2.2352, -2.0259,  0.00,   0.0
2032,273380.500,  35.629320040, 139.787133642,   41.7000,  5, 23,  2.4003,  2.3834,  5.6622,  1.5867, -2.2352, -2.0259,  0.00,   0.0
2032,273380.600,  35.629320783, 139.787133210,   41.6695,  5, 23,  2.4003,  2.3834,  5.6622,  1.5867, -2.2352, -2.0259,  0.00,   0.0
2032,273380.700,  35.629320794, 139.787133258,   41.6608,  5, 23,  2.4003,  2.3834,  5.6622,  1.5867, -2.2351, -2.0259,  0.00,   0.0
2032,273380.800,  35.629320750, 139.787131950,   41.5154,  5, 23,  2.4003,  2.3834,  5.6622,  1.5867, -2.2351, -2.0259,  0.00,   0.0
2032,273380.900,  35.629320776, 139.787131997,   41.5216,  5, 23,  2.4003,  2.3834,  5.6621,  1.5867, -2.2351, -2.0259,  0.00,   0.0
2032,273381.000,  35.629320922, 139.787134200,   41.3608,  5, 23,  2.4003,  2.3834,  5.6621,  1.5867, -2.2351, -2.0259,  0.00,   0.0
2032,273381.100,  35.629320924, 139.787134188,   41.3581,  5, 23,  2.4003,  2.3834,  5.6621,  1.5867, -2.2350, -2.0259,  0.00,   0.0
2032,273381.200,  35.629320284, 139.787134468,   41.6474,  5, 23,  2.4003,  2.3834,  5.6621,  1.5867, -2.2350, -2.0259,  0.00,   0.0
2032,273381.300,  35.629320273, 139.787134436,   41.6461,  5, 23,  2.4003,  2.3834,  5.6620,  1.5867, -2.2350, -2.0259,  0.00,   0.0
2032,273381.400,  35.629321369, 139.787135652,   41.6419,  5, 23,  2.4003,  2.3834,  5.6620,  1.5867, -2.2350, -2.0259,  0.00,   0.0
2032,273381.500,  35.629321373, 139.787135653,   41.6484,  5, 23,  2.4003,  2.3834,  5.6620,  1.5867, -2.2350, -2.0259,  0.00,   0.0
2032,273381.600,  35.629321189, 139.787133962,   41.6048,  5, 23,  2.4003,  2.3834,  5.6620,  1.5867, -2.2349, -2.0259,  0.00,   0.0
2032,273381.700,  35.629321259, 139.787133954,   41.5955,  5, 23,  2.4003,  2.3834,  5.6619,  1.5867, -2.2349, -2.0259,  0.00,   0.0
2032,273381.800,  35.629320598, 139.787134484,   41.4890,  5, 23,  2.4003,  2.3834,  5.6619,  1.5867, -2.2349, -2.0259,  0.00,   0.0
2032,273381.900,  35.629320644, 139.787134458,   41.4943,  5, 23,  2.4003,  2.3834,  5.6619,  1.5867, -2.2349, -2.0259,  0.00,   0.0
2032,273382.000,  35.629319662, 139.787132069,   42.0716,  5, 23,  2.4003,  2.3834,  5.6619,  1.5867, -2.2348, -2.0259,  0.00,   0.0
2032,273382.100,  35.629319703, 139.787131966,   42.0611,  5, 23,  2.4003,  2.3834,  5.6619,  1.5866, -2.2348, -2.0259,  0.00,   0.0
2032,273382.200,  35.629320065, 139.787131254,   42.4057,  5, 23,  2.4003,  2.3834,  5.6618,  1.5866, -2.2348, -2.0259,  0.00,   0.0
2032,273382.300,  35.629320129, 139.787131183,   42.3985,  5, 23,  2.4004,  2.3834,  5.6618,  1.5866, -2.2348, -2.0259,  0.00,   0.0
2032,273382.400,  35.629319504, 139.787131605,   42.8882,  5, 23,  2.4004,  2.3834,  5.6618,  1.5866, -2.2347, -2.0259,  0.00,   0.0
2032,273382.500,  35.629319597, 139.787131556,   42.8907,  5, 23,  2.4004,  2.3834,  5.6618,  1.5866, -2.2347, -2.0259,  0.00,   0.0
2032,273382.600,  35.629319803, 139.787131758,   42.9590,  5, 23,  2.4004,  2.3834,  5.6617,  1.5866, -2.2347, -2.0259,  0.00,   0.0
2032,273382.700,  35.629319938, 139.787131701,   42.9561,  5, 23,  2.4004,  2.3834,  5.6617,  1.5866, -2.2347, -2.0259,  0.00,   0.0
2032,273382.800,  35.629319704, 139.787132030,   43.1739,  5, 23,  2.4004,  2.3834,  5.6617,  1.5866, -2.2347, -2.0259,  0.00,   0.0
2032,273382.900,  35.629319952, 139.787131853,   43.1790,  5, 23,  2.4004,  2.3834,  5.6617,  1.5866, -2.2346, -2.0259,  0.00,   0.0
2032,273383.000,  35.629322732, 139.787135330,   42.7702,  5, 23,  2.4004,  2.3834,  5.6616,  1.5866, -2.2346, -2.0259,  0.00,   0.0
2032,273383.100,  35.629323106, 139.787134994,   42.7612,  5, 23,  2.4004,  2.3834,  5.6616,  1.5866, -2.2346, -2.0259,  0.00,   0.0
2032,273383.200,  35.629321331, 139.787131380,   43.0933,  5, 23,  2.4004,  2.3834,  5.6616,  1.5866, -2.2346, -2.0259,  0.00,   0.0
2032,273383.300,  35.629321825, 139.787130759,   43.0951,  5, 23,  2.4004,  2.3834,  5.6616,  1.5866, -2.2345, -2.0259,  0.00,   0.0
2032,273383.400,  35.629324134, 139.787130747,   41.9396,  5, 22,  2.5835,  2.4975,  5.6616,  1.7972, -2.2364, -2.0286,  0.00,   0.0
2032,273383.500,  35.629324910, 139.787130189,   41.9510,  5, 22,  2.5835,  2.4975,  5.6615,  1.7972, -2.2364, -2.0286,  0.00,   0.0
2032,273383.600,  35.629328321, 139.787130617,   42.1074,  5, 22,  2.5835,  2.4975,  5.6615,  1.7972, -2.2364, -2.0286,  0.00,   0.0
2032,273383.700,  35.629329176, 139.787129953,   42.1067,  5, 22,  2.5835,  2.4975,  5.6615,  1.7972, -2.2364, -2.0286,  0.00,   0.0
2032,273383.800,  35.629328981, 139.787131321,   42.6946,  5, 22,  2.5835,  2.4975,  5.6615,  1.7972, -2.2364, -2.0286,  0.00,   0.0
2032,273383.900,  35.629329897, 139.787130710,   42.6964,  5, 22,  2.5835,  2.4975,  5.6614,  1.7972, -2.2363, -2.0286,  0.00,   0.0
2032,273384.000,  35.629330329, 139.787133089,   42.7383,  5, 22,  2.5835,  2.4975,  5.6614,  1.7972, -2.2363, -2.0286,  0.00,   0.0
2032,273384.100,  35.629331234, 139.787132514,   42.7406,  5, 22,  2.5835,  2.4975,  5.6614,  1.7972, -2.2363, -2.0286,  0.00,   0.0
2032,273384.200,  35.629331903, 139.787129615,   42.5660,  5, 22,  2.5835,  2.4975,  5.6614,  1.7972, -2.2363, -2.0286,  0.00,   0.0
2032,273384.300,  35.629332768, 139.787128956,   42.5724,  5, 22,  2.5835,  2.4975,  5.6613,  1.7972, -2.2362, -2.0286,  0.00,   0.0
2032,273384.400,  35.629334830, 139.787127049,   42.0504,  5, 22,  2.5835,  2.4975,  5.6613,  1.7972, -2.2362, -2.0286,  0.00,   0.0
2032,273384.500,  35.629335699, 139.787126431,   42.0601,  5, 22,  2.5835,  2.4975,  5.6613,  1.7972, -2.2362, -2.0286,  0.00,   0.0
2032,273384.600,  35.629334873, 139.787127884,   41.7456,  5, 22,  2.5835,  2.4975,  5.6613,  1.7972, -2.2362, -2.0286,  0.00,   0.0
2032,273384.700,  35.629335968, 139.787127209,   41.7417,  5, 22,  2.5835,  2.4975,  5.6612,  1.7972, -2.2362, -2.0286,  0.00,   0.0
2032,273384.800,  35.629339250, 139.787126557,   41.6129,  5, 22,  2.5836,  2.4975,  5.6612,  1.7972, -2.2361, -2.0286,  0.00,   0.0
2032,273384.900,  35.629340525, 139.787125790,   41.6014,  5, 22,  2.5836,  2.4975,  5.6612,  1.7972, -2.2361, -2.0286,  0.00,   0.0
2032,273385.000,  35.629344013, 139.787129746,   41.1675,  5, 22,  2.5836,  2.4975,  5.6612,  1.7972, -2.2361, -2.0286,  0.00,   0.0
2032,273385.100,  35.629345516, 139.787128834,   41.1739,  5, 22,  2.5836,  2.4975,  5.6611,  1.7972, -2.2361, -2.0286,  0.00,   0.0
2032,273385.200,  35.629346151, 139.787124307,   41.7186,  5, 22,  2.5836,  2.4975,  5.6611,  1.7972, -2.2360, -2.0286,  0.00,   0.0
2032,273385.300,  35.629347714, 139.787123327,   41.7176,  5, 22,  2.5836,  2.4975,  5.6611,  1.7972, -2.2360, -2.0286,  0.00,   0.0
2032,273385.400,  35.629347873, 139.787116622,   42.3790,  5, 22,  2.5836,  2.4975,  5.6611,  1.7972, -2.2360, -2.0286,  0.00,   0.0
2032,273385.500,  35.629349513, 139.787115546,   42.3767,  5, 22,  2.5836,  2.4975,  5.6610,  1.7972, -2.2360, -2.0286,  0.00,   0.0
2032,273385.600,  35.629351524, 139.787112933,   42.4337,  5, 22,  2.5836,  2.4975,  5.6610,  1.7972, -2.2360, -2.0286,  0.00,   0.0
2032,273385.700,  35.629353366, 139.787112025,   42.4437,  5, 22,  2.5836,  2.4975,  5.6610,  1.7972, -2.2359, -2.0286,  0.00,   0.0
2032,273385.800,  35.629354977, 139.787114692,   41.8929,  5, 22,  2.5836,  2.4975,  5.6610,  1.7972, -2.2359, -2.0286,  0.00,   0.0
2032,273385.900,  35.629356963, 139.787113548,   41.9093,  5, 22,  2.5836,  2.4975,  5.6609,  1.7972, -2.2359, -2.0286,  0.00,   0.0
2032,273386.000,  35.629360882, 139.787115076,   42.1754,  5, 22,  2.5836,  2.4975,  5.6609,  1.7972, -2.2359, -2.0286,  0.00,   0.0
2032,273386.100,  35.629363028, 139.787114030,   42.1982,  5, 22,  2.5836,  2.4975,  5.6609,  1.7972, -2.2358, -2.0286,  0.00,   0.0
2032,273386.200,  35.629363122, 139.787111245,   42.2788,  5, 21,  2.8602,  2.6170,  5.8289,  2.0468, -1.9780, -1.5526,  0.00,   0.0
2032,273386.300,  35.629365367, 139.787110085,   42.2882,  5, 21,  2.8602,  2.6170,  5.8289,  2.0468, -1.9780, -1.5526,  0.00,   0.0
2032,273386.400,  35.629369009, 139.787111812,   41.3146,  5, 21,  2.8602,  2.6170,  5.8289,  2.0468, -1.9779, -1.5526,  0.00,   0.0
2032,273386.500,  35.629371209, 139.787110495,   41.3213,  5, 21,  2.8602,  2.6170,  5.8289,  2.0468, -1.9779, -1.5526,  0.00,   0.0
2032,273386.600,  35.629371011, 139.787107304,   41.7550,  5, 21,  2.8602,  2.6170,  5.8288,  2.0468, -1.9779, -1.5525,  0.00,   0.0
2032,273386.700,  35.629373342, 139.787105963,   41.7556,  5, 21,  2.8602,  2.6170,  5.8288,  2.0468, -1.9778, -1.5525,  0.00,   0.0
2032,273386.800,  35.629376612, 139.787106746,   41.9739,  5, 21,  2.8602,  2.6170,  5.8288,  2.0468, -1.9778, -1.5525,  0.00,   0.0
2032,273386.900,  35.629378949, 139.787105302,   41.9840,  5, 21,  2.8602,  2.6170,  5.8288,  2.0468, -1.9778, -1.5525,  0.00,   0.0
2032,273387.000,  35.629379702, 139.787103000,   42.0684,  5, 21,  2.8602,  2.6170,  5.8288,  2.0468, -1.9778, -1.5525,  0.00,   0.0
2032,273387.100,  35.629382184, 139.787101562,   42.0817,  5, 21,  2.8602,  2.6170,  5.8287,  2.0468, -1.9777, -1.5525,  0.00,   0.0
2032,273387.200,  35.629380713, 139.787097738,   42.5740,  5, 21,  2.8602,  2.6170,  5.8287,  2.0468, -1.9777, -1.5525,  0.00,   0.0
2032,273387.300,  35.629383240, 139.787096260,   42.5763,  5, 21,  2.8602,  2.6170,  5.8287,  2.0468, -1.9777, -1.5525,  0.00,   0.0
2032,273387.400,  35.629386418, 139.787096601,   42.0356,  5, 21,  2.8602,  2.6170,  5.8287,  2.0468, -1.9776, -1.5525,  0.00,   0.0
2032,273387.500,  35.629389009, 139.787095008,   42.0491,  5, 21,  2.8602,  2.6170,  5.8287,  2.0468, -1.9776, -1.5525,  0.00,   0.0
2032,273387.600,  35.629391102, 139.787089110,   41.6605,  5, 21,  2.8602,  2.6170,  5.8286,  2.0468, -1.9776, -1.5525,  0.00,   0.0
2032,273387.700,  35.629393805, 139.787087534,   41.6614,  5, 21,  2.8602,  2.6170,  5.8286,  2.0468, -1.9775, -1.5525,  0.00,   0.0
2032,273387.800,  35.629400995, 139.787091279,   42.1195,  5, 21,  2.8602,  2.6170,  5.8286,  2.0468, -1.9775, -1.5525,  0.00,   0.0
2032,273387.900,  35.629403708, 139.787089646,   42.1153,  5, 21,  2.8602,  2.6170,  5.8286,  2.0468, -1.9775, -1.5525,  0.00,   0.0
2032,273388.000,  35.629405936, 139.787087337,   42.5552,  5, 21,  2.8602,  2.6170,  5.8286,  2.0468, -1.9775, -1.5525,  0.00,   0.0
2032,273388.100,  35.629408667, 139.787085555,   42.5838,  5, 21,  2.8602,  2.6170,  5.8285,  2.0468, -1.9774, -1.5525,  0.00,   0.0
2032,273388.200,  35.629409805, 139.787085520,   41.7716,  5, 21,  2.8602,  2.6170,  5.8285,  2.0468, -1.9774, -1.5525,  0.00,   0.0
2032,273388.300,  35.629412661, 139.787083787,   41.7790,  5, 21,  2.8602,  2.6170,  5.8285,  2.0468, -1.9774, -1.5525,  0.00,   0.0
2032,273388.400,  35.629414602, 139.787081796,   41.5448,  5, 21,  2.8603,  2.6170,  5.8285,  2.0468, -1.9773, -1.5525,  0.00,   0.0
2032,273388.500,  35.629417425, 139.787080030,   41.5396,  5, 21,  2.8603,  2.6170,  5.8285,  2.0468, -1.9773, -1.5525,  0.00,   0.0
2032,273388.600,  35.629420863, 139.787074300,   42.0567,  5, 21,  2.8603,  2.6170,  5.8284,  2.0468, -1.9773, -1.5525,  0.00,   0.0
2032,273388.700,  35.629423822, 139.787072455,   42.0548,  5, 21,  2.8603,  2.6170,  5.8284,  2.0468, -1.9773, -1.5525,  0.00,   0.0
2032,273388.800,  35.629430493, 139.787074698,   42.4295,  5, 21,  2.8603,  2.6170,  5.8284,  2.0468, -1.9772, -1.5525,  0.00,   0.0
2032,273388.900,  35.629433372, 139.787072852,   42.4447,  5, 21,  2.8603,  2.6170,  5.8284,  2.0468, -1.9772, -1.5524,  0.00,   0.0
2032,273389.000,  35.629431273, 139.787066876,   42.7591,  5, 21,  2.8603,  2.6170,  5.8284,  2.0468, -1.9772, -1.5524,  0.00,   0.0
2032,273389.100,  35.629434156, 139.787065043,   42.7692,  5, 21,  2.8603,  2.6170,  5.8283,  2.0468, -1.9771, -1.5524,  0.00,   0.0
2032,273389.200,  35.629439127, 139.787061026,   42.4528,  5, 21,  2.8603,  2.6170,  5.8283,  2.0468, -1.9771, -1.5524,  0.00,   0.0
2032,273389.300,  35.629441989, 139.787059104,   42.4568,  5, 21,  2.8603,  2.6170,  5.8283,  2.0468, -1.9771, -1.5524,  0.00,   0.0
2032,273389.400,  35.629444043, 139.787059047,   42.6236,  5, 21,  2.8603,  2.6170,  5.8283,  2.0468, -1.9770, -1.5524,  0.00,   0.0
2032,273389.500,  35.629446855, 139.787057141,   42.6348,  5, 21,  2.8603,  2.6170,  5.8283,  2.0468, -1.9770, -1.5524,  0.00,   0.0
2032,273389.600,  35.629452461, 139.787058096,   42.0327,  5, 21,  2.8603,  2.6170,  5.8283,  2.0468, -1.9770, -1.5524,  0.00,   0.0
2032,273389.700,  35.629455225, 139.787056171,   42.0485,  5, 21,  2.8603,  2.6170,  5.8282,  2.0468, -1.9770, -1.5524,  0.00,   0.0
2032,273389.800,  35.629460328, 139.787056098,   42.2786,  5, 20,  3.0352,  2.7576,  6.2704,  2.2521, -2.4328, -2.1814,  0.00,   0.0
2032,273389.900,  35.629463135, 139.787054247,   42.2968,  5, 20,  3.0352,  2.7576,  6.2704,  2.2521, -2.4328, -2.1814,  0.00,   0.0
2032,273390.000,  35.629464513, 139.787048068,   42.3086,  5, 20,  3.0352,  2.7576,  6.2704,  2.2521, -2.4328, -2.1814,  0.00,   0.0
2032,273390.100,  35.629467329, 139.787046184,   42.3130,  5, 20,  3.0352,  2.7576,  6.2704,  2.2521, -2.4327, -2.1814,  0.00,   0.0
2032,273390.200,  35.629469989, 139.787045833,   42.2179,  5, 20,  3.0352,  2.7576,  6.2704,  2.2521, -2.4327, -2.1814,  0.00,   0.0
2032,273390.300,  35.629472750, 139.787043899,   42.2190,  5, 20,  3.0352,  2.7576,  6.2704,  2.2521, -2.4327, -2.1814,  0.00,   0.0
2032,273390.400,  35.629475953, 139.787041140,   42.2033,  5, 20,  3.0352,  2.7576,  6.2704,  2.2521, -2.4327, -2.1814,  0.00,   0.0
2032,273390.500,  35.629478681, 139.787039231,   42.2091,  5, 20,  3.0352,  2.7576,  6.2704,  2.2521, -2.4327, -2.1814,  0.00,   0.0
2032,273390.600,  35.629481485, 139.787039375,   41.5782,  5, 20,  3.0352,  2.7576,  6.2704,  2.2521, -2.4327, -2.1814,  0.00,   0.0
2032,273390.700,  35.629484225, 139.787037343,   41.5909,  5, 20,  3.0352,  2.7576,  6.2704,  2.2521, -2.4326, -2.1815,  0.00,   0.0
2032,273390.800,  35.629488333, 139.787033293,   41.8443,  5, 20,  3.0352,  2.7576,  6.2704,  2.2521, -2.4326, -2.1815,  0.00,   0.0
2032,273390.900,  35.629491076, 139.787031364,   41.8403,  5, 20,  3.0352,  2.7576,  6.2704,  2.2521, -2.4326, -2.1815,  0.00,   0.0
2032,273391.000,  35.629491783, 139.787025931,   42.1083,  5, 20,  3.0352,  2.7576,  6.2704,  2.2521, -2.4326, -2.1815,  0.00,   0.0
2032,273391.100,  35.629494593, 139.787023903,   42.1144,  5, 20,  3.0352,  2.7576,  6.2704,  2.2521, -2.4326, -2.1815,  0.00,   0.0
2032,273391.200,  35.629499822, 139.787024493,   41.8031,  5, 20,  3.0352,  2.7576,  6.2704,  2.2521, -2.4325, -2.1815,  0.00,   0.0
2032,273391.300,  35.629502642, 139.787022444,   41.8237,  5, 20,  3.0353,  2.7576,  6.2704,  2.2521, -2.4325, -2.1815,  0.00,   0.0
2032,273391.400,  35.629504588, 139.787018861,   41.9027,  5, 20,  3.0353,  2.7576,  6.2704,  2.2521, -2.4325, -2.1815,  0.00,   0.0
2032,273391.500,  35.629507538, 139.787016760,   41.8965,  5, 20,  3.0353,  2.7576,  6.2704,  2.2521, -2.4325, -2.1815,  0.00,   0.0
2032,273391.600,  35.629508041, 139.787014102,   42.1936,  5, 20,  3.0353,  2.7576,  6.2704,  2.2521, -2.4325, -2.1815,  0.00,   0.0
2032,273391.700,  35.629510995, 139.787011937,   42.2105,  5, 20,  3.0353,  2.7576,  6.2703,  2.2521, -2.4325, -2.1816,  0.00,   0.0
2032,273391.800,  35.629515822, 139.787010521,   42.1981,  5, 20,  3.0353,  2.7576,  6.2703,  2.2521, -2.4324, -2.1816,  0.00,   0.0
2032,273391.900,  35.629518896, 139.787008311,   42.1889,  5, 20,  3.0353,  2.7576,  6.2703,  2.2521, -2.4324, -2.1816,  0.00,   0.0
2032,273392.000,  35.629525030, 139.787009140,   41.8393,  5, 20,  3.0353,  2.7575,  6.2703,  2.2521, -2.4324, -2.1816,  0.00,   0.0
2032,273392.100,  35.629527988, 139.787006806,   41.8623,  5, 20,  3.0353,  2.7575,  6.2703,  2.2521, -2.4324, -2.1816,  0.00,   0.0
2032,273392.200,  35.629530848, 139.787003792,   41.6325,  5, 20,  3.0353,  2.7575,  6.2703,  2.2521, -2.4324, -2.1816,  0.00,   0.0
2032,273392.300,  35.629533962, 139.787001438,   41.6364,  5, 20,  3.0353,  2.7575,  6.2703,  2.2521, -2.4324, -2.1816,  0.00,   0.0
2032,273392.400,  35.629535298, 139.786998148,   42.1781,  5, 21,  2.8604,  2.6170,  5.8277,  2.0468, -1.9762, -1.5523,  0.00,   0.0
2032,273392.500,  35.629538456, 139.786995815,   42.1930,  5, 21,  2.8604,  2.6170,  5.8277,  2.0468, -1.9761, -1.5523,  0.00,   0.0
2032,273392.600,  35.629541174, 139.786993158,   42.2360,  5, 21,  2.8604,  2.6170,  5.8277,  2.0468, -1.9761, -1.5523,  0.00,   0.0
2032,273392.700,  35.629544413, 139.786990683,   42.2477,  5, 21,  2.8604,  2.6170,  5.8276,  2.0468, -1.9761, -1.5523,  0.00,   0.0
2032,273392.800,  35.629548533, 139.786988177,   42.1218,  5, 21,  2.8604,  2.6170,  5.8276,  2.0468, -1.9760, -1.5523,  0.00,   0.0
2032,273392.900,  35.629551831, 139.786985726,   42.1239,  5, 21,  2.8604,  2.6170,  5.8276,  2.0468, -1.9760, -1.5523,  0.00,   0.0
2032,273393.000,  35.629555924, 139.786982673,   42.0857,  5, 21,  2.8604,  2.6170,  5.8276,  2.0468, -1.9760, -1.5523,  0.00,   0.0
2032,273393.100,  35.629559236, 139.786980160,   42.0871,  5, 21,  2.8604,  2.6170,  5.8276,  2.0468, -1.9760, -1.5523,  0.00,   0.0
2032,273393.200,  35.629560912, 139.786977739,   42.3229,  5, 21,  2.8605,  2.6170,  5.8276,  2.0468, -1.9759, -1.5523,  0.00,   0.0
2032,273393.300,  35.629564197, 139.786975124,   42.3376,  5, 21,  2.8605,  2.6170,  5.8275,  2.0468, -1.9759, -1.5523,  0.00,   0.0
2032,273393.400,  35.629568223, 139.786974858,   42.0640,  5, 21,  2.8605,  2.6170,  5.8275,  2.0468, -1.9759, -1.5523,  0.00,   0.0
2032,273393.500,  35.629571567, 139.786972290,   42.0602,  5, 21,  2.8605,  2.6170,  5.8275,  2.0468, -1.9758, -1.5523,  0.00,   0.0
2032,273393.600,  35.629571903, 139.786965838,   42.2221,  5, 21,  2.8605,  2.6170,  5.8275,  2.0468, -1.9758, -1.5523,  0.00,   0.0
2032,273393.700,  35.629575208, 139.786963208,   42.2260,  5, 21,  2.8605,  2.6170,  5.8275,  2.0468, -1.9758, -1.5522,  0.00,   0.0
2032,273393.800,  35.629578421, 139.786960126,   42.4785,  5, 21,  2.8605,  2.6170,  5.8274,  2.0468, -1.9758, -1.5522,  0.00,   0.0
2032,273393.900,  35.629581737, 139.786957419,   42.4694,  5, 21,  2.8605,  2.6170,  5.8274,  2.0468, -1.9757, -1.5522,  0.00,   0.0
2032,273394.000,  35.629589492, 139.786955267,   42.1579,  5, 21,  2.8605,  2.6170,  5.8274,  2.0468, -1.9757, -1.5522,  0.00,   0.0
2032,273394.100,  35.629592743, 139.786952592,   42.1682,  5, 21,  2.8605,  2.6170,  5.8274,  2.0468, -1.9757, -1.5522,  0.00,   0.0
2032,273394.200,  35.629598847, 139.786953648,   41.8975,  5, 21,  2.8605,  2.6170,  5.8274,  2.0468, -1.9756, -1.5522,  0.00,   0.0
2032,273394.300,  35.629602208, 139.786950989,   41.9098,  5, 21,  2.8605,  2.6170,  5.8273,  2.0468, -1.9756, -1.5522,  0.00,   0.0
2032,273394.400,  35.629604525, 139.786947631,   41.9672,  5, 22,  2.6253,  2.4243,  5.7578,  1.7520, -2.1880, -1.8516,  0.00,   0.0
2032,273394.500,  35.629607862, 139.786944977,   41.9778,  5, 22,  2.6253,  2.4243,  5.7578,  1.7520, -2.1880, -1.8516,  0.00,   0.0
2032,273394.600,  35.629608560, 139.786939455,   42.0834,  5, 22,  2.6253,  2.4243,  5.7578,  1.7520, -2.1880, -1.8516,  0.00,   0.0
2032,273394.700,  35.629611882, 139.786936798,   42.0834,  5, 22,  2.6253,  2.4243,  5.7578,  1.7520, -2.1880, -1.8516,  0.00,   0.0
2032,273394.800,  35.629612591, 139.786932372,   42.1096,  5, 22,  2.6253,  2.4243,  5.7577,  1.7520, -2.1879, -1.8516,  0.00,   0.0
2032,273394.900,  35.629615933, 139.786929748,   42.1156,  5, 22,  2.6253,  2.4243,  5.7577,  1.7520, -2.1879, -1.8517,  0.00,   0.0
2032,273395.000,  35.629616341, 139.786926609,   43.0346,  5, 22,  2.6253,  2.4243,  5.7577,  1.7520, -2.1879, -1.8517,  0.00,   0.0
2032,273395.100,  35.629619642, 139.786923958,   43.0439,  5, 22,  2.6254,  2.4243,  5.7577,  1.7520, -2.1879, -1.8517,  0.00,   0.0
2032,273395.200,  35.629622451, 139.786921929,   42.6720,  5, 22,  2.6254,  2.4243,  5.7576,  1.7520, -2.1879, -1.8517,  0.00,   0.0
2032,273395.300,  35.629625811, 139.786919328,   42.6891,  5, 22,  2.6254,  2.4243,  5.7576,  1.7520, -2.1878, -1.8517,  0.00,   0.0
2032,273395.400,  35.629630719, 139.786917241,   42.7766,  5, 22,  2.6254,  2.4243,  5.7576,  1.7520, -2.1878, -1.8517,  0.00,   0.0
2032,273395.500,  35.629633989, 139.786914619,   42.7869,  5, 22,  2.6254,  2.4243,  5.7576,  1.7520, -2.1878, -1.8517,  0.00,   0.0
2032,273395.600,  35.629636694, 139.786911704,   42.9955,  5, 22,  2.6254,  2.4243,  5.7575,  1.7520, -2.1878, -1.8517,  0.00,   0.0
2032,273395.700,  35.629639986, 139.786909156,   42.9966,  5, 22,  2.6254,  2.4243,  5.7575,  1.7520, -2.1878, -1.8517,  0.00,   0.0
2032,273395.800,  35.629646116, 139.786906866,   42.4763,  5, 21,  2.7797,  2.5466,  6.2319,  1.9447, -2.5780, -2.3678,  0.00,   0.0
2032,273395.900,  35.629649351, 139.786904346,   42.4889,  5, 21,  2.7797,  2.5466,  6.2318,  1.9447, -2.5780, -2.3678,  0.00,   0.0
2032,273396.000,  35.629654865, 139.786903119,   42.2065,  5, 21,  2.7797,  2.5466,  6.2318,  1.9447, -2.5780, -2.3678,  0.00,   0.0
2032,273396.100,  35.629658060, 139.786900556,   42.2208,  5, 21,  2.7797,  2.5466,  6.2318,  1.9447, -2.5780, -2.3679,  0.00,   0.0
2032,273396.200,  35.629660826, 139.786899707,   41.7846,  5, 21,  2.7797,  2.5466,  6.2318,  1.9447, -2.5780, -2.3679,  0.00,   0.0
2032,273396.300,  35.629663969, 139.786897236,   41.7951,  5, 21,  2.7797,  2.5466,  6.2318,  1.9447, -2.5780, -2.3679,  0.00,   0.0
2032,273396.400,  35.629665509, 139.786892911,   42.1127,  5, 21,  2.7797,  2.5466,  6.2318,  1.9447, -2.5780, -2.3679,  0.00,   0.0
2032,273396.500,  35.629668610, 139.786890457,   42.1154,  5, 21,  2.7797,  2.5466,  6.2318,  1.9447, -2.5780, -2.3679,  0.00,   0.0
2032,273396.600,  35.629671820, 139.786889769,   42.2171,  5, 21,  2.7797,  2.5466,  6.2318,  1.9447, -2.5780, -2.3680,  0.00,   0.0
2032,273396.700,  35.629674925, 139.786887426,   42.2317,  5, 21,  2.7797,  2.5466,  6.2318,  1.9447, -2.5780, -2.3680,  0.00,   0.0
2032,273396.800,  35.629675562, 139.786882937,   41.6211,  5, 22,  2.5624,  2.4347,  6.2314,  1.7255, -2.5674, -2.3514,  0.00,   0.0
2032,273396.900,  35.629678556, 139.786880524,   41.6284,  5, 22,  2.5624,  2.4347,  6.2314,  1.7255, -2.5674, -2.3514,  0.00,   0.0
2032,273397.000,  35.629680350, 139.786878363,   41.9428,  5, 22,  2.5624,  2.4347,  6.2314,  1.7255, -2.5674, -2.3514,  0.00,   0.0
2032,273397.100,  35.629683297, 139.786875946,   41.9509,  5, 22,  2.5624,  2.4347,  6.2314,  1.7255, -2.5674, -2.3514,  0.00,   0.0
2032,273397.200,  35.629687400, 139.786875702,   41.6727,  5, 22,  2.5624,  2.4347,  6.2314,  1.7255, -2.5673, -2.3515,  0.00,   0.0
2032,273397.300,  35.629690302, 139.786873252,   41.6793,  5, 22,  2.5624,  2.4347,  6.2313,  1.7255, -2.5673, -2.3515,  0.00,   0.0
2032,273397.400,  35.629693542, 139.786870911,   41.9474,  5, 22,  2.5624,  2.4347,  6.2313,  1.7255, -2.5673, -2.3515,  0.00,   0.0
2032,273397.500,  35.629696386, 139.786868579,   41.9485,  5, 22,  2.5624,  2.4347,  6.2313,  1.7255, -2.5673, -2.3515,  0.00,   0.0
2032,273397.600,  35.629698840, 139.786863938,   42.7098,  5, 22,  2.5624,  2.4347,  6.2313,  1.7255, -2.5673, -2.3515,  0.00,   0.0
2032,273397.700,  35.629701755, 139.786861784,   42.7138,  5, 22,  2.5624,  2.4347,  6.2313,  1.7255, -2.5673, -2.3515,  0.00,   0.0
2032,273397.800,  35.629704337, 139.786859222,   42.7630,  5, 22,  2.5624,  2.4347,  6.2313,  1.7255, -2.5673, -2.3515,  0.00,   0.0
2032,273397.900,  35.629707066, 139.786857009,   42.7745,  5, 22,  2.5625,  2.4347,  6.2313,  1.7255, -2.5673, -2.3515,  0.00,   0.0
2032,273398.000,  35.629709309, 139.786855405,   42.6203,  5, 22,  2.5625,  2.4347,  6.2313,  1.7255, -2.5672, -2.3516,  0.00,   0.0
2032,273398.100,  35.629712026, 139.786853064,   42.5839,  5, 22,  2.5625,  2.4347,  6.2313,  1.7255, -2.5672, -2.3516,  0.00,   0.0
2032,273398.200,  35.629713473, 139.786850122,   42.6843,  5, 22,  2.5625,  2.4347,  6.2313,  1.7255, -2.5672, -2.3516,  0.00,   0.0
2032,273398.300,  35.629716115, 139.786847965,   42.6854,  5, 22,  2.5625,  2.4347,  6.2313,  1.7255, -2.5672, -2.3516,  0.00,   0.0
2032,273398.400,  35.629719940, 139.786845098,   42.9158,  5, 22,  2.5625,  2.4347,  6.2313,  1.7254, -2.5672, -2.3516,  0.00,   0.0
2032,273398.500,  35.629722650, 139.786843165,   42.9195,  5, 22,  2.5625,  2.4347,  6.2313,  1.7254, -2.5672, -2.3516,  0.00,   0.0
2032,273398.600,  35.629725426, 139.786842074,   42.5490,  5, 22,  2.5625,  2.4347,  6.2313,  1.7254, -2.5672, -2.3516,  0.00,   0.0
2032,273398.700,  35.629727955, 139.786839969,   42.5573,  5, 22,  2.5625,  2.4347,  6.2313,  1.7254, -2.5672, -2.3517,  0.00,   0.0
2032,273398.800,  35.629731746, 139.786837007,   42.7553,  5, 22,  2.5625,  2.4347,  6.2313,  1.7254, -2.5671, -2.3517,  0.00,   0.0
2032,273398.900,  35.629734295, 139.786835004,   42.7752,  5, 22,  2.5625,  2.4347,  6.2313,  1.7254, -2.5671, -2.3517,  0.00,   0.0
2032,273399.000,  35.629736150, 139.786831672,   43.1689,  5, 22,  2.5625,  2.4347,  6.2312,  1.7254, -2.5671, -2.3517,  0.00,   0.0
2032,273399.100,  35.629738642, 139.786829628,   43.1913,  5, 22,  2.5625,  2.4347,  6.2312,  1.7254, -2.5671, -2.3517,  0.00,   0.0
2032,273399.200,  35.629741626, 139.786827068,   43.1287,  5, 22,  2.5625,  2.4347,  6.2312,  1.7254, -2.5671, -2.3517,  0.00,   0.0
2032,273399.300,  35.629744296, 139.786824945,   43.1329,  5, 22,  2.5626,  2.4347,  6.2312,  1.7254, -2.5671, -2.3517,  0.00,   0.0
2032,273399.400,  35.629744184, 139.786820823,   43.3005,  5, 22,  2.5626,  2.4347,  6.2312,  1.7254, -2.5671, -2.3518,  0.00,   0.0
2032,273399.500,  35.629746912, 139.786818657,   43.3142,  5, 22,  2.5626,  2.4347,  6.2312,  1.7254, -2.5671, -2.3518,  0.00,   0.0
2032,273399.600,  35.629749006, 139.786817838,   43.1148,  5, 22,  2.5626,  2.4347,  6.2312,  1.7254, -2.5670, -2.3518,  0.00,   0.0
2032,273399.700,  35.629751725, 139.786815632,   43.1207,  5, 22,  2.5626,  2.4347,  6.2312,  1.7254, -2.5670, -2.3518,  0.00,   0.0
2032,273399.800,  35.629755733, 139.786814672,   43.5029,  5, 22,  2.5626,  2.4347,  6.2312,  1.7254, -2.5670, -2.3518,  0.00,   0.0
2032,273399.900,  35.629758560, 139.786812502,   43.4799,  5, 22,  2.5626,  2.4347,  6.2312,  1.7254, -2.5670, -2.3518,  0.00,   0.0
2032,273400.000,  35.629763184, 139.786812825,   42.6281,  5, 22,  2.5626,  2.4347,  6.2312,  1.7254, -2.5670, -2.3518,  0.00,   0.0
2032,273400.100,  35.629765870, 139.786810554,   42.6382,  5, 22,  2.5626,  2.4347,  6.2312,  1.7254, -2.5670, -2.3519,  0.00,   0.0
2032,273400.200,  35.629768689, 139.786808089,   42.2694,  5, 21,  2.6712,  2.5391,  6.2676,  1.8762, -2.4704, -2.2412,  0.00,   0.0
2032,273400.300,  35.629771427, 139.786805979,   42.2845,  5, 21,  2.6712,  2.5391,  6.2676,  1.8762, -2.4704, -2.2412,  0.00,   0.0
2032,273400.400,  35.629774047, 139.786804395,   42.6881,  5, 21,  2.6712,  2.5391,  6.2676,  1.8762, -2.4704, -2.2412,  0.00,   0.0
2032,273400.500,  35.629776690, 139.786802204,   42.6945,  5, 21,  2.6712,  2.5391,  6.2676,  1.8762, -2.4704, -2.2412,  0.00,   0.0
2032,273400.600,  35.629780554, 139.786799143,   42.9066,  5, 21,  2.6712,  2.5391,  6.2676,  1.8762, -2.4704, -2.2412,  0.00,   0.0
2032,273400.700,  35.629783194, 139.786797020,   42.9187,  5, 21,  2.6712,  2.5390,  6.2676,  1.8762, -2.4704, -2.2412,  0.00,   0.0
2032,273400.800,  35.629785640, 139.786793126,   42.9149,  5, 22,  2.5627,  2.4346,  6.2311,  1.7254, -2.5669, -2.3520,  0.00,   0.0
2032,273400.900,  35.629788208, 139.786790971,   42.9224,  5, 22,  2.5627,  2.4346,  6.2311,  1.7254, -2.5669, -2.3520,  0.00,   0.0
2032,273401.000,  35.629789732, 139.786787976,   42.8215,  5, 22,  2.5627,  2.4346,  6.2311,  1.7254, -2.5669, -2.3520,  0.00,   0.0
2032,273401.100,  35.629792301, 139.786786002,   42.8249,  5, 22,  2.5627,  2.4346,  6.2311,  1.7254, -2.5669, -2.3520,  0.00,   0.0
2032,273401.200,  35.629794102, 139.786785863,   42.6908,  5, 22,  2.5627,  2.4346,  6.2311,  1.7254, -2.5668, -2.3520,  0.00,   0.0
2032,273401.300,  35.629796608, 139.786783836,   42.7012,  5, 22,  2.5627,  2.4346,  6.2311,  1.7254, -2.5668, -2.3520,  0.00,   0.0
2032,273401.400,  35.629799750, 139.786780804,   42.6518,  5, 22,  2.5627,  2.4346,  6.2311,  1.7254, -2.5668, -2.3520,  0.00,   0.0
2032,273401.500,  35.629802248, 139.786778823,   42.6548,  5, 22,  2.5627,  2.4346,  6.2311,  1.7254, -2.5668, -2.3521,  0.00,   0.0
2032,273401.600,  35.629804627, 139.786777638,   42.2002,  5, 22,  2.5627,  2.4346,  6.2311,  1.7254, -2.5668, -2.3521,  0.00,   0.0
2032,273401.700,  35.629807081, 139.786775691,   42.2062,  5, 22,  2.5627,  2.4346,  6.2311,  1.7254, -2.5668, -2.3521,  0.00,   0.0
2032,273401.800,  35.629810350, 139.786774347,   42.3482,  5, 22,  2.5627,  2.4346,  6.2311,  1.7254, -2.5668, -2.3521,  0.00,   0.0
2032,273401.900,  35.629812958, 139.786772413,   42.3520,  5, 22,  2.5627,  2.4346,  6.2311,  1.7254, -2.5668, -2.3521,  0.00,   0.0
2032,273402.000,  35.629815978, 139.786773360,   42.5850,  5, 22,  2.5627,  2.4346,  6.2311,  1.7254, -2.5667, -2.3521,  0.00,   0.0
2032,273402.100,  35.629818558, 139.786771417,   42.5930,  5, 22,  2.5627,  2.4346,  6.2311,  1.7254, -2.5667, -2.3521,  0.00,   0.0
2032,273402.200,  35.629820339, 139.786768892,   42.2603,  5, 22,  2.5628,  2.4346,  6.2311,  1.7254, -2.5667, -2.3522,  0.00,   0.0
2032,273402.300,  35.629822952, 139.786766929,   42.2591,  5, 22,  2.5628,  2.4346,  6.2311,  1.7254, -2.5667, -2.3522,  0.00,   0.0
2032,273402.400,  35.629825674, 139.786762511,   42.4876,  5, 23,  2.4321,  2.3296,  5.7534,  1.5510, -2.2125, -1.8972,  0.00,   0.0
2032,273402.500,  35.629828250, 139.786760534,   42.4855,  5, 23,  2.4321,  2.3296,  5.7533,  1.5510, -2.2125, -1.8973,  0.00,   0.0
2032,273402.600,  35.629830072, 139.786760241,   42.3436,  5, 23,  2.4321,  2.3296,  5.7533,  1.5510, -2.2125, -1.8973,  0.00,   0.0
2032,273402.700,  35.629832694, 139.786758329,   42.3395,  5, 23,  2.4321,  2.3296,  5.7533,  1.5510, -2.2125, -1.8973,  0.00,   0.0
2032,273402.800,  35.629834742, 139.786755750,   42.6095,  5, 23,  2.4321,  2.3296,  5.7533,  1.5509, -2.2125, -1.8973,  0.00,   0.0
2032,273402.900,  35.629837413, 139.786753764,   42.6113,  5, 23,  2.4321,  2.3296,  5.7532,  1.5509, -2.2124, -1.8973,  0.00,   0.0
2032,273403.000,  35.629841694, 139.786752338,   42.7817,  5, 23,  2.4321,  2.3296,  5.7532,  1.5509, -2.2124, -1.8973,  0.00,   0.0
2032,273403.100,  35.629844402, 139.786750317,   42.7916,  5, 23,  2.4321,  2.3296,  5.7532,  1.5509, -2.2124, -1.8973,  0.00,   0.0
2032,273403.200,  35.629844870, 139.786746930,   42.1333,  5, 24,  2.3443,  2.2603,  5.5887,  1.4284, -2.3800, -2.1176,  0.00,   0.0
2032,273403.300,  35.629847615, 139.786744793,   42.1533,  5, 24,  2.3443,  2.2603,  5.5887,  1.4284, -2.3800, -2.1176,  0.00,   0.0
2032,273403.400,  35.629848859, 139.786741908,   41.4552,  5, 25,  2.3361,  2.2436,  5.4415,  1.4095, -2.4523, -2.1755,  0.00,   0.0
2032,273403.500,  35.629851631, 139.786739819,   41.4641,  5, 25,  2.3361,  2.2436,  5.4415,  1.4095, -2.4522, -2.1755,  0.00,   0.0
2032,273403.600,  35.629855128, 139.786737778,   41.8531,  5, 24,  2.3443,  2.2603,  5.5886,  1.4284, -2.3800, -2.1176,  0.00,   0.0
2032,273403.700,  35.629857998, 139.786735666,   41.8653,  5, 24,  2.3443,  2.2603,  5.5886,  1.4284, -2.3800, -2.1176,  0.00,   0.0
2032,273403.800,  35.629862466, 139.786731964,   42.0495,  5, 24,  2.3443,  2.2603,  5.5886,  1.4284, -2.3799, -2.1176,  0.00,   0.0
2032,273403.900,  35.629865548, 139.786729777,   42.0444,  5, 24,  2.3443,  2.2603,  5.5885,  1.4284, -2.3799, -2.1176,  0.00,   0.0
2032,273404.000,  35.629868052, 139.786724877,   42.4397,  5, 24,  2.3443,  2.2603,  5.5885,  1.4284, -2.3799, -2.1176,  0.00,   0.0
2032,273404.100,  35.629871111, 139.786722328,   42.4480,  5, 24,  2.3443,  2.2603,  5.5885,  1.4284, -2.3799, -2.1176,  0.00,   0.0
2032,273404.200,  35.629872509, 139.786720461,   42.6194,  5, 24,  2.3443,  2.2603,  5.5884,  1.4284, -2.3799, -2.1176,  0.00,   0.0
2032,273404.300,  35.629875638, 139.786717806,   42.6226,  5, 24,  2.3443,  2.2603,  5.5884,  1.4284, -2.3798, -2.1176,  0.00,   0.0
2032,273404.400,  35.629879875, 139.786717481,   42.1681,  5, 24,  2.3443,  2.2603,  5.5884,  1.4284, -2.3798, -2.1176,  0.00,   0.0
2032,273404.500,  35.629883167, 139.786714873,   42.1706,  5, 24,  2.3443,  2.2603,  5.5883,  1.4283, -2.3798, -2.1176,  0.00,   0.0
2032,273404.600,  35.629886390, 139.786711873,   42.3602,  5, 24,  2.3444,  2.2603,  5.5883,  1.4283, -2.3798, -2.1176,  0.00,   0.0
2032,273404.700,  35.629889647, 139.786709156,   42.3620,  5, 24,  2.3444,  2.2603,  5.5883,  1.4283, -2.3798, -2.1176,  0.00,   0.0
2032,273404.800,  35.629893566, 139.786704939,   42.5285,  5, 24,  2.3444,  2.2603,  5.5883,  1.4283, -2.3797, -2.1176,  0.00,   0.0
2032,273404.900,  35.629896938, 139.786701969,   42.5316,  5, 24,  2.3444,  2.2603,  5.5882,  1.4283, -2.3797, -2.1176,  0.00,   0.0
2032,273405.000,  35.629900858, 139.786700808,   42.5541,  5, 24,  2.3444,  2.2603,  5.5882,  1.4283, -2.3797, -2.1176,  0.00,   0.0
2032,273405.100,  35.629904221, 139.786697775,   42.5719,  5, 24,  2.3444,  2.2603,  5.5882,  1.4283, -2.3797, -2.1176,  0.00,   0.0
2032,273405.200,  35.629907600, 139.786694999,   42.1628,  5, 24,  2.3444,  2.2603,  5.5881,  1.4283, -2.3797, -2.1176,  0.00,   0.0
2032,273405.300,  35.629911196, 139.786691882,   42.1614,  5, 24,  2.3444,  2.2603,  5.5881,  1.4283, -2.3797, -2.1176,  0.00,   0.0
2032,273405.400,  35.629914319, 139.786688317,   42.1959,  5, 24,  2.3444,  2.2603,  5.5881,  1.4283, -2.3796, -2.1177,  0.00,   0.0
2032,273405.500,  35.629917896, 139.786685049,   42.1869,  5, 24,  2.3444,  2.2603,  5.5881,  1.4283, -2.3796, -2.1177,  0.00,   0.0
2032,273405.600,  35.629921331, 139.786682634,   42.1483,  5, 23,  2.4118,  2.3276,  5.6088,  1.5345, -2.3227, -2.0522,  0.00,   0.0
2032,273405.700,  35.629924979, 139.786679236,   42.1545,  5, 23,  2.4118,  2.3276,  5.6087,  1.5345, -2.3226, -2.0522,  0.00,   0.0
2032,273405.800,  35.629928821, 139.786673471,   42.4468,  5, 23,  2.4118,  2.3276,  5.6087,  1.5345, -2.3226, -2.0522,  0.00,   0.0
2032,273405.900,  35.629932497, 139.786670180,   42.4425,  5, 23,  2.4118,  2.3276,  5.6087,  1.5345, -2.3226, -2.0522,  0.00,   0.0
2032,273406.000,  35.629935607, 139.786666956,   41.8851,  5, 23,  2.4118,  2.3276,  5.6086,  1.5345, -2.3226, -2.0523,  0.00,   0.0
2032,273406.100,  35.629939387, 139.786663457,   41.8853,  5, 23,  2.4118,  2.3276,  5.6086,  1.5345, -2.3225, -2.0523,  0.00,   0.0
2032,273406.200,  35.629942625, 139.786659156,   42.1107,  5, 23,  2.4118,  2.3276,  5.6086,  1.5345, -2.3225, -2.0523,  0.00,   0.0
2032,273406.300,  35.629946571, 139.786655600,   42.1186,  5, 23,  2.4118,  2.3276,  5.6086,  1.5345, -2.3225, -2.0523,  0.00,   0.0
2032,273406.400,  35.629951121, 139.786652038,   41.9130,  5, 25,  2.3154,  2.2827,  5.3962,  1.4454, -2.4673, -2.2499,  0.00,   0.0
2032,273406.500,  35.629955189, 139.786648533,   41.9050,  5, 25,  2.3154,  2.2827,  5.3961,  1.4454, -2.4673, -2.2499,  0.00,   0.0
2032,273406.600,  35.629959669, 139.786645779,   42.0277,  5, 25,  2.3154,  2.2827,  5.3961,  1.4454, -2.4673, -2.2499,  0.00,   0.0
2032,273406.700,  35.629963834, 139.786642241,   42.0226,  5, 25,  2.3154,  2.2827,  5.3961,  1.4454, -2.4673, -2.2499,  0.00,   0.0
2032,273406.800,  35.629966279, 139.786638501,   42.2344,  5, 25,  2.3154,  2.2827,  5.3961,  1.4454, -2.4672, -2.2499,  0.00,   0.0
2032,273406.900,  35.629970577, 139.786634956,   42.2044,  5, 25,  2.3154,  2.2827,  5.3960,  1.4454, -2.4672, -2.2499,  0.00,   0.0
2032,273407.000,  35.629974604, 139.786632764,   41.8044,  5, 25,  2.3154,  2.2827,  5.3960,  1.4454, -2.4672, -2.2499,  0.00,   0.0
2032,273407.100,  35.629978903, 139.786629121,   41.8082,  5, 25,  2.3155,  2.2827,  5.3960,  1.4454, -2.4672, -2.2499,  0.00,   0.0
2032,273407.200,  35.629984273, 139.786624879,   41.8990,  5, 25,  2.3155,  2.2827,  5.3959,  1.4454, -2.4672, -2.2499,  0.00,   0.0
2032,273407.300,  35.629988597, 139.786621334,   41.8860,  5, 25,  2.3155,  2.2827,  5.3959,  1.4454, -2.4671, -2.2499,  0.00,   0.0
2032,273407.400,  35.629993934, 139.786618741,   41.5587,  5, 25,  2.3155,  2.2827,  5.3959,  1.4454, -2.4671, -2.2499,  0.00,   0.0
2032,273407.500,  35.629998244, 139.786615127,   41.5635,  5, 25,  2.3155,  2.2827,  5.3959,  1.4454, -2.4671, -2.2499,  0.00,   0.0
2032,273407.600,  35.630001636, 139.786610318,   41.9554,  5, 25,  2.3155,  2.2827,  5.3958,  1.4454, -2.4671, -2.2499,  0.00,   0.0
2032,273407.700,  35.630005946, 139.786606804,   41.9767,  5, 25,  2.3155,  2.2826,  5.3958,  1.4454, -2.4671, -2.2499,  0.00,   0.0
2032,273407.800,  35.630008309, 139.786601166,   42.3400,  5, 24,  2.4604,  2.3996,  5.8824,  1.6445, -2.7963, -2.6478,  0.00,   0.0
2032,273407.900,  35.630012766, 139.786597713,   42.3371,  5, 24,  2.4604,  2.3996,  5.8824,  1.6445, -2.7963, -2.6478,  0.00,   0.0
2032,273408.000,  35.630017125, 139.786594860,   42.6721,  5, 23,  2.4645,  2.4176,  6.0142,  1.6573, -2.7295, -2.6138,  0.00,   0.0
2032,273408.100,  35.630021541, 139.786591353,   42.6644,  5, 23,  2.4645,  2.4176,  6.0142,  1.6573, -2.7295, -2.6139,  0.00,   0.0
2032,273408.200,  35.630028061, 139.786589308,   42.3726,  5, 23,  2.4645,  2.4176,  6.0141,  1.6573, -2.7295, -2.6139,  0.00,   0.0
2032,273408.300,  35.630032365, 139.786585822,   42.3620,  5, 23,  2.4645,  2.4176,  6.0141,  1.6573, -2.7295, -2.6139,  0.00,   0.0
2032,273408.400,  35.630039225, 139.786586473,   42.2381,  5, 22,  2.5410,  2.4928,  6.1362,  1.7670, -2.5904, -2.4656,  0.00,   0.0
2032,273408.500,  35.630043556, 139.786583088,   42.2305,  5, 22,  2.5410,  2.4928,  6.1361,  1.7670, -2.5903, -2.4657,  0.00,   0.0
2032,273408.600,  35.630048844, 139.786581465,   41.7444,  5, 22,  2.5410,  2.4928,  6.1361,  1.7670, -2.5903, -2.4657,  0.00,   0.0
2032,273408.700,  35.630053148, 139.786577990,   41.7311,  5, 22,  2.5410,  2.4928,  6.1361,  1.7670, -2.5903, -2.4657,  0.00,   0.0
2032,273408.800,  35.630057028, 139.786572464,   42.1381,  5, 22,  2.5410,  2.4928,  6.1361,  1.7670, -2.5903, -2.4657,  0.00,   0.0
2032,273408.900,  35.630061353, 139.786569009,   42.1390,  5, 22,  2.5410,  2.4928,  6.1361,  1.7670, -2.5903, -2.4657,  0.00,   0.0
2032,273409.000,  35.630064940, 139.786561391,   43.0714,  5, 22,  2.5410,  2.4928,  6.1361,  1.7670, -2.5903, -2.4657,  0.00,   0.0
2032,273409.100,  35.630069266, 139.786557967,   43.0689,  5, 22,  2.5410,  2.4928,  6.1361,  1.7670, -2.5902, -2.4657,  0.00,   0.0
2032,273409.200,  35.630073746, 139.786558282,   42.8851,  5, 22,  2.5410,  2.4928,  6.1361,  1.7670, -2.5902, -2.4657,  0.00,   0.0
2032,273409.300,  35.630078093, 139.786554814,   42.8838,  5, 22,  2.5410,  2.4928,  6.1361,  1.7670, -2.5902, -2.4657,  0.00,   0.0
2032,273409.400,  35.630083896, 139.786550747,   42.5673,  5, 22,  2.5410,  2.4928,  6.1361,  1.7670, -2.5902, -2.4658,  0.00,   0.0
2032,273409.500,  35.630088187, 139.786547265,   42.5718,  5, 22,  2.5410,  2.4928,  6.1361,  1.7670, -2.5902, -2.4658,  0.00,   0.0
2032,273409.600,  35.630092052, 139.786543961,   43.0552,  5, 22,  2.5411,  2.4928,  6.1361,  1.7670, -2.5902, -2.4658,  0.00,   0.0
2032,273409.700,  35.630096285, 139.786540496,   43.0502,  5, 22,  2.5411,  2.4928,  6.1361,  1.7670, -2.5902, -2.4658,  0.00,   0.0
2032,273409.800,  35.630099834, 139.786534923,   43.3794,  5, 22,  2.5411,  2.4928,  6.1361,  1.7670, -2.5901, -2.4658,  0.00,   0.0
2032,273409.900,  35.630104125, 139.786531466,   43.3578,  5, 22,  2.5411,  2.4928,  6.1360,  1.7670, -2.5901, -2.4658,  0.00,   0.0
2032,273410.000,  35.630111065, 139.786531669,   43.1415,  5, 22,  2.5411,  2.4928,  6.1360,  1.7670, -2.5901, -2.4658,  0.00,   0.0
2032,273410.100,  35.630115323, 139.786528015,   43.1114,  5, 22,  2.5411,  2.4928,  6.1360,  1.7670, -2.5901, -2.4658,  0.00,   0.0
2032,273410.200,  35.630119264, 139.786525437,   42.6365,  5, 23,  2.4180,  2.4546,  6.1240,  1.6682, -2.5577, -2.4043,  0.00,   0.0
2032,273410.300,  35.630123498, 139.786521971,   42.6264,  5, 23,  2.4180,  2.4546,  6.1240,  1.6682, -2.5577, -2.4043,  0.00,   0.0
2032,273410.400,  35.630127519, 139.786518228,   42.4307,  5, 23,  2.4180,  2.4546,  6.1240,  1.6682, -2.5577, -2.4043,  0.00,   0.0
2032,273410.500,  35.630132019, 139.786514953,   42.4154,  5, 23,  2.4180,  2.4546,  6.1240,  1.6682, -2.5577, -2.4044,  0.00,   0.0
2032,273410.600,  35.630135774, 139.786513573,   42.3832,  5, 23,  2.4180,  2.4546,  6.1240,  1.6682, -2.5577, -2.4044,  0.00,   0.0
2032,273410.700,  35.630140116, 139.786510167,   42.3794,  5, 23,  2.4180,  2.4546,  6.1240,  1.6682, -2.5576, -2.4044,  0.00,   0.0
2032,273410.800,  35.630146039, 139.786507068,   42.2329,  5, 23,  2.4180,  2.4546,  6.1240,  1.6682, -2.5576, -2.4044,  0.00,   0.0
2032,273410.900,  35.630150190, 139.786503540,   42.2211,  5, 23,  2.4180,  2.4546,  6.1240,  1.6682, -2.5576, -2.4044,  0.00,   0.0
2032,273411.000,  35.630152286, 139.786495418,   42.5047,  5, 23,  2.4180,  2.4546,  6.1240,  1.6682, -2.5576, -2.4044,  0.00,   0.0
2032,273411.100,  35.630156535, 139.786491937,   42.4985,  5, 23,  2.4181,  2.4546,  6.1240,  1.6682, -2.5576, -2.4044,  0.00,   0.0
2032,273411.200,  35.630159420, 139.786486933,   42.4323,  5, 24,  2.3076,  2.4522,  6.1004,  1.6443, -2.5461, -2.3224,  0.00,   0.0
2032,273411.300,  35.630163692, 139.786483423,   42.4338,  5, 24,  2.3076,  2.4522,  6.1004,  1.6443, -2.5460, -2.3225,  0.00,   0.0
2032,273411.400,  35.630166759, 139.786477868,   42.8997,  5, 25,  2.2523,  2.3875,  5.9613,  1.5565, -2.6846, -2.4585,  0.00,   0.0
2032,273411.500,  35.630171057, 139.786474469,   42.8827,  5, 25,  2.2523,  2.3875,  5.9612,  1.5565, -2.6846, -2.4585,  0.00,   0.0
2032,273411.600,  35.630175680, 139.786473550,   42.2473,  5, 25,  2.2523,  2.3875,  5.9612,  1.5565, -2.6846, -2.4585,  0.00,   0.0
2032,273411.700,  35.630179991, 139.786470102,   42.2461,  5, 25,  2.2523,  2.3875,  5.9612,  1.5565, -2.6846, -2.4586,  0.00,   0.0
2032,273411.800,  35.630183789, 139.786465503,   42.2112,  5, 25,  2.2523,  2.3875,  5.9612,  1.5565, -2.6846, -2.4586,  0.00,   0.0
2032,273411.900,  35.630188144, 139.786462085,   42.2040,  5, 25,  2.2523,  2.3875,  5.9612,  1.5565, -2.6845, -2.4586,  0.00,   0.0
2032,273412.000,  35.630192134, 139.786457662,   42.1212,  5, 25,  2.2523,  2.3874,  5.9612,  1.5565, -2.6845, -2.4586,  0.00,   0.0
2032,273412.100,  35.630196584, 139.786454292,   42.0965,  5, 25,  2.2523,  2.3874,  5.9611,  1.5565, -2.6845, -2.4586,  0.00,   0.0
2032,273412.200,  35.630201725, 139.786450227,   41.8450,  5, 25,  2.2523,  2.3874,  5.9611,  1.5565, -2.6845, -2.4586,  0.00,   0.0
2032,273412.300,  35.630206273, 139.786446790,   41.8158,  5, 25,  2.2523,  2.3874,  5.9611,  1.5565, -2.6845, -2.4586,  0.00,   0.0
2032,273412.400,  35.630209072, 139.786442658,   41.6913,  5, 25,  2.2523,  2.3874,  5.9611,  1.5565, -2.6845, -2.4586,  0.00,   0.0
2032,273412.500,  35.630213602, 139.786439090,   41.6867,  5, 25,  2.2523,  2.3874,  5.9611,  1.5565, -2.6845, -2.4586,  0.00,   0.0
2032,273412.600,  35.630221609, 139.786439657,   41.4900,  5, 26,  2.1291,  2.3424,  5.9229,  1.4435, -2.6260, -2.3559,  0.00,   0.0
2032,273412.700,  35.630226240, 139.786435984,   41.4885,  5, 26,  2.1291,  2.3424,  5.9229,  1.4435, -2.6259, -2.3559,  0.00,   0.0
2032,273412.800,  35.630230551, 139.786431778,   41.4331,  5, 26,  2.1291,  2.3424,  5.9229,  1.4435, -2.6259, -2.3559,  0.00,   0.0
2032,273412.900,  35.630235286, 139.786428027,   41.4159,  5, 26,  2.1291,  2.3424,  5.9228,  1.4435, -2.6259, -2.3559,  0.00,   0.0
2032,273413.000,  35.630240026, 139.786424209,   41.7272,  5, 26,  2.1291,  2.3424,  5.9228,  1.4435, -2.6259, -2.3559,  0.00,   0.0
2032,273413.100,  35.630244800, 139.786420395,   41.7101,  5, 26,  2.1291,  2.3424,  5.9228,  1.4435, -2.6258, -2.3559,  0.00,   0.0
2032,273413.200,  35.630247260, 139.786416123,   41.9082,  5, 26,  2.1291,  2.3424,  5.9228,  1.4435, -2.6258, -2.3559,  0.00,   0.0
2032,273413.300,  35.630252087, 139.786412260,   41.9002,  5, 26,  2.1291,  2.3424,  5.9227,  1.4435, -2.6258, -2.3559,  0.00,   0.0
2032,273413.400,  35.630257555, 139.786409389,   41.8047,  5, 26,  2.1291,  2.3424,  5.9227,  1.4435, -2.6258, -2.3559,  0.00,   0.0
2032,273413.500,  35.630262397, 139.786405422,   41.7863,  5, 26,  2.1291,  2.3424,  5.9227,  1.4435, -2.6258, -2.3559,  0.00,   0.0
2032,273413.600,  35.630267567, 139.786399717,   41.7316,  5, 26,  2.1291,  2.3424,  5.9227,  1.4435, -2.6257, -2.3559,  0.00,   0.0
2032,273413.700,  35.630272479, 139.786395674,   41.7189,  5, 26,  2.1291,  2.3424,  5.9227,  1.4435, -2.6257, -2.3559,  0.00,   0.0
2032,273413.800,  35.630278933, 139.786393727,   40.7136,  5, 26,  2.1292,  2.3424,  5.9226,  1.4435, -2.6257, -2.3559,  0.00,   0.0
2032,273413.900,  35.630283833, 139.786389528,   40.6985,  5, 26,  2.1292,  2.3424,  5.9226,  1.4434, -2.6257, -2.3559,  0.00,   0.0
2032,273414.000,  35.630290181, 139.786385420,   41.0675,  5, 25,  2.1702,  2.3965,  6.0771,  1.5153, -2.4909, -2.2312,  0.00,   0.0
2032,273414.100,  35.630295172, 139.786381213,   41.0695,  5, 25,  2.1702,  2.3965,  6.0770,  1.5153, -2.4909, -2.2312,  0.00,   0.0
2032,273414.200,  35.630300345, 139.786377711,   41.5866,  5, 24,  2.2209,  2.4193,  6.2467,  1.5661, -2.3926, -2.0727,  0.00,   0.0
2032,273414.300,  35.630305326, 139.786373344,   41.5689,  5, 24,  2.2209,  2.4193,  6.2467,  1.5661, -2.3926, -2.0727,  0.00,   0.0
2032,273414.400,  35.630311229, 139.786368812,   41.3008,  5, 24,  2.2209,  2.4193,  6.2467,  1.5661, -2.3926, -2.0727,  0.00,   0.0
2032,273414.500,  35.630316194, 139.786364344,   41.2781,  5, 24,  2.2209,  2.4193,  6.2467,  1.5660, -2.3925, -2.0727,  0.00,   0.0
2032,273414.600,  35.630320488, 139.786359954,   41.3211,  5, 24,  2.2209,  2.4193,  6.2467,  1.5660, -2.3925, -2.0727,  0.00,   0.0
2032,273414.700,  35.630325532, 139.786355407,   41.2862,  5, 24,  2.2209,  2.4193,  6.2467,  1.5660, -2.3925, -2.0727,  0.00,   0.0
2032,273414.800,  35.630331643, 139.786352481,   41.7499,  5, 24,  2.2209,  2.4193,  6.2467,  1.5660, -2.3925, -2.0727,  0.00,   0.0
2032,273414.900,  35.630336595, 139.786347863,   41.7264,  5, 24,  2.2209,  2.4193,  6.2467,  1.5660, -2.3924, -2.0727,  0.00,   0.0
2032,273415.000,  35.630341932, 139.786343634,   41.6788,  5, 24,  2.2209,  2.4193,  6.2467,  1.5660, -2.3924, -2.0727,  0.00,   0.0
2032,273415.100,  35.630347038, 139.786339013,   41.6594,  5, 24,  2.2209,  2.4193,  6.2467,  1.5660, -2.3924, -2.0726,  0.00,   0.0
2032,273415.200,  35.630352594, 139.786333524,   41.7425,  5, 24,  2.2209,  2.4193,  6.2467,  1.5660, -2.3924, -2.0726,  0.00,   0.0
2032,273415.300,  35.630357771, 139.786328846,   41.7282,  5, 24,  2.2209,  2.4193,  6.2467,  1.5660, -2.3923, -2.0726,  0.00,   0.0
2032,273415.400,  35.630363545, 139.786323229,   41.4925,  5, 24,  2.2209,  2.4193,  6.2467,  1.5660, -2.3923, -2.0726,  0.00,   0.0
2032,273415.500,  35.630368741, 139.786318573,   41.4752,  5, 24,  2.2209,  2.4193,  6.2467,  1.5660, -2.3923, -2.0726,  0.00,   0.0
2032,273415.600,  35.630372854, 139.786313027,   41.3903,  5, 24,  2.2209,  2.4193,  6.2466,  1.5660, -2.3922, -2.0726,  0.00,   0.0
2032,273415.700,  35.630378090, 139.786308379,   41.3745,  5, 24,  2.2209,  2.4192,  6.2466,  1.5659, -2.3922, -2.0726,  0.00,   0.0
2032,273415.800,  35.630383510, 139.786307264,   41.0432,  5, 24,  2.2209,  2.4192,  6.2466,  1.5659, -2.3922, -2.0726,  0.00,   0.0
2032,273415.900,  35.630388823, 139.786302504,   41.0171,  5, 24,  2.2209,  2.4192,  6.2466,  1.5659, -2.3922, -2.0726,  0.00,   0.0
2032,273416.000,  35.630393311, 139.786297124,   40.9314,  5, 24,  2.2209,  2.4192,  6.2466,  1.5659, -2.3921, -2.0726,  0.00,   0.0
2032,273416.100,  35.630398595, 139.786292448,   40.9187,  5, 24,  2.2209,  2.4192,  6.2466,  1.5659, -2.3921, -2.0726,  0.00,   0.0
2032,273416.200,  35.630403367, 139.786286691,   41.6645,  5, 24,  2.2209,  2.4192,  6.2466,  1.5659, -2.3921, -2.0726,  0.00,   0.0
2032,273416.300,  35.630408650, 139.786282000,   41.6345,  5, 24,  2.2209,  2.4192,  6.2466,  1.5659, -2.3921, -2.0726,  0.00,   0.0
2032,273416.400,  35.630412936, 139.786276509,   40.9716,  5, 24,  2.2209,  2.4192,  6.2466,  1.5659, -2.3920, -2.0726,  0.00,   0.0
2032,273416.500,  35.630418219, 139.786271843,   40.9576,  5, 24,  2.2209,  2.4192,  6.2466,  1.5659, -2.3920, -2.0726,  0.00,   0.0
2032,273416.600,  35.630422287, 139.786266631,   41.2546,  5, 24,  2.2209,  2.4192,  6.2466,  1.5659, -2.3920, -2.0726,  0.00,   0.0
2032,273416.700,  35.630427602, 139.786262010,   41.2451,  5, 24,  2.2209,  2.4192,  6.2466,  1.5659, -2.3919, -2.0726,  0.00,   0.0
2032,273416.800,  35.630434215, 139.786258193,   41.1470,  5, 24,  2.2209,  2.4192,  6.2466,  1.5659, -2.3919, -2.0726,  0.00,   0.0
2032,273416.900,  35.630439499, 139.786253492,   41.1160,  5, 24,  2.2209,  2.4192,  6.2466,  1.5659, -2.3919, -2.0726,  0.00,   0.0
2032,273417.000,  35.630445962, 139.786249697,   40.7882,  5, 24,  2.2209,  2.4192,  6.2466,  1.5658, -2.3919, -2.0726,  0.00,   0.0
2032,273417.100,  35.630451290, 139.786245048,   40.7687,  5, 24,  2.2209,  2.4192,  6.2466,  1.5658, -2.3918, -2.0725,  0.00,   0.0
2032,273417.200,  35.630455524, 139.786240364,   40.9568,  5, 24,  2.2209,  2.4192,  6.2465,  1.5658, -2.3918, -2.0725,  0.00,   0.0
2032,273417.300,  35.630460919, 139.786235673,   40.9333,  5, 24,  2.2209,  2.4192,  6.2465,  1.5658, -2.3918, -2.0725,  0.00,   0.0
2032,273417.400,  35.630465790, 139.786230041,   40.8550,  5, 24,  2.2209,  2.4192,  6.2465,  1.5658, -2.3918, -2.0725,  0.00,   0.0
2032,273417.500,  35.630471228, 139.786225440,   40.8497,  5, 24,  2.2209,  2.4191,  6.2465,  1.5658, -2.3917, -2.0725,  0.00,   0.0
2032,273417.600,  35.630478115, 139.786222842,   40.7946,  5, 24,  2.2209,  2.4191,  6.2465,  1.5658, -2.3917, -2.0725,  0.00,   0.0
2032,273417.700,  35.630483616, 139.786218128,   40.7841,  5, 24,  2.2209,  2.4191,  6.2465,  1.5658, -2.3917, -2.0725,  0.00,   0.0
2032,273417.800,  35.630489770, 139.786213537,   40.5961,  5, 24,  2.2209,  2.4191,  6.2465,  1.5658, -2.3916, -2.0725,  0.00,   0.0
2032,273417.900,  35.630495390, 139.786208897,   40.5714,  5, 24,  2.2209,  2.4191,  6.2465,  1.5658, -2.3916, -2.0725,  0.00,   0.0
2032,273418.000,  35.630500463, 139.786201626,   41.0990,  5, 24,  2.2209,  2.4191,  6.2465,  1.5658, -2.3916, -2.0725,  0.00,   0.0
2032,273418.100,  35.630506128, 139.786196932,   41.0796,  5, 24,  2.2209,  2.4191,  6.2465,  1.5658, -2.3916, -2.0725,  0.00,   0.0
2032,273418.200,  35.630512814, 139.786194024,   41.1223,  5, 24,  2.2209,  2.4191,  6.2465,  1.5657, -2.3915, -2.0725,  0.00,   0.0
2032,273418.300,  35.630518491, 139.786189309,   41.0913,  5, 24,  2.2209,  2.4191,  6.2465,  1.5657, -2.3915, -2.0725,  0.00,   0.0
2032,273418.400,  35.630526103, 139.786185592,   41.1025,  5, 24,  2.2209,  2.4191,  6.2465,  1.5657, -2.3915, -2.0725,  0.00,   0.0
2032,273418.500,  35.630531834, 139.786180823,   41.0848,  5, 24,  2.2209,  2.4191,  6.2465,  1.5657, -2.3915, -2.0725,  0.00,   0.0
2032,273418.600,  35.630537416, 139.786175894,   41.3156,  5, 24,  2.2209,  2.4191,  6.2465,  1.5657, -2.3914, -2.0725,  0.00,   0.0
2032,273418.700,  35.630543192, 139.786171106,   41.2837,  5, 24,  2.2209,  2.4191,  6.2465,  1.5657, -2.3914, -2.0725,  0.00,   0.0
2032,273418.800,  35.630549955, 139.786169699,   40.4187,  5, 24,  2.2209,  2.4191,  6.2465,  1.5657, -2.3914, -2.0725,  0.00,   0.0
2032,273418.900,  35.630555785, 139.786164979,   40.4026,  5, 24,  2.2209,  2.4191,  6.2464,  1.5657, -2.3913, -2.0725,  0.00,   0.0
