% program   : RTKLIB ver.2.4.2
% inp file  : /home/kcwian/Workspace/catkin_gnss/src/GraphGNSSLib/global_fusion/dataset/gps_solution_TST/COM55_200314_084357.obs
% inp file  : /home/kcwian/Workspace/catkin_gnss/src/GraphGNSSLib/global_fusion/dataset/gps_solution_TST/hksc0740ss.20o
% inp file  : /home/kcwian/Workspace/catkin_gnss/src/GraphGNSSLib/global_fusion/dataset/gps_solution_TST/hksc0740ss.20b
% inp file  : /home/kcwian/Workspace/catkin_gnss/src/GraphGNSSLib/global_fusion/dataset/gps_solution_TST/hksc0740.20n
% obs start : 2020/03/14 08:44:32.0 GPST (week2096 549872.0s)
% obs end   : 2020/03/14 09:28:39.0 GPST (week2096 552519.0s)
% pos mode  : kinematic
% freqs     : L1+L2
% solution  : combined
% elev mask : 15.0 deg
% dynamics  : off
% tidecorr  : off
% ionos opt : broadcast
% tropo opt : saastamoinen
% ephemeris : broadcast
% navi sys  : gps glonass galileo qzss sbas
% amb res   : fix and hold
% amb glo   : on
% val thres : 3.0
% antenna1  :                       ( 0.0000  0.0000  0.0000)
% antenna2  :                       ( 0.0000  0.0000  0.0000)
% ref pos   : 22.322172082, 114.141187963,   20.2386
%
% (lat/lon/height=WGS84/ellipsoidal,Q=1:fix,2:float,3:sbas,4:dgps,5:single,6:ppp,ns=# of satellites)
%  GPST        , latitude(deg),longitude(deg), height(m),  Q, ns,  sdn(m),  sde(m),  sdu(m), sdne(m), sdeu(m), sdun(m),age(s), ratio
2096,549872.000,  22.330511195, 114.179541737,   25.4119,  5,  5,  5.7190,  3.1988, 12.5850,  0.4610, -1.0250,  7.6227,  0.00,   0.0
2096,549873.000,  22.330512264, 114.179544150,   25.2291,  5,  5,  5.7216,  3.1984, 12.5886,  0.4589, -1.0237,  7.6262,  0.00,   0.0
2096,549874.000,  22.330508811, 114.179543777,   24.6440,  5,  5,  5.7242,  3.1980, 12.5923,  0.4568, -1.0223,  7.6298,  0.00,   0.0
2096,549875.000,  22.330508434, 114.179545845,   23.3847,  5,  5,  5.7268,  3.1977, 12.5960,  0.4548, -1.0210,  7.6334,  0.00,   0.0
2096,549876.000,  22.330509770, 114.179544603,   22.4957,  5,  5,  5.7294,  3.1973, 12.5997,  0.4527, -1.0197,  7.6370,  0.00,   0.0
2096,549877.000,  22.330511720, 114.179543112,   22.3669,  5,  5,  5.7320,  3.1970, 12.6034,  0.4506, -1.0184,  7.6406,  0.00,   0.0
2096,549878.000,  22.330512692, 114.179540499,   21.7928,  5,  5,  5.7346,  3.1966, 12.6071,  0.4484, -1.0171,  7.6441,  0.00,   0.0
2096,549879.000,  22.330510174, 114.179538308,   20.3580,  5,  5,  5.7373,  3.1963, 12.6107,  0.4463, -1.0158,  7.6477,  0.00,   0.0
2096,549880.000,  22.330508310, 114.179534183,   18.7639,  5,  5,  5.7399,  3.1959, 12.6144,  0.4442, -1.0145,  7.6513,  0.00,   0.0
2096,549881.000,  22.330506394, 114.179532068,   16.6929,  5,  5,  5.7425,  3.1956, 12.6181,  0.4420, -1.0132,  7.6549,  0.00,   0.0
2096,549882.000,  22.330510396, 114.179530572,   15.6552,  5,  5,  5.7451,  3.1952, 12.6218,  0.4398, -1.0119,  7.6585,  0.00,   0.0
2096,549883.000,  22.330512321, 114.179529852,   14.1953,  5,  5,  5.7477,  3.1949, 12.6255,  0.4377, -1.0106,  7.6621,  0.00,   0.0
2096,549884.000,  22.330509960, 114.179525807,   11.8693,  5,  5,  5.7504,  3.1945, 12.6292,  0.4355, -1.0093,  7.6657,  0.00,   0.0
2096,549885.000,  22.330512241, 114.179522376,    9.8838,  5,  5,  5.7530,  3.1941, 12.6329,  0.4333, -1.0080,  7.6693,  0.00,   0.0
2096,549886.000,  22.330511235, 114.179523858,    7.2986,  5,  5,  5.7556,  3.1938, 12.6366,  0.4310, -1.0068,  7.6729,  0.00,   0.0
2096,549887.000,  22.330508179, 114.179524745,    3.7102,  5,  5,  5.7582,  3.1934, 12.6403,  0.4288, -1.0055,  7.6765,  0.00,   0.0
2096,549888.000,  22.330505140, 114.179538993,   -4.1331,  5,  5,  5.7609,  3.1931, 12.6441,  0.4265, -1.0042,  7.6801,  0.00,   0.0
2096,549889.000,  22.330510265, 114.179572245,  -15.4048,  5,  5,  5.7635,  3.1927, 12.6478,  0.4242, -1.0030,  7.6837,  0.00,   0.0
2096,549890.000,  22.330511043, 114.179562124,  -13.9565,  5,  5,  5.7661,  3.1924, 12.6515,  0.4219, -1.0017,  7.6873,  0.00,   0.0
2096,549891.000,  22.330509838, 114.179559617,  -13.6248,  5,  5,  5.7688,  3.1920, 12.6552,  0.4196, -1.0004,  7.6909,  0.00,   0.0
2096,549892.000,  22.330514136, 114.179550544,   -9.5498,  5,  5,  5.7714,  3.1917, 12.6589,  0.4173, -0.9991,  7.6945,  0.00,   0.0
2096,549893.000,  22.330516932, 114.179591663,  -20.8483,  5,  5,  5.7740,  3.1913, 12.6626,  0.4149, -0.9979,  7.6982,  0.00,   0.0
2096,549894.000,  22.330519115, 114.179575428,  -13.8703,  5,  5,  5.7767,  3.1910, 12.6664,  0.4126, -0.9966,  7.7018,  0.00,   0.0
2096,549895.000,  22.330521571, 114.179578568,  -14.0466,  5,  5,  5.7793,  3.1906, 12.6701,  0.4102, -0.9953,  7.7054,  0.00,   0.0
2096,549896.000,  22.330525406, 114.179561732,   -5.9967,  5,  5,  5.7819,  3.1903, 12.6738,  0.4079, -0.9940,  7.7090,  0.00,   0.0
2096,549897.000,  22.330526909, 114.179559920,   -3.2529,  5,  5,  5.7846,  3.1899, 12.6775,  0.4055, -0.9927,  7.7126,  0.00,   0.0
2096,549898.000,  22.330524988, 114.179560744,   -2.4950,  5,  5,  5.7872,  3.1896, 12.6813,  0.4030, -0.9915,  7.7162,  0.00,   0.0
2096,549899.000,  22.330526143, 114.179566683,   -2.0049,  5,  5,  5.7899,  3.1892, 12.6850,  0.4006, -0.9902,  7.7198,  0.00,   0.0
2096,549900.000,  22.330524425, 114.179563436,    0.0027,  5,  5,  5.7925,  3.1889, 12.6887,  0.3981, -0.9890,  7.7235,  0.00,   0.0
2096,549901.000,  22.330516838, 114.179567998,   -0.6701,  5,  5,  5.7952,  3.1886, 12.6924,  0.3957, -0.9877,  7.7271,  0.00,   0.0
2096,549902.000,  22.330518196, 114.179571533,    1.4371,  5,  5,  5.7978,  3.1882, 12.6962,  0.3932, -0.9865,  7.7307,  0.00,   0.0
2096,549903.000,  22.330518202, 114.179574194,    2.9651,  5,  5,  5.8005,  3.1879, 12.6999,  0.3907, -0.9852,  7.7343,  0.00,   0.0
2096,549904.000,  22.330519201, 114.179577441,    3.9313,  5,  5,  5.8031,  3.1875, 12.7037,  0.3881, -0.9840,  7.7380,  0.00,   0.0
2096,549905.000,  22.330521433, 114.179581805,    5.2195,  5,  5,  5.8058,  3.1872, 12.7074,  0.3856, -0.9827,  7.7416,  0.00,   0.0
2096,549906.000,  22.330514509, 114.179584254,    5.0054,  5,  5,  5.8084,  3.1868, 12.7111,  0.3830, -0.9815,  7.7452,  0.00,   0.0
2096,549907.000,  22.330516317, 114.179585204,    6.4214,  5,  5,  5.8111,  3.1865, 12.7149,  0.3804, -0.9802,  7.7489,  0.00,   0.0
2096,549908.000,  22.330518223, 114.179585160,    6.3911,  5,  5,  5.8138,  3.1861, 12.7186,  0.3778, -0.9790,  7.7525,  0.00,   0.0
2096,549909.000,  22.330520951, 114.179582572,    8.1657,  5,  5,  5.8164,  3.1858, 12.7224,  0.3752, -0.9777,  7.7561,  0.00,   0.0
2096,549910.000,  22.330525763, 114.179580771,    9.4029,  5,  5,  5.8191,  3.1854, 12.7261,  0.3725, -0.9765,  7.7598,  0.00,   0.0
2096,549911.000,  22.330525216, 114.179580443,    9.8776,  5,  5,  5.8217,  3.1851, 12.7299,  0.3698, -0.9752,  7.7634,  0.00,   0.0
2096,549912.000,  22.330524974, 114.179579346,   10.2956,  5,  5,  5.8244,  3.1847, 12.7337,  0.3671, -0.9740,  7.7670,  0.00,   0.0
2096,549913.000,  22.330525120, 114.179577502,   10.8374,  5,  5,  5.8271,  3.1844, 12.7374,  0.3644, -0.9728,  7.7707,  0.00,   0.0
2096,549914.000,  22.330528870, 114.179558086,   17.9842,  5,  5,  5.8298,  3.1841, 12.7412,  0.3617, -0.9715,  7.7743,  0.00,   0.0
2096,549915.000,  22.330528533, 114.179557880,   17.3273,  5,  5,  5.8324,  3.1837, 12.7449,  0.3589, -0.9703,  7.7780,  0.00,   0.0
2096,549916.000,  22.330526996, 114.179551570,   17.1566,  5,  5,  5.8351,  3.1834, 12.7487,  0.3561, -0.9690,  7.7816,  0.00,   0.0
2096,549917.000,  22.330526932, 114.179558240,   13.3275,  5,  5,  5.8378,  3.1830, 12.7525,  0.3533, -0.9678,  7.7853,  0.00,   0.0
2096,549918.000,  22.330519435, 114.179545652,   13.5718,  5,  5,  5.8405,  3.1827, 12.7562,  0.3504, -0.9666,  7.7889,  0.00,   0.0
2096,549919.000,  22.330516768, 114.179539119,   13.3869,  5,  5,  5.8431,  3.1823, 12.7600,  0.3476, -0.9653,  7.7926,  0.00,   0.0
2096,549920.000,  22.330517938, 114.179545797,    9.6352,  5,  5,  5.8458,  3.1820, 12.7638,  0.3447, -0.9641,  7.7962,  0.00,   0.0
2096,549921.000,  22.330516715, 114.179526794,   14.0952,  5,  5,  5.8485,  3.1817, 12.7676,  0.3418, -0.9629,  7.7999,  0.00,   0.0
2096,549922.000,  22.330517677, 114.179537372,    7.9533,  5,  5,  5.8512,  3.1813, 12.7713,  0.3388, -0.9617,  7.8035,  0.00,   0.0
2096,549923.000,  22.330512767, 114.179543838,    3.1600,  5,  5,  5.8539,  3.1810, 12.7751,  0.3358, -0.9605,  7.8072,  0.00,   0.0
2096,549924.000,  22.330513134, 114.179540166,    2.4086,  5,  5,  5.8566,  3.1806, 12.7789,  0.3327, -0.9593,  7.8109,  0.00,   0.0
2096,549925.000,  22.330512135, 114.179523909,    6.0604,  5,  5,  5.8593,  3.1803, 12.7827,  0.3297, -0.9580,  7.8145,  0.00,   0.0
2096,549926.000,  22.330508085, 114.179521618,    4.3893,  5,  5,  5.8619,  3.1800, 12.7865,  0.3266, -0.9568,  7.8182,  0.00,   0.0
2096,549927.000,  22.330504049, 114.179518157,    1.6562,  5,  5,  5.8646,  3.1796, 12.7903,  0.3235, -0.9556,  7.8219,  0.00,   0.0
2096,549928.000,  22.330500342, 114.179512943,    0.5079,  5,  5,  5.8673,  3.1793, 12.7941,  0.3204, -0.9544,  7.8255,  0.00,   0.0
2096,549929.000,  22.330504515, 114.179512956,    1.3595,  5,  5,  5.8700,  3.1789, 12.7979,  0.3172, -0.9532,  7.8292,  0.00,   0.0
2096,549930.000,  22.330508525, 114.179514897,    2.7282,  5,  5,  5.8727,  3.1786, 12.8016,  0.3139, -0.9520,  7.8329,  0.00,   0.0
2096,549931.000,  22.330505321, 114.179516006,    2.5459,  5,  5,  5.8754,  3.1783, 12.8054,  0.3107, -0.9508,  7.8365,  0.00,   0.0
2096,549932.000,  22.330498027, 114.179514853,    0.7228,  5,  5,  5.8781,  3.1779, 12.8092,  0.3073, -0.9496,  7.8402,  0.00,   0.0
2096,549933.000,  22.330498467, 114.179516086,    1.0055,  5,  5,  5.8808,  3.1776, 12.8130,  0.3040, -0.9484,  7.8439,  0.00,   0.0
2096,549934.000,  22.330503160, 114.179517393,    1.8025,  5,  5,  5.8835,  3.1772, 12.8168,  0.3006, -0.9472,  7.8475,  0.00,   0.0
2096,549935.000,  22.330498337, 114.179518699,    2.2598,  5,  5,  5.8862,  3.1769, 12.8206,  0.2972, -0.9461,  7.8512,  0.00,   0.0
2096,549936.000,  22.330501476, 114.179521609,    3.4909,  5,  5,  5.8889,  3.1766, 12.8244,  0.2937, -0.9449,  7.8549,  0.00,   0.0
2096,549937.000,  22.330501323, 114.179523832,    4.8004,  5,  5,  5.8916,  3.1762, 12.8283,  0.2901, -0.9437,  7.8586,  0.00,   0.0
2096,549938.000,  22.330507892, 114.179527314,    7.1094,  5,  5,  5.8944,  3.1759, 12.8321,  0.2866, -0.9425,  7.8623,  0.00,   0.0
2096,549939.000,  22.330500683, 114.179527099,    6.0148,  5,  5,  5.8971,  3.1756, 12.8359,  0.2829, -0.9414,  7.8659,  0.00,   0.0
2096,549940.000,  22.330501156, 114.179528876,    6.1973,  5,  5,  5.8998,  3.1752, 12.8397,  0.2793, -0.9402,  7.8696,  0.00,   0.0
2096,549941.000,  22.330500799, 114.179531801,    6.9867,  5,  5,  5.9025,  3.1749, 12.8435,  0.2755, -0.9390,  7.8733,  0.00,   0.0
2096,549942.000,  22.330504319, 114.179533507,    8.3309,  5,  5,  5.9052,  3.1746, 12.8473,  0.2717, -0.9379,  7.8770,  0.00,   0.0
2096,549943.000,  22.330507599, 114.179537208,    9.9941,  5,  5,  5.9079,  3.1742, 12.8511,  0.2679, -0.9367,  7.8807,  0.00,   0.0
2096,549944.000,  22.330507610, 114.179535515,   10.5386,  5,  5,  5.9107,  3.1739, 12.8550,  0.2640, -0.9355,  7.8844,  0.00,   0.0
2096,549945.000,  22.330507759, 114.179536504,   11.0881,  5,  5,  5.9134,  3.1736, 12.8588,  0.2600, -0.9344,  7.8881,  0.00,   0.0
2096,549946.000,  22.330509914, 114.179542998,   12.3066,  5,  5,  5.9161,  3.1732, 12.8626,  0.2559, -0.9332,  7.8918,  0.00,   0.0
2096,549947.000,  22.330519315, 114.179545071,   14.5336,  5,  5,  5.9188,  3.1729, 12.8664,  0.2518, -0.9321,  7.8954,  0.00,   0.0
2096,549948.000,  22.330514221, 114.179549472,   13.4899,  5,  5,  5.9215,  3.1725, 12.8703,  0.2476, -0.9309,  7.8991,  0.00,   0.0
2096,549949.000,  22.330512205, 114.179551568,   13.7218,  5,  5,  5.9243,  3.1722, 12.8741,  0.2434, -0.9298,  7.9028,  0.00,   0.0
2096,549950.000,  22.330510271, 114.179552172,   13.4407,  5,  5,  5.9270,  3.1719, 12.8779,  0.2390, -0.9286,  7.9065,  0.00,   0.0
2096,549951.000,  22.330503758, 114.179551933,   12.3405,  5,  5,  5.9297,  3.1715, 12.8818,  0.2346, -0.9275,  7.9102,  0.00,   0.0
2096,549952.000,  22.330500654, 114.179556928,   11.3272,  5,  5,  5.9325,  3.1712, 12.8856,  0.2300, -0.9263,  7.9140,  0.00,   0.0
2096,549953.000,  22.330504198, 114.179552221,   11.6147,  5,  5,  5.9352,  3.1709, 12.8894,  0.2254, -0.9252,  7.9177,  0.00,   0.0
2096,549954.000,  22.330515215, 114.179548063,   12.7939,  5,  5,  5.9379,  3.1706, 12.8933,  0.2207, -0.9241,  7.9214,  0.00,   0.0
2096,549955.000,  22.330510645, 114.179501465,   25.5377,  5,  5,  5.9407,  3.1702, 12.8971,  0.2160, -0.9229,  7.9251,  0.00,   0.0
2096,549956.000,  22.330511909, 114.179460435,   40.4509,  5,  5,  5.9434,  3.1699, 12.9009,  0.2112, -0.9217,  7.9288,  0.00,   0.0
2096,549957.000,  22.330510973, 114.179447853,   47.3587,  5,  5,  5.9461,  3.1696, 12.9048,  0.2062, -0.9205,  7.9325,  0.00,   0.0
2096,549958.000,  22.330509564, 114.179497261,   29.7042,  5,  5,  5.9489,  3.1692, 12.9086,  0.2008, -0.9195,  7.9362,  0.00,   0.0
2096,549959.000,  22.330511918, 114.179562773,    7.2696,  5,  5,  5.9516,  3.1689, 12.9125,  0.1952, -0.9184,  7.9399,  0.00,   0.0
2096,549960.000,  22.330524869, 114.179524055,   17.5525,  5,  5,  5.9544,  3.1686, 12.9164,  0.1898, -0.9173,  7.9436,  0.00,   0.0
2096,549961.000,  22.330538822, 114.179555173,    4.8304,  5,  5,  5.9571,  3.1682, 12.9202,  0.1841, -0.9162,  7.9473,  0.00,   0.0
2096,549962.000,  22.330566945, 114.179526612,   12.1397,  5,  5,  5.9599,  3.1679, 12.9241,  0.1782, -0.9150,  7.9510,  0.00,   0.0
2096,549963.000,  22.330597844, 114.179538844,    7.2527,  5,  5,  5.9626,  3.1676, 12.9279,  0.1721, -0.9139,  7.9548,  0.00,   0.0
2096,549964.000,  22.330641039, 114.179525556,   13.1319,  5,  5,  5.9654,  3.1672, 12.9318,  0.1658, -0.9128,  7.9585,  0.00,   0.0
2096,549965.000,  22.330682946, 114.179544759,    8.0303,  5,  5,  5.9681,  3.1669, 12.9356,  0.1592, -0.9117,  7.9622,  0.00,   0.0
2096,549966.000,  22.330725233, 114.179532300,   12.8492,  5,  5,  5.9708,  3.1666, 12.9395,  0.1523, -0.9106,  7.9659,  0.00,   0.0
2096,549967.000,  22.330765147, 114.179546153,   11.7950,  5,  5,  5.9736,  3.1663, 12.9434,  0.1450, -0.9095,  7.9696,  0.00,   0.0
2096,549968.000,  22.330805305, 114.179538796,   10.8830,  5,  5,  5.9763,  3.1659, 12.9472,  0.1374, -0.9084,  7.9733,  0.00,   0.0
2096,549969.000,  22.330833905, 114.179534569,    6.5419,  5,  5,  5.9791,  3.1656, 12.9511,  0.1294, -0.9073,  7.9771,  0.00,   0.0
2096,549970.000,  22.330871174, 114.179539730,    8.8579,  5,  5,  5.9818,  3.1653, 12.9550,  0.1207, -0.9062,  7.9808,  0.00,   0.0
2096,549971.000,  22.330915551, 114.179556396,   10.8846,  5,  5,  5.9846,  3.1649, 12.9589,  0.1113, -0.9052,  7.9845,  0.00,   0.0
2096,549972.000,  22.330947316, 114.179546622,    7.4114,  5,  5,  5.9873,  3.1646, 12.9627,  0.1012, -0.9041,  7.9882,  0.00,   0.0
2096,549973.000,  22.330998756, 114.179557434,   11.4277,  5,  5,  5.9901,  3.1643, 12.9666,  0.0898, -0.9030,  7.9919,  0.00,   0.0
2096,549974.000,  22.331042081, 114.179563852,   11.7721,  5,  5,  5.9929,  3.1640, 12.9705,  0.0767, -0.9019,  7.9957,  0.00,   0.0
2096,549975.000,  22.331087252, 114.179562012,   11.8777,  5,  5,  5.9956,  3.1636, 12.9744,  0.0609, -0.9009,  7.9994,  0.00,   0.0
2096,549976.000,  22.331122293, 114.179561467,   11.5015,  5,  5,  5.9984,  3.1633, 12.9782,  0.0391, -0.8998,  8.0031,  0.00,   0.0
2096,549977.000,  22.331155565, 114.179565573,    9.7680,  5,  5,  6.0011,  3.1630, 12.9821, -0.0256, -0.8987,  8.0069,  0.00,   0.0
2096,549978.000,  22.331206832, 114.179569005,   11.4826,  5,  5,  6.0039,  3.1626, 12.9860, -0.0533, -0.8977,  8.0106,  0.00,   0.0
2096,549979.000,  22.331256325, 114.179570937,   11.2664,  5,  5,  6.0067,  3.1623, 12.9899, -0.0709, -0.8966,  8.0143,  0.00,   0.0
2096,549980.000,  22.331298979, 114.179574540,    9.8798,  5,  5,  6.0094,  3.1620, 12.9938, -0.0850, -0.8956,  8.0180,  0.00,   0.0
2096,549981.000,  22.331346594, 114.179580192,    9.9217,  5,  5,  6.0122,  3.1617, 12.9977, -0.0971, -0.8945,  8.0218,  0.00,   0.0
2096,549982.000,  22.331396497, 114.179584166,   10.4309,  5,  5,  6.0150,  3.1613, 13.0016, -0.1078, -0.8935,  8.0255,  0.00,   0.0
2096,549983.000,  22.331443294, 114.179589210,   10.0346,  5,  5,  6.0177,  3.1610, 13.0055, -0.1176, -0.8924,  8.0293,  0.00,   0.0
2096,549984.000,  22.331501388, 114.179595605,   11.0491,  5,  5,  6.0205,  3.1607, 13.0094, -0.1267, -0.8914,  8.0330,  0.00,   0.0
2096,549985.000,  22.331581120, 114.179609794,   14.7669,  5,  6,  3.5446,  3.0641,  6.4954, -1.9463, -3.0858,  3.1105,  0.00,   0.0
2096,549986.000,  22.331611282, 114.179614131,    6.3979,  5,  5,  6.0260,  3.1600, 13.0172, -0.1431, -0.8893,  8.0405,  0.00,   0.0
2096,549987.000,  22.331693175, 114.179610635,   18.1802,  5,  6,  3.5463,  3.0636,  6.4955, -1.9479, -3.0853,  3.1126,  0.00,   0.0
2096,549988.000,  22.331706732, 114.179615896,    5.6428,  5,  5,  6.0316,  3.1594, 13.0250, -0.1578, -0.8873,  8.0480,  0.00,   0.0
2096,549989.000,  22.331754101, 114.179621421,    7.8746,  5,  5,  6.0344,  3.1591, 13.0289, -0.1647, -0.8862,  8.0517,  0.00,   0.0
2096,549990.000,  22.331802528, 114.179621111,   10.6609,  5,  5,  6.0372,  3.1588, 13.0328, -0.1713, -0.8852,  8.0554,  0.00,   0.0
2096,549991.000,  22.331848663, 114.179635332,    9.1740,  5,  5,  6.0399,  3.1584, 13.0367, -0.1778, -0.8842,  8.0592,  0.00,   0.0
2096,549992.000,  22.331904678, 114.179639263,   26.4998,  5,  5,  6.0427,  3.1581, 13.0406, -0.1839, -0.8832,  8.0629,  0.00,   0.0
2096,549993.000,  22.331929270, 114.179668077,   15.0162,  5,  5,  6.0455,  3.1578, 13.0445, -0.1900, -0.8822,  8.0667,  0.00,   0.0
2096,549994.000,  22.331969114, 114.179677396,   35.4061,  5,  5,  6.0483,  3.1575, 13.0484, -0.1958, -0.8812,  8.0704,  0.00,   0.0
2096,549995.000,  22.331970015, 114.179673715,   22.0421,  5,  5,  6.0511,  3.1571, 13.0523, -0.2014, -0.8802,  8.0742,  0.00,   0.0
2096,549996.000,  22.331932198, 114.179690229,    3.8548,  5,  5,  6.0539,  3.1568, 13.0563, -0.2069, -0.8792,  8.0780,  0.00,   0.0
2096,549997.000,  22.331957711, 114.179719523,    8.6006,  5,  5,  6.0567,  3.1565, 13.0602, -0.2124, -0.8783,  8.0818,  0.00,   0.0
2096,549998.000,  22.331968242, 114.179732350,   18.4322,  5,  5,  6.0595,  3.1562, 13.0641, -0.2176, -0.8773,  8.0855,  0.00,   0.0
2096,549999.000,  22.331974526, 114.179780266,   23.9675,  5,  5,  6.0623,  3.1559, 13.0680, -0.2228, -0.8763,  8.0893,  0.00,   0.0
2096,550000.000,  22.331967767, 114.179800707,   17.4807,  5,  4,  6.2903,  5.3296, 17.2307,  2.6668,  6.8883,  9.1772,  0.00,   0.0
2096,550001.000,  22.332057753, 114.179894477,   39.9349,  5,  6,  3.5582,  3.0599,  6.4956, -1.9588, -3.0819,  3.1272,  0.00,   0.0
2096,550002.000,  22.331980521, 114.179946834,   18.6503,  5,  5,  6.0707,  3.1549, 13.0798, -0.2379, -0.8736,  8.1006,  0.00,   0.0
2096,550003.000,  22.332013865, 114.179989520,   31.0559,  5,  6,  3.5599,  3.0594,  6.4956, -1.9603, -3.0814,  3.1293,  0.00,   0.0
2096,550004.000,  22.331968793, 114.180044526,   16.0658,  5,  5,  6.0764,  3.1543, 13.0876, -0.2475, -0.8718,  8.1082,  0.00,   0.0
2096,550005.000,  22.331934681, 114.180091022,    5.4992,  5,  5,  6.0792,  3.1540, 13.0916, -0.2521, -0.8709,  8.1119,  0.00,   0.0
2096,550006.000,  22.331948823, 114.180169627,   12.4850,  5,  5,  6.0820,  3.1536, 13.0955, -0.2568, -0.8700,  8.1157,  0.00,   0.0
2096,550007.000,  22.331944192, 114.180203503,   12.6314,  5,  5,  6.0848,  3.1533, 13.0994, -0.2612, -0.8691,  8.1195,  0.00,   0.0
2096,550008.000,  22.331937488, 114.180250940,   13.0157,  5,  5,  6.0876,  3.1530, 13.1034, -0.2657, -0.8682,  8.1233,  0.00,   0.0
2096,550009.000,  22.331933128, 114.180298338,   10.8809,  5,  5,  6.0905,  3.1527, 13.1073, -0.2700, -0.8673,  8.1271,  0.00,   0.0
2096,550010.000,  22.331929945, 114.180351481,   11.2396,  5,  5,  6.0933,  3.1524, 13.1112, -0.2743, -0.8665,  8.1308,  0.00,   0.0
2096,550011.000,  22.331945637, 114.180400689,   16.9337,  5,  6,  3.5668,  3.0574,  6.4957, -1.9666, -3.0796,  3.1377,  0.00,   0.0
2096,550012.000,  22.331946485, 114.180452696,   17.3014,  5,  6,  3.5676,  3.0572,  6.4958, -1.9674, -3.0793,  3.1388,  0.00,   0.0
2096,550013.000,  22.331937200, 114.180500749,   15.6629,  5,  6,  3.5685,  3.0569,  6.4958, -1.9682, -3.0791,  3.1398,  0.00,   0.0
2096,550014.000,  22.331939423, 114.180549524,   17.5891,  5,  6,  3.5694,  3.0567,  6.4958, -1.9689, -3.0789,  3.1409,  0.00,   0.0
2096,550015.000,  22.331942717, 114.180597001,   19.5924,  5,  6,  3.5702,  3.0564,  6.4958, -1.9697, -3.0786,  3.1419,  0.00,   0.0
2096,550016.000,  22.331911375, 114.180639719,   12.6591,  5,  5,  6.1102,  3.1505, 13.1349, -0.2989, -0.8612,  8.1536,  0.00,   0.0
2096,550017.000,  22.331940046, 114.180677933,   22.9654,  5,  6,  3.5719,  3.0559,  6.4959, -1.9713, -3.0782,  3.1440,  0.00,   0.0
2096,550018.000,  22.331943806, 114.180716465,   25.6186,  5,  6,  3.5728,  3.0557,  6.4959, -1.9721, -3.0779,  3.1451,  0.00,   0.0
2096,550019.000,  22.331968542, 114.180769666,   25.9551,  5,  6,  3.5737,  3.0554,  6.4959, -1.9729, -3.0777,  3.1461,  0.00,   0.0
2096,550020.000,  22.331919992, 114.180788220,   14.6602,  5,  5,  6.1216,  3.1492, 13.1507, -0.3143, -0.8577,  8.1688,  0.00,   0.0
2096,550021.000,  22.332006038, 114.180830250,   39.2423,  5,  6,  3.5754,  3.0549,  6.4959, -1.9744, -3.0773,  3.1482,  0.00,   0.0
2096,550022.000,  22.331903117, 114.180848336,   13.1526,  5,  5,  6.1273,  3.1486, 13.1587, -0.3217, -0.8560,  8.1764,  0.00,   0.0
2096,550023.000,  22.331886801, 114.180863720,   14.2815,  5,  5,  6.1301,  3.1483, 13.1626, -0.3253, -0.8551,  8.1802,  0.00,   0.0
2096,550024.000,  22.331876347, 114.180887365,   13.2749,  5,  5,  6.1330,  3.1480, 13.1666, -0.3289, -0.8542,  8.1840,  0.00,   0.0
2096,550025.000,  22.331953904, 114.180902767,   40.2183,  5,  6,  3.5788,  3.0539,  6.4960, -1.9775, -3.0763,  3.1524,  0.00,   0.0
2096,550026.000,  22.331946920, 114.180914919,   41.8205,  5,  6,  3.5797,  3.0537,  6.4960, -1.9783, -3.0761,  3.1535,  0.00,   0.0
2096,550027.000,  22.331923225, 114.180906835,   47.2232,  5,  6,  3.5806,  3.0534,  6.4961, -1.9791, -3.0759,  3.1545,  0.00,   0.0
2096,550028.000,  22.331914580, 114.180929353,   48.0848,  5,  6,  3.5814,  3.0532,  6.4961, -1.9799, -3.0757,  3.1556,  0.00,   0.0
2096,550029.000,  22.331878657, 114.180939972,   46.6746,  5,  6,  3.5823,  3.0530,  6.4961, -1.9807, -3.0754,  3.1566,  0.00,   0.0
2096,550030.000,  22.331875389, 114.180910457,   49.7605,  5,  6,  3.5832,  3.0527,  6.4961, -1.9814, -3.0752,  3.1577,  0.00,   0.0
2096,550031.000,  22.331724522, 114.180887698,   33.5713,  5,  5,  6.1529,  3.1458, 13.1944, -0.3530, -0.8480,  8.2107,  0.00,   0.0
2096,550032.000,  22.331718985, 114.180894734,   36.3667,  5,  6,  3.5849,  3.0522,  6.4962, -1.9830, -3.0748,  3.1598,  0.00,   0.0
2096,550033.000,  22.331629219, 114.180878331,   24.4156,  5,  6,  3.5858,  3.0520,  6.4962, -1.9838, -3.0745,  3.1609,  0.00,   0.0
2096,550034.000,  22.331622610, 114.180895305,   34.4335,  5,  6,  3.5866,  3.0517,  6.4962, -1.9846, -3.0743,  3.1619,  0.00,   0.0
2096,550035.000,  22.331564089, 114.180878646,   24.0074,  5,  5,  6.1644,  3.1446, 13.2103, -0.3661, -0.8445,  8.2260,  0.00,   0.0
2096,550036.000,  22.331508681, 114.180886586,   13.9957,  5,  5,  6.1673,  3.1443, 13.2143, -0.3693, -0.8437,  8.2298,  0.00,   0.0
2096,550037.000,  22.331454171, 114.180936042,   23.8397,  5,  5,  6.1702,  3.1440, 13.2183, -0.3726, -0.8429,  8.2337,  0.00,   0.0
2096,550038.000,  22.331495278, 114.180912968,   49.1338,  5,  5,  6.1730,  3.1437, 13.2223, -0.3758, -0.8420,  8.2375,  0.00,   0.0
2096,550039.000,  22.331419775, 114.180925715,   35.6798,  5,  5,  6.1759,  3.1434, 13.2263, -0.3789, -0.8412,  8.2413,  0.00,   0.0
2096,550040.000,  22.331350768, 114.180804924,    8.2079,  5,  4,  6.3908,  5.3205, 17.2564,  2.6193,  6.8450,  9.2771,  0.00,   0.0
2096,550041.000,  22.331317294, 114.180826103,   12.9998,  5,  4,  6.3933,  5.3202, 17.2570,  2.6180,  6.8439,  9.2796,  0.00,   0.0
2096,550042.000,  22.331292247, 114.180873621,   30.2808,  5,  5,  4.3823,  3.8943,  6.5314, -3.1682, -3.3278,  3.4268,  0.00,   0.0
2096,550043.000,  22.331256422, 114.180848100,   23.9557,  5,  5,  4.3840,  3.8947,  6.5316, -3.1697, -3.3285,  3.4288,  0.00,   0.0
2096,550044.000,  22.331192091, 114.180846601,   14.8593,  5,  6,  3.5954,  3.0493,  6.4965, -1.9924, -3.0721,  3.1724,  0.00,   0.0
2096,550045.000,  22.331143629, 114.180828337,   10.2122,  5,  5,  6.1932,  3.1415, 13.2503, -0.3973, -0.8360,  8.2644,  0.00,   0.0
2096,550046.000,  22.331162795, 114.180852076,   28.9408,  5,  6,  3.5971,  3.0488,  6.4965, -1.9940, -3.0717,  3.1745,  0.00,   0.0
2096,550047.000,  22.331069977, 114.180862066,   22.4663,  5,  6,  3.5980,  3.0486,  6.4966, -1.9947, -3.0715,  3.1756,  0.00,   0.0
2096,550048.000,  22.331021742, 114.180865276,   23.5172,  5,  6,  3.5989,  3.0484,  6.4966, -1.9955, -3.0712,  3.1767,  0.00,   0.0
2096,550049.000,  22.331008978, 114.180860393,   21.8594,  5,  5,  4.3942,  3.8974,  6.5332, -3.1790, -3.3329,  3.4407,  0.00,   0.0
2096,550050.000,  22.330927763, 114.180839222,   17.5093,  5,  5,  6.2077,  3.1400, 13.2703, -0.4122, -0.8320,  8.2836,  0.00,   0.0
2096,550051.000,  22.330877392, 114.180863026,   16.5783,  5,  5,  6.2106,  3.1397, 13.2743, -0.4152, -0.8312,  8.2874,  0.00,   0.0
2096,550052.000,  22.330839664, 114.180848471,   25.1916,  5,  5,  6.2135,  3.1394, 13.2783, -0.4180, -0.8304,  8.2913,  0.00,   0.0
2096,550053.000,  22.330799635, 114.180880151,   31.6648,  5,  5,  6.2164,  3.1391, 13.2823, -0.4210, -0.8297,  8.2951,  0.00,   0.0
2096,550054.000,  22.330730233, 114.180836209,   21.5082,  5,  5,  6.2193,  3.1388, 13.2863, -0.4238, -0.8288,  8.2990,  0.00,   0.0
2096,550055.000,  22.330719735, 114.180809558,   30.2097,  5,  6,  3.6050,  3.0467,  6.4968, -2.0010, -3.0697,  3.1840,  0.00,   0.0
2096,550056.000,  22.330667677, 114.180832949,   29.0629,  5,  6,  3.6059,  3.0465,  6.4968, -2.0018, -3.0695,  3.1851,  0.00,   0.0
2096,550057.000,  22.330612102, 114.180840976,   31.6352,  5,  6,  3.6068,  3.0462,  6.4969, -2.0026, -3.0693,  3.1862,  0.00,   0.0
2096,550058.000,  22.330534538, 114.180898766,   24.8894,  5,  6,  3.6076,  3.0460,  6.4969, -2.0034, -3.0691,  3.1872,  0.00,   0.0
2096,550059.000,  22.330431285, 114.180884518,   28.7963,  5,  6,  3.6085,  3.0458,  6.4969, -2.0041, -3.0689,  3.1883,  0.00,   0.0
2096,550060.000,  22.330376327, 114.180865291,   28.2436,  5,  6,  3.6094,  3.0455,  6.4970, -2.0049, -3.0687,  3.1893,  0.00,   0.0
2096,550061.000,  22.330331939, 114.180814890,   19.8801,  5,  6,  3.6103,  3.0453,  6.4970, -2.0057, -3.0685,  3.1904,  0.00,   0.0
2096,550062.000,  22.330324446, 114.180798952,   17.8875,  5,  6,  3.6112,  3.0450,  6.4971, -2.0065, -3.0683,  3.1914,  0.00,   0.0
2096,550063.000,  22.330302178, 114.180786211,   15.8232,  5,  6,  3.6121,  3.0448,  6.4971, -2.0073, -3.0680,  3.1925,  0.00,   0.0
2096,550064.000,  22.330328519, 114.180744544,   18.4140,  5,  6,  3.6129,  3.0446,  6.4971, -2.0080, -3.0678,  3.1935,  0.00,   0.0
2096,550065.000,  22.330302309, 114.180728424,   20.2843,  5,  6,  3.6138,  3.0443,  6.4972, -2.0088, -3.0676,  3.1946,  0.00,   0.0
2096,550066.000,  22.330320057, 114.180663310,   25.3170,  5,  6,  3.6147,  3.0441,  6.4972, -2.0096, -3.0674,  3.1956,  0.00,   0.0
2096,550067.000,  22.330321569, 114.180595617,   34.1101,  5,  6,  3.6156,  3.0439,  6.4972, -2.0104, -3.0672,  3.1967,  0.00,   0.0
2096,550068.000,  22.330305548, 114.180568809,   30.5754,  5,  5,  6.2600,  3.1346, 13.3427, -0.4623, -0.8179,  8.3530,  0.00,   0.0
2096,550069.000,  22.330292850, 114.180447710,   39.8445,  5,  6,  3.6173,  3.0434,  6.4973, -2.0119, -3.0668,  3.1988,  0.00,   0.0
2096,550070.000,  22.330340756, 114.180340373,   59.8802,  5,  5,  6.2658,  3.1340, 13.3508, -0.4674, -0.8161,  8.3608,  0.00,   0.0
2096,550071.000,  22.330419273, 114.180433468,  105.7594,  5,  4,  6.4696,  5.3133, 17.2739,  2.5775,  6.8077,  9.3539,  0.00,   0.0
2096,550072.000,  22.330374420, 114.180203924,   66.1829,  5,  5,  6.2716,  3.1334, 13.3588, -0.4726, -0.8144,  8.3685,  0.00,   0.0
2096,550073.000,  22.330385205, 114.180122300,   79.3115,  5,  5,  6.2746,  3.1331, 13.3629, -0.4751, -0.8136,  8.3723,  0.00,   0.0
2096,550074.000,  22.330393442, 114.180044802,   59.0312,  5,  5,  6.2775,  3.1328, 13.3670, -0.4776, -0.8128,  8.3762,  0.00,   0.0
2096,550075.000,  22.330318199, 114.179951508,   37.1316,  5,  5,  6.2804,  3.1325, 13.3710, -0.4801, -0.8120,  8.3801,  0.00,   0.0
2096,550076.000,  22.330385939, 114.179904475,   59.0979,  5,  5,  6.2833,  3.1322, 13.3751, -0.4827, -0.8112,  8.3840,  0.00,   0.0
2096,550077.000,  22.330396716, 114.179819270,   54.9057,  5,  5,  6.2863,  3.1319, 13.3791, -0.4852, -0.8104,  8.3878,  0.00,   0.0
2096,550078.000,  22.330367955, 114.179716327,   50.0770,  5,  5,  6.2892,  3.1316, 13.3832, -0.4877, -0.8095,  8.3917,  0.00,   0.0
2096,550079.000,  22.330372862, 114.179635039,   52.9642,  5,  5,  6.2921,  3.1313, 13.3872, -0.4901, -0.8087,  8.3956,  0.00,   0.0
2096,550080.000,  22.330460373, 114.179590478,   70.0289,  5,  5,  6.2950,  3.1310, 13.3913, -0.4927, -0.8080,  8.3995,  0.00,   0.0
2096,550081.000,  22.330382815, 114.179486363,   56.5368,  5,  5,  6.2980,  3.1308, 13.3953, -0.4951, -0.8071,  8.4034,  0.00,   0.0
2096,550082.000,  22.330375127, 114.179473444,   53.3865,  5,  5,  6.3009,  3.1305, 13.3994, -0.4976, -0.8065,  8.4072,  0.00,   0.0
2096,550083.000,  22.330300171, 114.179398198,   29.6104,  5,  6,  3.6297,  3.0401,  6.4979, -2.0228, -3.0638,  3.2135,  0.00,   0.0
2096,550084.000,  22.330364885, 114.179448119,   27.3515,  5,  6,  3.6306,  3.0399,  6.4979, -2.0236, -3.0636,  3.2145,  0.00,   0.0
2096,550085.000,  22.330435380, 114.179498813,   14.8673,  5,  5,  6.3097,  3.1296, 13.4116, -0.5053, -0.8046,  8.4189,  0.00,   0.0
2096,550086.000,  22.330439771, 114.179510771,   12.6414,  5,  6,  3.6324,  3.0395,  6.4980, -2.0251, -3.0633,  3.2167,  0.00,   0.0
2096,550087.000,  22.330558793, 114.179539175,   33.9840,  5,  6,  3.6333,  3.0392,  6.4981, -2.0259, -3.0631,  3.2177,  0.00,   0.0
2096,550088.000,  22.330577354, 114.179533009,   22.4969,  5,  6,  3.6341,  3.0390,  6.4981, -2.0267, -3.0629,  3.2188,  0.00,   0.0
2096,550089.000,  22.330628664, 114.179530437,   31.3551,  5,  6,  3.6350,  3.0388,  6.4982, -2.0275, -3.0627,  3.2198,  0.00,   0.0
2096,550090.000,  22.330643281, 114.179541332,   18.7204,  5,  5,  6.3243,  3.1281, 13.4319, -0.5179, -0.8016,  8.4382,  0.00,   0.0
2096,550091.000,  22.330662560, 114.179534828,   13.0567,  5,  5,  6.3273,  3.1278, 13.4360, -0.5204, -0.8009,  8.4421,  0.00,   0.0
2096,550092.000,  22.330714079, 114.179542140,   12.3986,  5,  5,  6.3302,  3.1275, 13.4400, -0.5229, -0.8004,  8.4460,  0.00,   0.0
2096,550093.000,  22.330764670, 114.179567253,   16.3477,  5,  5,  6.3331,  3.1272, 13.4441, -0.5254, -0.7998,  8.4499,  0.00,   0.0
2096,550094.000,  22.330809199, 114.179550033,   13.1980,  5,  5,  6.3360,  3.1269, 13.4482, -0.5278, -0.7992,  8.4538,  0.00,   0.0
2096,550095.000,  22.330850108, 114.179537491,    9.2702,  5,  5,  6.3390,  3.1266, 13.4523, -0.5303, -0.7986,  8.4576,  0.00,   0.0
2096,550096.000,  22.330912679, 114.179565043,   11.2628,  5,  5,  6.3419,  3.1264, 13.4563, -0.5327, -0.7981,  8.4615,  0.00,   0.0
2096,550097.000,  22.330969123, 114.179556889,   13.0195,  5,  5,  6.3448,  3.1261, 13.4604, -0.5352, -0.7975,  8.4654,  0.00,   0.0
2096,550098.000,  22.331016141, 114.179550285,   11.5267,  5,  5,  6.3478,  3.1258, 13.4645, -0.5376, -0.7969,  8.4693,  0.00,   0.0
2096,550099.000,  22.331077062, 114.179558447,   14.8810,  5,  5,  6.3507,  3.1255, 13.4685, -0.5400, -0.7963,  8.4732,  0.00,   0.0
2096,550100.000,  22.331113524, 114.179553846,   10.9334,  5,  5,  6.3537,  3.1252, 13.4726, -0.5424, -0.7958,  8.4771,  0.00,   0.0
2096,550101.000,  22.331157487, 114.179556378,   10.0799,  5,  5,  6.3566,  3.1249, 13.4767, -0.5449, -0.7952,  8.4809,  0.00,   0.0
2096,550102.000,  22.331249301, 114.179570081,   23.2667,  5,  6,  3.6466,  3.0359,  6.4988, -2.0376, -3.0601,  3.2335,  0.00,   0.0
2096,550103.000,  22.331241223, 114.179570638,   10.4156,  5,  5,  6.3625,  3.1243, 13.4849, -0.5497, -0.7942,  8.4887,  0.00,   0.0
2096,550104.000,  22.331291210, 114.179581329,   10.8883,  5,  5,  6.3654,  3.1240, 13.4889, -0.5521, -0.7936,  8.4926,  0.00,   0.0
2096,550105.000,  22.331342381, 114.179586220,   10.8998,  5,  5,  6.3684,  3.1237, 13.4930, -0.5545, -0.7931,  8.4965,  0.00,   0.0
2096,550106.000,  22.331396032, 114.179589429,   10.5518,  5,  5,  6.3713,  3.1235, 13.4971, -0.5569, -0.7926,  8.5004,  0.00,   0.0
2096,550107.000,  22.331453353, 114.179592130,   10.0918,  5,  5,  6.3743,  3.1232, 13.5012, -0.5592, -0.7921,  8.5043,  0.00,   0.0
2096,550108.000,  22.331508828, 114.179593888,   10.2993,  5,  5,  6.3772,  3.1229, 13.5053, -0.5616, -0.7916,  8.5082,  0.00,   0.0
2096,550109.000,  22.331574666, 114.179590355,   12.6742,  5,  4,  6.4423,  4.4951, 18.4426, -1.7903, -6.4204,  9.1469,  0.00,   0.0
2096,550110.000,  22.331641550, 114.179599676,   10.8070,  5,  5,  6.3831,  3.1223, 13.5135, -0.5663, -0.7906,  8.5160,  0.00,   0.0
2096,550111.000,  22.331702780, 114.179595210,   15.8792,  5,  5,  6.3861,  3.1220, 13.5175, -0.5687, -0.7901,  8.5198,  0.00,   0.0
2096,550112.000,  22.331762150, 114.179597224,   12.1101,  5,  5,  6.3890,  3.1217, 13.5216, -0.5710, -0.7896,  8.5237,  0.00,   0.0
2096,550113.000,  22.331807857, 114.179619069,    6.3752,  5,  5,  6.3920,  3.1214, 13.5257, -0.5734, -0.7891,  8.5276,  0.00,   0.0
2096,550114.000,  22.331862260, 114.179628774,    6.9608,  5,  5,  6.3949,  3.1211, 13.5298, -0.5757, -0.7887,  8.5315,  0.00,   0.0
2096,550115.000,  22.331909873, 114.179624164,    6.6984,  5,  5,  6.3979,  3.1209, 13.5339, -0.5780, -0.7882,  8.5354,  0.00,   0.0
2096,550116.000,  22.331979011, 114.179700459,   26.9421,  5,  6,  3.6592,  3.0328,  6.4996, -2.0485, -3.0575,  3.2483,  0.00,   0.0
2096,550117.000,  22.331963095, 114.179707256,   14.2743,  5,  6,  3.6601,  3.0326,  6.4997, -2.0493, -3.0573,  3.2493,  0.00,   0.0
2096,550118.000,  22.331993288, 114.179714555,   22.5957,  5,  6,  3.6610,  3.0324,  6.4997, -2.0501, -3.0571,  3.2504,  0.00,   0.0
2096,550119.000,  22.331908783, 114.179710131,    4.1622,  5,  5,  6.4098,  3.1197, 13.5503, -0.5873, -0.7865,  8.5511,  0.00,   0.0
2096,550120.000,  22.331988160, 114.179764527,   25.7733,  5,  5,  6.4127,  3.1194, 13.5544, -0.5897, -0.7861,  8.5550,  0.00,   0.0
2096,550121.000,  22.331963350, 114.179822728,   14.2023,  5,  5,  6.4157,  3.1192, 13.5585, -0.5920, -0.7858,  8.5589,  0.00,   0.0
2096,550122.000,  22.331957770, 114.179877932,   12.1991,  5,  5,  6.4187,  3.1189, 13.5626, -0.5944, -0.7855,  8.5628,  0.00,   0.0
2096,550123.000,  22.331920274, 114.179903437,    8.4147,  5,  5,  6.4217,  3.1186, 13.5667, -0.5967, -0.7851,  8.5667,  0.00,   0.0
2096,550124.000,  22.332021737, 114.180004346,   25.0044,  5,  6,  3.6664,  3.0311,  6.5001, -2.0548, -3.0561,  3.2568,  0.00,   0.0
2096,550125.000,  22.331925588, 114.180048580,    2.4512,  5,  5,  6.4277,  3.1180, 13.5749, -0.6014, -0.7845,  8.5746,  0.00,   0.0
2096,550126.000,  22.331931568, 114.180036307,   17.4388,  5,  5,  6.4307,  3.1177, 13.5790, -0.6036, -0.7840,  8.5785,  0.00,   0.0
2096,550127.000,  22.331926186, 114.180095065,   11.2338,  5,  5,  6.4336,  3.1175, 13.5831, -0.6059, -0.7837,  8.5824,  0.00,   0.0
2096,550128.000,  22.331936109, 114.180141098,   13.3225,  5,  5,  6.4366,  3.1172, 13.5872, -0.6082, -0.7834,  8.5863,  0.00,   0.0
2096,550129.000,  22.331937447, 114.180189388,   13.6287,  5,  5,  6.4396,  3.1169, 13.5913, -0.6105, -0.7831,  8.5903,  0.00,   0.0
2096,550130.000,  22.331936143, 114.180246593,   13.6037,  5,  5,  6.4426,  3.1166, 13.5954, -0.6128, -0.7828,  8.5942,  0.00,   0.0
2096,550131.000,  22.331940852, 114.180306346,   15.5826,  5,  5,  6.4456,  3.1163, 13.5996, -0.6151, -0.7825,  8.5981,  0.00,   0.0
2096,550132.000,  22.331947342, 114.180367059,   15.9142,  5,  6,  3.6737,  3.0294,  6.5006, -2.0611, -3.0547,  3.2653,  0.00,   0.0
2096,550133.000,  22.331940112, 114.180421029,   14.3444,  5,  5,  6.4516,  3.1158, 13.6078, -0.6197, -0.7820,  8.6060,  0.00,   0.0
2096,550134.000,  22.331950453, 114.180483822,   17.7127,  5,  6,  3.6755,  3.0290,  6.5007, -2.0627, -3.0543,  3.2674,  0.00,   0.0
2096,550135.000,  22.331951170, 114.180544964,   20.3469,  5,  6,  3.6764,  3.0288,  6.5008, -2.0635, -3.0542,  3.2685,  0.00,   0.0
2096,550136.000,  22.331934958, 114.180592438,   17.5537,  5,  6,  3.6773,  3.0286,  6.5009, -2.0642, -3.0540,  3.2695,  0.00,   0.0
2096,550137.000,  22.331919081, 114.180644206,   13.8029,  5,  6,  3.6783,  3.0284,  6.5009, -2.0650, -3.0538,  3.2706,  0.00,   0.0
2096,550138.000,  22.331926416, 114.180671498,   24.0657,  5,  5,  6.4666,  3.1144, 13.6283, -0.6310, -0.7807,  8.6256,  0.00,   0.0
2096,550139.000,  22.331933997, 114.180739159,   20.4194,  5,  6,  3.6801,  3.0280,  6.5011, -2.0666, -3.0535,  3.2727,  0.00,   0.0
2096,550140.000,  22.331902876, 114.180772333,   14.0066,  5,  5,  6.4726,  3.1138, 13.6366, -0.6355, -0.7802,  8.6335,  0.00,   0.0
2096,550141.000,  22.331905458, 114.180812473,   13.9527,  5,  5,  6.4756,  3.1136, 13.6407, -0.6377, -0.7799,  8.6374,  0.00,   0.0
2096,550142.000,  22.331897079, 114.180837960,   11.3751,  5,  5,  6.4786,  3.1133, 13.6448, -0.6399, -0.7796,  8.6413,  0.00,   0.0
2096,550143.000,  22.331890388, 114.180846190,   16.1938,  5,  5,  6.4816,  3.1130, 13.6490, -0.6421, -0.7793,  8.6453,  0.00,   0.0
2096,550144.000,  22.331980397, 114.180881512,   38.8862,  5,  6,  3.6846,  3.0270,  6.5014, -2.0705, -3.0526,  3.2781,  0.00,   0.0
2096,550145.000,  22.331967959, 114.180891631,   40.8942,  5,  6,  3.6856,  3.0268,  6.5015, -2.0713, -3.0525,  3.2791,  0.00,   0.0
2096,550146.000,  22.331953348, 114.180895986,   45.3795,  5,  6,  3.6865,  3.0266,  6.5015, -2.0721, -3.0523,  3.2802,  0.00,   0.0
2096,550147.000,  22.331801747, 114.180910077,   12.9950,  5,  5,  6.4936,  3.1119, 13.6655, -0.6509, -0.7783,  8.6611,  0.00,   0.0
2096,550148.000,  22.331753390, 114.180906158,   13.0567,  5,  5,  6.4967,  3.1116, 13.6696, -0.6530, -0.7780,  8.6650,  0.00,   0.0
2096,550149.000,  22.331746056, 114.180882963,   11.6715,  5,  5,  6.4997,  3.1113, 13.6737, -0.6552, -0.7776,  8.6690,  0.00,   0.0
2096,550150.000,  22.331741521, 114.180928883,   28.1162,  5,  5,  6.5027,  3.1111, 13.6778, -0.6574, -0.7774,  8.6729,  0.00,   0.0
2096,550151.000,  22.331761084, 114.180951703,   41.1708,  5,  6,  3.6911,  3.0255,  6.5019, -2.0760, -3.0515,  3.2855,  0.00,   0.0
2096,550152.000,  22.331696976, 114.180912857,   36.5127,  5,  6,  3.6920,  3.0253,  6.5020, -2.0768, -3.0513,  3.2866,  0.00,   0.0
2096,550153.000,  22.331591952, 114.180941391,   27.6581,  5,  6,  3.6929,  3.0251,  6.5020, -2.0776, -3.0511,  3.2877,  0.00,   0.0
2096,550154.000,  22.331578221, 114.180880130,   25.5804,  5,  5,  6.5148,  3.1100, 13.6944, -0.6659, -0.7763,  8.6887,  0.00,   0.0
2096,550155.000,  22.331536498, 114.180902407,   31.4619,  5,  5,  6.5179,  3.1097, 13.6985, -0.6680, -0.7761,  8.6927,  0.00,   0.0
2096,550156.000,  22.331465042, 114.180920540,   26.8967,  5,  5,  6.5209,  3.1094, 13.7027, -0.6702, -0.7759,  8.6966,  0.00,   0.0
2096,550157.000,  22.331433472, 114.180934042,   38.9695,  5,  5,  6.5239,  3.1092, 13.7068, -0.6723, -0.7757,  8.7006,  0.00,   0.0
2096,550158.000,  22.331390333, 114.180911641,   33.4703,  5,  5,  6.5270,  3.1089, 13.7109, -0.6744, -0.7754,  8.7045,  0.00,   0.0
2096,550159.000,  22.331322311, 114.180910782,   31.6338,  5,  5,  6.5300,  3.1086, 13.7151, -0.6765, -0.7752,  8.7085,  0.00,   0.0
2096,550160.000,  22.331325252, 114.180926144,   37.5879,  5,  6,  3.6994,  3.0237,  6.5025, -2.0831, -3.0500,  3.2951,  0.00,   0.0
2096,550161.000,  22.331273826, 114.180832560,   29.7961,  5,  6,  3.7003,  3.0235,  6.5026, -2.0839, -3.0498,  3.2962,  0.00,   0.0
2096,550162.000,  22.331214966, 114.180857258,   16.6260,  5,  6,  3.7012,  3.0233,  6.5027, -2.0847, -3.0497,  3.2973,  0.00,   0.0
2096,550163.000,  22.331152618, 114.180846121,   17.0243,  5,  5,  6.5422,  3.1075, 13.7317, -0.6849, -0.7743,  8.7244,  0.00,   0.0
2096,550164.000,  22.331171791, 114.180844108,   31.5152,  5,  6,  3.7031,  3.0229,  6.5028, -2.0863, -3.0494,  3.2994,  0.00,   0.0
2096,550165.000,  22.331089129, 114.180834659,   18.1888,  5,  5,  6.5483,  3.1070, 13.7400, -0.6891, -0.7739,  8.7323,  0.00,   0.0
2096,550166.000,  22.331105862, 114.180850117,   35.2049,  5,  6,  3.7049,  3.0225,  6.5030, -2.0878, -3.0490,  3.3016,  0.00,   0.0
2096,550167.000,  22.330992609, 114.180884386,   20.0089,  5,  6,  3.7059,  3.0224,  6.5031, -2.0886, -3.0489,  3.3026,  0.00,   0.0
2096,550168.000,  22.330953562, 114.180865190,   29.3531,  5,  6,  3.7068,  3.0222,  6.5031, -2.0894, -3.0487,  3.3037,  0.00,   0.0
2096,550169.000,  22.330924375, 114.180807596,   15.6752,  5,  5,  6.5605,  3.1059, 13.7566, -0.6975, -0.7731,  8.7482,  0.00,   0.0
2096,550170.000,  22.330877747, 114.180832549,    2.5569,  5,  5,  6.5635,  3.1057, 13.7607, -0.6996, -0.7730,  8.7521,  0.00,   0.0
2096,550171.000,  22.330878618, 114.180826250,   24.6506,  5,  5,  6.5665,  3.1054, 13.7648, -0.7017, -0.7729,  8.7561,  0.00,   0.0
2096,550172.000,  22.330819881, 114.180855810,   21.9158,  5,  5,  6.5696,  3.1051, 13.7690, -0.7038, -0.7728,  8.7601,  0.00,   0.0
2096,550173.000,  22.330796186, 114.180865118,   20.4932,  5,  5,  6.5727,  3.1049, 13.7732, -0.7058, -0.7727,  8.7640,  0.00,   0.0
2096,550174.000,  22.330746113, 114.180848900,   26.3920,  5,  5,  6.5757,  3.1046, 13.7773, -0.7079, -0.7725,  8.7680,  0.00,   0.0
2096,550175.000,  22.330790226, 114.180833326,   47.3924,  5,  6,  3.7133,  3.0208,  6.5037, -2.0949, -3.0476,  3.3112,  0.00,   0.0
2096,550176.000,  22.330669187, 114.180789486,   25.4900,  5,  5,  6.5818,  3.1041, 13.7856, -0.7120, -0.7722,  8.7759,  0.00,   0.0
2096,550177.000,  22.330603309, 114.180794132,   12.7782,  5,  5,  6.5849,  3.1038, 13.7898, -0.7141, -0.7721,  8.7799,  0.00,   0.0
2096,550178.000,  22.330664684, 114.180818196,   42.6014,  5,  6,  3.7161,  3.0202,  6.5039, -2.0973, -3.0472,  3.3144,  0.00,   0.0
2096,550179.000,  22.330526708, 114.180810291,   17.6663,  5,  5,  6.5910,  3.1033, 13.7981, -0.7182, -0.7719,  8.7879,  0.00,   0.0
2096,550180.000,  22.330488567, 114.180846289,   17.8763,  5,  5,  6.5941,  3.1030, 13.8022, -0.7203, -0.7719,  8.7918,  0.00,   0.0
2096,550181.000,  22.330497649, 114.180892017,   28.0644,  5,  6,  3.7189,  3.0196,  6.5042, -2.0997, -3.0467,  3.3176,  0.00,   0.0
2096,550182.000,  22.330466524, 114.180863987,   28.8016,  5,  6,  3.7198,  3.0194,  6.5043, -2.1005, -3.0466,  3.3187,  0.00,   0.0
2096,550183.000,  22.330420522, 114.180879762,   24.6381,  5,  6,  3.7208,  3.0193,  6.5043, -2.1012, -3.0464,  3.3197,  0.00,   0.0
2096,550184.000,  22.330366871, 114.180900574,   21.9237,  5,  6,  3.7217,  3.0191,  6.5044, -2.1020, -3.0463,  3.3208,  0.00,   0.0
2096,550185.000,  22.330426033, 114.180868392,   23.1578,  5,  6,  3.7226,  3.0189,  6.5045, -2.1028, -3.0461,  3.3219,  0.00,   0.0
2096,550186.000,  22.330390436, 114.180860692,   24.7938,  5,  6,  3.7236,  3.0187,  6.5046, -2.1036, -3.0460,  3.3230,  0.00,   0.0
2096,550187.000,  22.330377837, 114.180883857,   14.9064,  5,  6,  3.7245,  3.0185,  6.5047, -2.1044, -3.0458,  3.3240,  0.00,   0.0
2096,550188.000,  22.330384999, 114.180849741,   26.9888,  5,  6,  3.7254,  3.0183,  6.5048, -2.1052, -3.0457,  3.3251,  0.00,   0.0
2096,550189.000,  22.330413746, 114.180812335,   36.2666,  5,  6,  3.7264,  3.0181,  6.5048, -2.1060, -3.0455,  3.3262,  0.00,   0.0
2096,550190.000,  22.330354141, 114.180817749,   26.4346,  5,  6,  3.7273,  3.0179,  6.5049, -2.1068, -3.0454,  3.3272,  0.00,   0.0
2096,550191.000,  22.330316833, 114.180824892,   16.0776,  5,  6,  3.7283,  3.0177,  6.5050, -2.1075, -3.0452,  3.3283,  0.00,   0.0
2096,550192.000,  22.330333764, 114.180802769,   18.8547,  5,  6,  3.7292,  3.0175,  6.5051, -2.1083, -3.0451,  3.3294,  0.00,   0.0
2096,550193.000,  22.330345072, 114.180755964,   17.1695,  5,  6,  3.7301,  3.0173,  6.5052, -2.1091, -3.0449,  3.3304,  0.00,   0.0
2096,550194.000,  22.330321781, 114.180772554,   18.9751,  5,  6,  3.7311,  3.0172,  6.5053, -2.1099, -3.0448,  3.3315,  0.00,   0.0
2096,550195.000,  22.330323332, 114.180752333,   19.4290,  5,  6,  3.7320,  3.0170,  6.5054, -2.1107, -3.0447,  3.3326,  0.00,   0.0
2096,550196.000,  22.330284052, 114.180769795,   18.7635,  5,  6,  3.7329,  3.0168,  6.5055, -2.1115, -3.0445,  3.3337,  0.00,   0.0
2096,550197.000,  22.330299620, 114.180739101,   16.5057,  5,  6,  3.7339,  3.0166,  6.5055, -2.1123, -3.0444,  3.3347,  0.00,   0.0
2096,550198.000,  22.330325807, 114.180702405,   24.2704,  5,  6,  3.7348,  3.0164,  6.5056, -2.1130, -3.0442,  3.3358,  0.00,   0.0
2096,550199.000,  22.330323942, 114.180654556,   29.7936,  5,  5,  3.9479,  4.3626,  9.1214, -0.6663, -5.4238,  1.7238,  0.00,   0.0
2096,550200.000,  22.330339711, 114.180655084,   22.7772,  5,  5,  3.9484,  4.3617,  9.1210, -0.6723, -5.4230,  1.7282,  0.00,   0.0
2096,550201.000,  22.330321740, 114.180633667,   15.9669,  5,  5,  3.9490,  4.3609,  9.1207, -0.6783, -5.4221,  1.7325,  0.00,   0.0
2096,550202.000,  22.330297043, 114.180579631,   17.6259,  5,  5,  3.9495,  4.3600,  9.1203, -0.6843, -5.4213,  1.7369,  0.00,   0.0
2096,550203.000,  22.330318531, 114.180535667,   20.6217,  5,  5,  3.9500,  4.3592,  9.1199, -0.6902, -5.4204,  1.7412,  0.00,   0.0
2096,550204.000,  22.330361312, 114.180532061,   21.7670,  5,  5,  3.9506,  4.3583,  9.1195, -0.6960, -5.4196,  1.7455,  0.00,   0.0
2096,550205.000,  22.330381062, 114.180382428,   61.4867,  5,  5,  6.6707,  3.0965, 13.9063, -0.7706, -0.7709,  8.8912,  0.00,   0.0
2096,550206.000,  22.330289211, 114.180402955,   -2.6006,  5,  4,  6.8430,  4.4447, 19.6005, -2.3279, -6.6804, 10.0003,  0.00,   0.0
2096,550207.000,  22.330340026, 114.180373483,   23.7686,  5,  5,  3.9522,  4.3558,  9.1184, -0.7132, -5.4170,  1.7583,  0.00,   0.0
2096,550208.000,  22.330338308, 114.180193251,   62.0775,  5,  5,  6.6799,  3.0957, 13.9189, -0.7764, -0.7708,  8.9032,  0.00,   0.0
2096,550209.000,  22.330404928, 114.180165461,   75.1654,  5,  5,  6.6830,  3.0954, 13.9230, -0.7784, -0.7709,  8.9071,  0.00,   0.0
2096,550210.000,  22.330347828, 114.180201050,   19.8204,  5,  4,  6.8611,  4.4430, 19.6525, -2.3489, -6.6927, 10.0379,  0.00,   0.0
2096,550211.000,  22.330360657, 114.180044472,   50.5259,  5,  5,  6.6892,  3.0949, 13.9314, -0.7823, -0.7709,  8.9151,  0.00,   0.0
2096,550212.000,  22.330294425, 114.180067107,    4.3026,  5,  4,  6.8703,  4.4422, 19.6787, -2.3594, -6.6989, 10.0568,  0.00,   0.0
2096,550213.000,  22.330360290, 114.180059417,   20.7648,  5,  4,  6.8748,  4.4419, 19.6918, -2.3647, -6.7020, 10.0662,  0.00,   0.0
2096,550214.000,  22.330353801, 114.179934516,   43.4428,  5,  6,  3.7499,  3.0134,  6.5071, -2.1256, -3.0419,  3.3529,  0.00,   0.0
2096,550215.000,  22.330333731, 114.179921426,   41.2764,  5,  6,  3.7508,  3.0133,  6.5072, -2.1264, -3.0418,  3.3540,  0.00,   0.0
2096,550216.000,  22.330380306, 114.179844386,   49.9558,  5,  5,  6.7046,  3.0936, 13.9523, -0.7920, -0.7711,  8.9350,  0.00,   0.0
2096,550217.000,  22.330350235, 114.179764318,   44.2247,  5,  5,  6.7077,  3.0934, 13.9565, -0.7939, -0.7711,  8.9390,  0.00,   0.0
2096,550218.000,  22.330350654, 114.179800944,   10.6606,  5,  4,  6.8979,  4.4399, 19.7578, -2.3909, -6.7177, 10.1138,  0.00,   0.0
2096,550219.000,  22.330310671, 114.179674776,    8.7059,  5,  4,  6.9025,  4.4395, 19.7710, -2.3961, -6.7208, 10.1233,  0.00,   0.0
2096,550220.000,  22.330364359, 114.179629358,   43.0582,  5,  5,  6.7169,  3.0926, 13.9690, -0.7997, -0.7714,  8.9510,  0.00,   0.0
2096,550221.000,  22.330380704, 114.179547900,   42.7087,  5,  6,  3.7565,  3.0122,  6.5078, -2.1311, -3.0410,  3.3604,  0.00,   0.0
2096,550222.000,  22.330401593, 114.179493670,   49.1546,  5,  5,  6.7231,  3.0921, 13.9774, -0.8036, -0.7715,  8.9590,  0.00,   0.0
2096,550223.000,  22.330325235, 114.179427851,   39.7945,  5,  6,  3.7584,  3.0118,  6.5080, -2.1327, -3.0407,  3.3625,  0.00,   0.0
2096,550224.000,  22.330380233, 114.179440993,   36.1275,  5,  6,  3.7593,  3.0116,  6.5081, -2.1335, -3.0406,  3.3636,  0.00,   0.0
2096,550225.000,  22.330405557, 114.179491588,   18.4004,  5,  6,  3.7603,  3.0114,  6.5082, -2.1343, -3.0404,  3.3647,  0.00,   0.0
2096,550226.000,  22.330444096, 114.179523875,   10.3006,  5,  6,  3.7612,  3.0113,  6.5083, -2.1350, -3.0403,  3.3657,  0.00,   0.0
2096,550227.000,  22.330461927, 114.179511354,    6.3610,  5,  5,  6.7386,  3.0908, 13.9983, -0.8134, -0.7726,  8.9789,  0.00,   0.0
2096,550228.000,  22.330532353, 114.179513168,   19.0405,  5,  6,  3.7631,  3.0109,  6.5085, -2.1366, -3.0401,  3.3679,  0.00,   0.0
2096,550229.000,  22.330553156, 114.179540740,   13.0256,  5,  5,  6.7447,  3.0903, 14.0067, -0.8174, -0.7731,  8.9869,  0.00,   0.0
2096,550230.000,  22.330556611, 114.179525084,   14.8325,  5,  5,  6.7478,  3.0901, 14.0109, -0.8193, -0.7733,  8.9909,  0.00,   0.0
2096,550231.000,  22.330632570, 114.179453243,   57.0440,  5,  5,  6.7509,  3.0898, 14.0150, -0.8212, -0.7734,  8.9948,  0.00,   0.0
2096,550232.000,  22.330662978, 114.179432805,   69.9569,  5,  5,  6.7540,  3.0896, 14.0192, -0.8232, -0.7736,  8.9988,  0.00,   0.0
2096,550233.000,  22.330611160, 114.179546827,   16.2922,  5,  4,  6.9683,  4.4346, 19.9591, -2.4694, -6.7663, 10.2583,  0.00,   0.0
2096,550234.000,  22.330629811, 114.179504628,   35.5278,  5,  5,  6.7602,  3.0891, 14.0276, -0.8271, -0.7743,  9.0068,  0.00,   0.0
2096,550235.000,  22.330624558, 114.179521494,   30.2681,  5,  6,  3.7698,  3.0097,  6.5092, -2.1421, -3.0392,  3.3754,  0.00,   0.0
2096,550236.000,  22.330605732, 114.179533002,   21.7760,  5,  6,  3.7707,  3.0095,  6.5093, -2.1429, -3.0390,  3.3765,  0.00,   0.0
2096,550237.000,  22.330605233, 114.179517831,   26.1113,  5,  6,  3.7717,  3.0093,  6.5094, -2.1437, -3.0389,  3.3775,  0.00,   0.0
2096,550238.000,  22.330581292, 114.179489738,   28.9749,  5,  6,  3.7727,  3.0092,  6.5095, -2.1445, -3.0388,  3.3786,  0.00,   0.0
2096,550239.000,  22.330571299, 114.179493710,   24.8003,  5,  6,  3.7736,  3.0090,  6.5096, -2.1453, -3.0387,  3.3797,  0.00,   0.0
2096,550240.000,  22.330560000, 114.179498444,   20.7939,  5,  6,  3.7746,  3.0088,  6.5097, -2.1461, -3.0385,  3.3808,  0.00,   0.0
2096,550241.000,  22.330578377, 114.179522918,   16.8020,  5,  6,  3.7755,  3.0087,  6.5099, -2.1469, -3.0384,  3.3819,  0.00,   0.0
2096,550242.000,  22.330584089, 114.179541926,   12.1008,  5,  6,  3.7765,  3.0085,  6.5100, -2.1477, -3.0383,  3.3829,  0.00,   0.0
2096,550243.000,  22.330594607, 114.179559639,    9.5742,  5,  6,  3.7774,  3.0083,  6.5101, -2.1485, -3.0382,  3.3840,  0.00,   0.0
2096,550244.000,  22.330589306, 114.179541214,   13.2089,  5,  6,  3.7784,  3.0081,  6.5102, -2.1493, -3.0381,  3.3851,  0.00,   0.0
2096,550245.000,  22.330605408, 114.179524374,   20.7454,  5,  6,  3.7794,  3.0080,  6.5103, -2.1501, -3.0379,  3.3862,  0.00,   0.0
2096,550246.000,  22.330605458, 114.179520136,   21.1862,  5,  6,  3.7803,  3.0078,  6.5104, -2.1508, -3.0378,  3.3872,  0.00,   0.0
2096,550247.000,  22.330619867, 114.179538780,   18.3536,  5,  6,  3.7813,  3.0076,  6.5105, -2.1516, -3.0377,  3.3883,  0.00,   0.0
2096,550248.000,  22.330610438, 114.179521426,   24.1554,  5,  6,  3.7822,  3.0075,  6.5106, -2.1524, -3.0376,  3.3894,  0.00,   0.0
2096,550249.000,  22.330607692, 114.179511883,   25.7611,  5,  6,  3.7832,  3.0073,  6.5107, -2.1532, -3.0375,  3.3905,  0.00,   0.0
2096,550250.000,  22.330620774, 114.179532318,   24.1481,  5,  6,  3.7842,  3.0071,  6.5108, -2.1540, -3.0373,  3.3915,  0.00,   0.0
2096,550251.000,  22.330632203, 114.179533211,   27.1354,  5,  6,  3.7851,  3.0070,  6.5109, -2.1548, -3.0372,  3.3926,  0.00,   0.0
2096,550252.000,  22.330615772, 114.179506972,   30.5093,  5,  6,  3.7861,  3.0068,  6.5110, -2.1556, -3.0371,  3.3937,  0.00,   0.0
2096,550253.000,  22.330605544, 114.179488816,   33.8400,  5,  6,  3.7870,  3.0066,  6.5112, -2.1564, -3.0370,  3.3948,  0.00,   0.0
2096,550254.000,  22.330612659, 114.179499938,   34.4144,  5,  6,  3.7880,  3.0064,  6.5113, -2.1572, -3.0369,  3.3959,  0.00,   0.0
2096,550255.000,  22.330593886, 114.179488912,   33.6591,  5,  6,  3.7890,  3.0063,  6.5114, -2.1580, -3.0368,  3.3969,  0.00,   0.0
2096,550256.000,  22.330587053, 114.179487312,   32.3591,  5,  6,  3.7899,  3.0061,  6.5115, -2.1588, -3.0366,  3.3980,  0.00,   0.0
2096,550257.000,  22.330581894, 114.179480151,   32.5755,  5,  6,  3.7909,  3.0059,  6.5116, -2.1595, -3.0365,  3.3991,  0.00,   0.0
2096,550258.000,  22.330569890, 114.179462736,   35.2661,  5,  6,  3.7919,  3.0058,  6.5117, -2.1603, -3.0364,  3.4002,  0.00,   0.0
2096,550259.000,  22.330568519, 114.179459947,   35.8603,  5,  6,  3.7928,  3.0056,  6.5118, -2.1611, -3.0363,  3.4012,  0.00,   0.0
2096,550260.000,  22.330568161, 114.179446969,   38.8235,  5,  6,  3.7938,  3.0055,  6.5119, -2.1619, -3.0362,  3.4023,  0.00,   0.0
2096,550261.000,  22.330560182, 114.179450513,   37.3925,  5,  6,  3.7948,  3.0053,  6.5121, -2.1627, -3.0361,  3.4034,  0.00,   0.0
2096,550262.000,  22.330551858, 114.179466522,   31.9497,  5,  6,  3.7957,  3.0051,  6.5122, -2.1635, -3.0360,  3.4045,  0.00,   0.0
2096,550263.000,  22.330548373, 114.179465701,   32.8540,  5,  6,  3.7967,  3.0050,  6.5123, -2.1643, -3.0359,  3.4056,  0.00,   0.0
2096,550264.000,  22.330560686, 114.179481943,   32.2588,  5,  6,  3.7977,  3.0048,  6.5124, -2.1651, -3.0357,  3.4066,  0.00,   0.0
2096,550265.000,  22.330563501, 114.179485366,   31.0977,  5,  6,  3.7986,  3.0046,  6.5125, -2.1659, -3.0356,  3.4077,  0.00,   0.0
2096,550266.000,  22.330570821, 114.179487804,   33.3562,  5,  6,  3.7996,  3.0045,  6.5126, -2.1667, -3.0355,  3.4088,  0.00,   0.0
2096,550267.000,  22.330574324, 114.179488748,   32.6541,  5,  6,  3.8006,  3.0043,  6.5128, -2.1675, -3.0354,  3.4099,  0.00,   0.0
2096,550268.000,  22.330577798, 114.179505548,   29.6043,  5,  6,  3.8015,  3.0041,  6.5129, -2.1683, -3.0353,  3.4110,  0.00,   0.0
2096,550269.000,  22.330587478, 114.179520772,   27.9762,  5,  6,  3.8025,  3.0040,  6.5130, -2.1691, -3.0352,  3.4120,  0.00,   0.0
2096,550270.000,  22.330595632, 114.179539492,   24.0311,  5,  6,  3.8035,  3.0038,  6.5131, -2.1698, -3.0351,  3.4131,  0.00,   0.0
2096,550271.000,  22.330602959, 114.179553357,   22.2124,  5,  6,  3.8044,  3.0037,  6.5132, -2.1706, -3.0350,  3.4142,  0.00,   0.0
2096,550272.000,  22.330609366, 114.179571346,   16.1891,  5,  6,  3.8054,  3.0035,  6.5133, -2.1714, -3.0349,  3.4153,  0.00,   0.0
2096,550273.000,  22.330630197, 114.179585256,   16.0428,  5,  6,  3.8064,  3.0033,  6.5135, -2.1722, -3.0348,  3.4164,  0.00,   0.0
2096,550274.000,  22.330639746, 114.179597572,   14.9138,  5,  6,  3.8074,  3.0032,  6.5136, -2.1730, -3.0347,  3.4175,  0.00,   0.0
2096,550275.000,  22.330644841, 114.179595452,   16.7142,  5,  6,  3.8083,  3.0030,  6.5137, -2.1738, -3.0346,  3.4185,  0.00,   0.0
2096,550276.000,  22.330667412, 114.179588434,   23.4326,  5,  6,  3.8093,  3.0029,  6.5138, -2.1746, -3.0345,  3.4196,  0.00,   0.0
2096,550277.000,  22.330686371, 114.179593942,   24.8750,  5,  6,  3.8103,  3.0027,  6.5139, -2.1754, -3.0344,  3.4207,  0.00,   0.0
2096,550278.000,  22.330695134, 114.179593113,   27.2901,  5,  6,  3.8112,  3.0025,  6.5141, -2.1762, -3.0343,  3.4218,  0.00,   0.0
2096,550279.000,  22.330702657, 114.179583070,   30.3506,  5,  6,  3.8122,  3.0024,  6.5142, -2.1770, -3.0341,  3.4229,  0.00,   0.0
2096,550280.000,  22.330717622, 114.179582232,   33.5124,  5,  6,  3.8132,  3.0022,  6.5143, -2.1778, -3.0340,  3.4239,  0.00,   0.0
2096,550281.000,  22.330733232, 114.179571646,   40.6237,  5,  6,  3.8142,  3.0021,  6.5144, -2.1786, -3.0339,  3.4250,  0.00,   0.0
2096,550282.000,  22.330726509, 114.179558954,   41.6815,  5,  6,  3.8151,  3.0019,  6.5146, -2.1794, -3.0338,  3.4261,  0.00,   0.0
2096,550283.000,  22.330715856, 114.179518087,   51.4158,  5,  6,  3.8161,  3.0017,  6.5147, -2.1802, -3.0337,  3.4272,  0.00,   0.0
2096,550284.000,  22.330718704, 114.179537090,   46.7656,  5,  6,  3.8171,  3.0016,  6.5148, -2.1809, -3.0336,  3.4283,  0.00,   0.0
2096,550285.000,  22.330700168, 114.179510955,   49.6439,  5,  6,  3.8181,  3.0014,  6.5149, -2.1817, -3.0335,  3.4293,  0.00,   0.0
2096,550286.000,  22.330685133, 114.179505231,   48.4111,  5,  6,  3.8190,  3.0013,  6.5150, -2.1825, -3.0334,  3.4304,  0.00,   0.0
2096,550287.000,  22.330682593, 114.179500118,   49.8928,  5,  6,  3.8200,  3.0011,  6.5152, -2.1833, -3.0333,  3.4315,  0.00,   0.0
2096,550288.000,  22.330680559, 114.179505124,   49.0077,  5,  6,  3.8210,  3.0010,  6.5153, -2.1841, -3.0332,  3.4326,  0.00,   0.0
2096,550289.000,  22.330669368, 114.179495294,   49.6527,  5,  6,  3.8220,  3.0008,  6.5154, -2.1849, -3.0331,  3.4337,  0.00,   0.0
2096,550290.000,  22.330665923, 114.179509626,   45.0235,  5,  6,  3.8229,  3.0007,  6.5155, -2.1857, -3.0330,  3.4348,  0.00,   0.0
2096,550291.000,  22.330658429, 114.179512942,   43.7448,  5,  6,  3.8239,  3.0005,  6.5157, -2.1865, -3.0329,  3.4358,  0.00,   0.0
2096,550292.000,  22.330654920, 114.179518867,   42.0147,  5,  6,  3.8249,  3.0004,  6.5158, -2.1873, -3.0328,  3.4369,  0.00,   0.0
2096,550293.000,  22.330661620, 114.179518766,   44.0116,  5,  6,  3.8259,  3.0002,  6.5159, -2.1881, -3.0327,  3.4380,  0.00,   0.0
2096,550294.000,  22.330665537, 114.179501903,   48.9766,  5,  6,  3.8269,  3.0000,  6.5160, -2.1889, -3.0326,  3.4391,  0.00,   0.0
2096,550295.000,  22.330655188, 114.179473735,   54.9517,  5,  6,  3.8278,  2.9999,  6.5162, -2.1897, -3.0325,  3.4402,  0.00,   0.0
2096,550296.000,  22.330641285, 114.179467418,   53.9543,  5,  6,  3.8288,  2.9997,  6.5163, -2.1905, -3.0325,  3.4413,  0.00,   0.0
2096,550297.000,  22.330638713, 114.179474059,   50.5900,  5,  6,  3.8298,  2.9996,  6.5164, -2.1913, -3.0324,  3.4424,  0.00,   0.0
2096,550298.000,  22.330640454, 114.179491374,   45.8358,  5,  6,  3.8308,  2.9994,  6.5166, -2.1921, -3.0323,  3.4434,  0.00,   0.0
2096,550299.000,  22.330646961, 114.179494388,   47.0908,  5,  6,  3.8318,  2.9993,  6.5167, -2.1929, -3.0322,  3.4445,  0.00,   0.0
2096,550300.000,  22.330645082, 114.179501682,   44.4627,  5,  6,  3.8328,  2.9991,  6.5168, -2.1937, -3.0321,  3.4456,  0.00,   0.0
2096,550301.000,  22.330642733, 114.179508335,   42.2282,  5,  6,  3.8337,  2.9990,  6.5169, -2.1945, -3.0320,  3.4467,  0.00,   0.0
2096,550302.000,  22.330645809, 114.179504105,   42.0128,  5,  6,  3.8347,  2.9988,  6.5171, -2.1953, -3.0319,  3.4478,  0.00,   0.0
2096,550303.000,  22.330636797, 114.179499722,   39.4409,  5,  6,  3.8357,  2.9987,  6.5172, -2.1961, -3.0318,  3.4489,  0.00,   0.0
2096,550304.000,  22.330633220, 114.179499418,   39.1811,  5,  6,  3.8367,  2.9985,  6.5173, -2.1968, -3.0317,  3.4499,  0.00,   0.0
2096,550305.000,  22.330637500, 114.179494373,   40.1855,  5,  6,  3.8377,  2.9984,  6.5175, -2.1976, -3.0316,  3.4510,  0.00,   0.0
2096,550306.000,  22.330635853, 114.179492323,   40.9297,  5,  6,  3.8387,  2.9982,  6.5176, -2.1984, -3.0315,  3.4521,  0.00,   0.0
2096,550307.000,  22.330632684, 114.179490790,   40.5182,  5,  6,  3.8396,  2.9981,  6.5177, -2.1992, -3.0314,  3.4532,  0.00,   0.0
2096,550308.000,  22.330618746, 114.179489819,   37.5754,  5,  6,  3.8406,  2.9979,  6.5179, -2.2000, -3.0313,  3.4543,  0.00,   0.0
2096,550309.000,  22.330617832, 114.179488828,   36.8062,  5,  6,  3.8416,  2.9978,  6.5180, -2.2008, -3.0313,  3.4554,  0.00,   0.0
2096,550310.000,  22.330626965, 114.179488628,   38.8404,  5,  6,  3.8426,  2.9976,  6.5181, -2.2016, -3.0312,  3.4565,  0.00,   0.0
2096,550311.000,  22.330619756, 114.179492474,   37.7339,  5,  6,  3.8436,  2.9975,  6.5183, -2.2024, -3.0311,  3.4575,  0.00,   0.0
