% program   : RTKLIB ver.2.4.2
% inp file  : /home/kcwian/Workspace/catkin_gnss/src/GraphGNSSLib/global_fusion/dataset/gps_solution_TST/COM55_200314_084357.obs
% inp file  : /home/kcwian/Workspace/catkin_gnss/src/GraphGNSSLib/global_fusion/dataset/gps_solution_TST/hksc0740ss.20o
% inp file  : /home/kcwian/Workspace/catkin_gnss/src/GraphGNSSLib/global_fusion/dataset/gps_solution_TST/hksc0740.20b
% inp file  : /home/kcwian/Workspace/catkin_gnss/src/GraphGNSSLib/global_fusion/dataset/gps_solution_TST/hksc0740.20n
% obs start : 2020/03/14 08:44:32.0 GPST (week2096 549872.0s)
% obs end   : 2020/03/14 09:28:39.0 GPST (week2096 552519.0s)
% pos mode  : kinematic
% freqs     : L1+L2
% solution  : combined
% elev mask : 15.0 deg
% dynamics  : off
% tidecorr  : off
% ionos opt : broadcast
% tropo opt : saastamoinen
% ephemeris : broadcast
% navi sys  : gps glonass galileo qzss sbas
% amb res   : fix and hold
% amb glo   : on
% val thres : 3.0
% antenna1  :                       ( 0.0000  0.0000  0.0000)
% antenna2  :                       ( 0.0000  0.0000  0.0000)
% ref pos   : 22.322172082, 114.141187963,   20.2386
%
% (lat/lon/height=WGS84/ellipsoidal,Q=1:fix,2:float,3:sbas,4:dgps,5:single,6:ppp,ns=# of satellites)
%  GPST        , latitude(deg),longitude(deg), height(m),  Q, ns,  sdn(m),  sde(m),  sdu(m), sdne(m), sdeu(m), sdun(m),age(s), ratio
2096,549872.000,  22.330483088, 114.179536227,   18.4523,  5, 16,  1.6073,  2.1049,  4.3836,  0.3433, -1.7360, -0.9504,  0.00,   0.0
2096,549873.000,  22.330482481, 114.179539459,   17.5811,  5, 16,  1.6073,  2.1048,  4.3832,  0.3428, -1.7355, -0.9503,  0.00,   0.0
2096,549874.000,  22.330481229, 114.179539236,   16.7467,  5, 16,  1.6074,  2.1046,  4.3828,  0.3424, -1.7351, -0.9502,  0.00,   0.0
2096,549875.000,  22.330484348, 114.179527114,   17.3705,  5, 17,  1.5971,  1.8927,  4.3293,  0.5334, -1.5437, -1.0133,  0.00,   0.0
2096,549876.000,  22.330485519, 114.179525093,   16.7647,  5, 17,  1.5971,  1.8925,  4.3290,  0.5332, -1.5432, -1.0132,  0.00,   0.0
2096,549877.000,  22.330485516, 114.179529005,   15.6112,  5, 17,  1.5972,  1.8924,  4.3286,  0.5330, -1.5428, -1.0131,  0.00,   0.0
2096,549878.000,  22.330485290, 114.179530377,   15.3974,  5, 17,  1.5972,  1.8923,  4.3282,  0.5327, -1.5423, -1.0131,  0.00,   0.0
2096,549879.000,  22.330483968, 114.179482991,   25.9329,  5, 18,  1.5967,  1.6353,  3.9529,  0.4941, -0.8368, -0.9763,  0.00,   0.0
2096,549880.000,  22.330488139, 114.179501960,   24.7254,  5, 19,  1.5887,  1.5825,  3.7212,  0.4217, -1.1172, -1.0805,  0.00,   0.0
2096,549881.000,  22.330489083, 114.179489616,   25.8979,  5, 19,  1.5887,  1.5824,  3.7210,  0.4215, -1.1169, -1.0804,  0.00,   0.0
2096,549882.000,  22.330491695, 114.179479078,   27.4111,  5, 19,  1.5888,  1.5823,  3.7208,  0.4213, -1.1166, -1.0804,  0.00,   0.0
2096,549883.000,  22.330495653, 114.179482345,   27.0131,  5, 19,  1.5889,  1.5822,  3.7206,  0.4211, -1.1163, -1.0804,  0.00,   0.0
2096,549884.000,  22.330496678, 114.179483985,   25.5951,  5, 19,  1.5889,  1.5821,  3.7204,  0.4209, -1.1160, -1.0803,  0.00,   0.0
2096,549885.000,  22.330499765, 114.179493605,   22.8222,  5, 19,  1.5890,  1.5820,  3.7202,  0.4207, -1.1157, -1.0803,  0.00,   0.0
2096,549886.000,  22.330501865, 114.179488712,   23.5422,  5, 19,  1.5890,  1.5819,  3.7200,  0.4205, -1.1154, -1.0802,  0.00,   0.0
2096,549887.000,  22.330503559, 114.179483035,   23.1412,  5, 19,  1.5891,  1.5818,  3.7198,  0.4202, -1.1151, -1.0802,  0.00,   0.0
2096,549888.000,  22.330508629, 114.179479658,   22.2719,  5, 19,  1.5891,  1.5817,  3.7196,  0.4200, -1.1148, -1.0802,  0.00,   0.0
2096,549894.000,  22.330522994, 114.179507097,   15.3617,  5, 19,  1.5895,  1.5812,  3.7184,  0.4188, -1.1130, -1.0799,  0.00,   0.0
2096,549895.000,  22.330526483, 114.179559152,    6.5328,  5, 19,  1.5895,  1.5811,  3.7182,  0.4186, -1.1127, -1.0799,  0.00,   0.0
2096,549896.000,  22.330519738, 114.179555694,    8.2995,  5, 18,  1.5903,  1.8554,  4.0793,  0.4721, -1.6933, -1.1175,  0.00,   0.0
2096,549897.000,  22.330516969, 114.179554865,    8.5177,  5, 18,  1.5904,  1.8552,  4.0790,  0.4718, -1.6929, -1.1174,  0.00,   0.0
2096,549898.000,  22.330515444, 114.179552982,    9.4192,  5, 18,  1.5904,  1.8550,  4.0787,  0.4715, -1.6926, -1.1173,  0.00,   0.0
2096,549899.000,  22.330516756, 114.179554790,    9.7824,  5, 18,  1.5905,  1.8549,  4.0784,  0.4713, -1.6922, -1.1172,  0.00,   0.0
2096,549900.000,  22.330513483, 114.179553606,   10.2602,  5, 18,  1.5906,  1.8547,  4.0781,  0.4710, -1.6918, -1.1171,  0.00,   0.0
2096,549901.000,  22.330512092, 114.179553004,   10.4938,  5, 18,  1.5906,  1.8546,  4.0778,  0.4707, -1.6915, -1.1170,  0.00,   0.0
2096,549902.000,  22.330508364, 114.179553295,   10.1199,  5, 18,  1.5907,  1.8544,  4.0775,  0.4705, -1.6911, -1.1169,  0.00,   0.0
2096,549903.000,  22.330508472, 114.179551583,   10.9075,  5, 18,  1.5907,  1.8542,  4.0772,  0.4702, -1.6908, -1.1168,  0.00,   0.0
2096,549904.000,  22.330507096, 114.179552753,   10.5601,  5, 18,  1.5908,  1.8541,  4.0769,  0.4699, -1.6904, -1.1167,  0.00,   0.0
2096,549905.000,  22.330507163, 114.179553568,   10.8943,  5, 18,  1.5908,  1.8539,  4.0766,  0.4697, -1.6900, -1.1166,  0.00,   0.0
2096,549906.000,  22.330506553, 114.179552967,   11.6210,  5, 18,  1.5909,  1.8537,  4.0763,  0.4694, -1.6897, -1.1165,  0.00,   0.0
2096,549907.000,  22.330504849, 114.179552722,   11.5754,  5, 18,  1.5909,  1.8536,  4.0760,  0.4691, -1.6893, -1.1164,  0.00,   0.0
2096,549908.000,  22.330505111, 114.179552027,   11.9040,  5, 18,  1.5910,  1.8534,  4.0756,  0.4689, -1.6889, -1.1163,  0.00,   0.0
2096,549909.000,  22.330501036, 114.179495749,   22.1990,  5, 19,  1.5903,  1.5797,  3.7155,  0.4157, -1.1085, -1.0794,  0.00,   0.0
2096,549910.000,  22.330502024, 114.179501684,   21.1163,  5, 19,  1.5904,  1.5796,  3.7153,  0.4154, -1.1081, -1.0794,  0.00,   0.0
2096,549911.000,  22.330500476, 114.179493886,   22.4129,  5, 19,  1.5904,  1.5795,  3.7151,  0.4152, -1.1078, -1.0793,  0.00,   0.0
2096,549912.000,  22.330499544, 114.179502726,   20.8644,  5, 19,  1.5905,  1.5794,  3.7149,  0.4150, -1.1075, -1.0793,  0.00,   0.0
2096,549913.000,  22.330500578, 114.179498810,   21.4744,  5, 19,  1.5905,  1.5793,  3.7147,  0.4148, -1.1072, -1.0792,  0.00,   0.0
2096,549914.000,  22.330496147, 114.179536537,   15.0949,  5, 18,  1.5913,  1.8525,  4.0738,  0.4673, -1.6867, -1.1158,  0.00,   0.0
2096,549915.000,  22.330495492, 114.179539216,   15.3330,  5, 18,  1.5914,  1.8523,  4.0735,  0.4670, -1.6864, -1.1157,  0.00,   0.0
2096,549916.000,  22.330495479, 114.179535224,   15.2888,  5, 18,  1.5914,  1.8521,  4.0732,  0.4667, -1.6860, -1.1156,  0.00,   0.0
2096,549917.000,  22.330496429, 114.179504803,   19.8694,  5, 19,  1.5907,  1.5790,  3.7139,  0.4140, -1.1060, -1.0791,  0.00,   0.0
2096,549918.000,  22.330495305, 114.179504768,   20.8239,  5, 19,  1.5908,  1.5789,  3.7137,  0.4138, -1.1057, -1.0791,  0.00,   0.0
2096,549919.000,  22.330493777, 114.179504194,   19.7474,  5, 19,  1.5909,  1.5788,  3.7135,  0.4135, -1.1054, -1.0790,  0.00,   0.0
2096,549920.000,  22.330500052, 114.179544661,   12.4143,  5, 19,  1.5909,  1.5787,  3.7133,  0.4133, -1.1051, -1.0790,  0.00,   0.0
2096,549921.000,  22.330493323, 114.179531686,   14.9985,  5, 18,  1.5917,  1.8513,  4.0716,  0.4654, -1.6842, -1.1151,  0.00,   0.0
2096,549922.000,  22.330499674, 114.179537900,   12.7249,  5, 18,  1.5917,  1.8512,  4.0713,  0.4651, -1.6838, -1.1150,  0.00,   0.0
2096,549923.000,  22.330503730, 114.179541467,   11.5571,  5, 18,  1.5918,  1.8510,  4.0710,  0.4648, -1.6834, -1.1149,  0.00,   0.0
2096,549924.000,  22.330503447, 114.179540265,   10.8232,  5, 18,  1.5918,  1.8508,  4.0707,  0.4646, -1.6831, -1.1148,  0.00,   0.0
2096,549925.000,  22.330499252, 114.179531796,   12.6498,  5, 18,  1.5919,  1.8507,  4.0704,  0.4643, -1.6827, -1.1147,  0.00,   0.0
2096,549926.000,  22.330499351, 114.179532175,   11.9968,  5, 18,  1.5919,  1.8505,  4.0701,  0.4640, -1.6823, -1.1146,  0.00,   0.0
2096,549927.000,  22.330499121, 114.179532210,   10.6943,  5, 18,  1.5920,  1.8504,  4.0698,  0.4638, -1.6820, -1.1145,  0.00,   0.0
2096,549928.000,  22.330498316, 114.179529493,   10.2968,  5, 18,  1.5920,  1.8502,  4.0695,  0.4635, -1.6816, -1.1144,  0.00,   0.0
2096,549929.000,  22.330498339, 114.179532297,    9.6377,  5, 18,  1.5921,  1.8500,  4.0692,  0.4632, -1.6812, -1.1143,  0.00,   0.0
2096,549930.000,  22.330498586, 114.179533699,    9.7203,  5, 18,  1.5921,  1.8499,  4.0689,  0.4629, -1.6809, -1.1142,  0.00,   0.0
2096,549931.000,  22.330498981, 114.179535312,   10.6901,  5, 18,  1.5922,  1.8497,  4.0686,  0.4627, -1.6805, -1.1141,  0.00,   0.0
2096,549932.000,  22.330499336, 114.179532414,   10.6438,  5, 18,  1.5923,  1.8496,  4.0683,  0.4624, -1.6801, -1.1140,  0.00,   0.0
2096,549933.000,  22.330494745, 114.179536979,    9.9760,  5, 18,  1.5923,  1.8494,  4.0680,  0.4621, -1.6798, -1.1139,  0.00,   0.0
2096,549934.000,  22.330491369, 114.179530648,    6.4742,  5, 18,  1.5924,  1.8492,  4.0677,  0.4619, -1.6794, -1.1139,  0.00,   0.0
2096,549935.000,  22.330494054, 114.179527605,    7.8599,  5, 18,  1.5924,  1.8491,  4.0673,  0.4616, -1.6790, -1.1138,  0.00,   0.0
2096,549936.000,  22.330493597, 114.179523023,    7.2532,  5, 18,  1.5925,  1.8489,  4.0670,  0.4613, -1.6787, -1.1137,  0.00,   0.0
2096,549937.000,  22.330488980, 114.179531470,    8.3529,  5, 18,  1.5925,  1.8488,  4.0667,  0.4611, -1.6783, -1.1136,  0.00,   0.0
2096,549938.000,  22.330488476, 114.179529289,    7.5040,  5, 18,  1.5926,  1.8486,  4.0664,  0.4608, -1.6779, -1.1135,  0.00,   0.0
2096,549939.000,  22.330490371, 114.179525601,    7.8859,  5, 18,  1.5926,  1.8484,  4.0661,  0.4605, -1.6776, -1.1134,  0.00,   0.0
2096,549940.000,  22.330490276, 114.179526541,    8.5116,  5, 18,  1.5927,  1.8483,  4.0658,  0.4602, -1.6772, -1.1133,  0.00,   0.0
2096,549941.000,  22.330488424, 114.179526359,    7.9117,  5, 17,  1.6431,  1.8779,  4.6411,  0.2775, -1.8863, -0.5792,  0.00,   0.0
2096,549942.000,  22.330488812, 114.179526378,    7.8580,  5, 17,  1.6432,  1.8778,  4.6408,  0.2771, -1.8859, -0.5790,  0.00,   0.0
2096,549943.000,  22.330491383, 114.179525373,   10.6605,  5, 17,  1.6432,  1.8776,  4.6405,  0.2767, -1.8855, -0.5787,  0.00,   0.0
2096,549944.000,  22.330488643, 114.179527443,    9.5995,  5, 17,  1.6433,  1.8774,  4.6401,  0.2762, -1.8851, -0.5785,  0.00,   0.0
2096,549945.000,  22.330488435, 114.179531879,   10.4982,  5, 17,  1.6433,  1.8772,  4.6398,  0.2758, -1.8848, -0.5782,  0.00,   0.0
2096,549946.000,  22.330488005, 114.179531875,   10.2777,  5, 17,  1.6434,  1.8771,  4.6395,  0.2754, -1.8844, -0.5780,  0.00,   0.0
2096,549947.000,  22.330488266, 114.179534172,   11.7732,  5, 17,  1.6435,  1.8769,  4.6392,  0.2749, -1.8840, -0.5777,  0.00,   0.0
2096,549948.000,  22.330486157, 114.179535285,    9.4780,  5, 17,  1.6435,  1.8767,  4.6389,  0.2745, -1.8836, -0.5775,  0.00,   0.0
2096,549949.000,  22.330484765, 114.179538411,   10.0144,  5, 17,  1.6436,  1.8766,  4.6386,  0.2740, -1.8833, -0.5772,  0.00,   0.0
2096,549950.000,  22.330484826, 114.179537982,    9.9153,  5, 17,  1.6437,  1.8764,  4.6383,  0.2736, -1.8829, -0.5770,  0.00,   0.0
2096,549951.000,  22.330483957, 114.179546174,   11.3898,  5, 17,  1.6437,  1.8762,  4.6380,  0.2732, -1.8825, -0.5767,  0.00,   0.0
2096,549952.000,  22.330487920, 114.179488826,   24.1311,  5, 18,  1.6426,  1.5770,  4.0850,  0.3730, -1.1451, -0.6872,  0.00,   0.0
2096,549953.000,  22.330487516, 114.179551493,   10.9724,  5, 17,  1.6439,  1.8759,  4.6373,  0.2723, -1.8818, -0.5762,  0.00,   0.0
2096,549954.000,  22.330492572, 114.179547775,   11.5515,  5, 17,  1.6439,  1.8757,  4.6370,  0.2718, -1.8814, -0.5760,  0.00,   0.0
2096,549955.000,  22.330484900, 114.179520054,   19.0742,  5, 17,  1.6440,  1.8755,  4.6367,  0.2714, -1.8810, -0.5757,  0.00,   0.0
2096,549956.000,  22.330473837, 114.179494900,   26.5964,  5, 17,  1.6441,  1.8754,  4.6364,  0.2710, -1.8806, -0.5755,  0.00,   0.0
2096,549957.000,  22.330469215, 114.179483215,   30.3134,  5, 17,  1.6441,  1.8752,  4.6361,  0.2705, -1.8803, -0.5752,  0.00,   0.0
2096,549958.000,  22.330483305, 114.179510083,   21.5794,  5, 17,  1.6442,  1.8750,  4.6358,  0.2701, -1.8799, -0.5750,  0.00,   0.0
2096,549959.000,  22.330503705, 114.179548100,   10.4266,  5, 17,  1.6442,  1.8749,  4.6355,  0.2696, -1.8795, -0.5747,  0.00,   0.0
2096,549960.000,  22.330508046, 114.179522552,   15.6458,  5, 17,  1.6443,  1.8747,  4.6351,  0.2692, -1.8791, -0.5745,  0.00,   0.0
2096,549961.000,  22.330542088, 114.179459062,   27.4137,  5, 18,  1.6431,  1.5761,  4.0834,  0.3710, -1.1423, -0.6863,  0.00,   0.0
2096,549962.000,  22.330560715, 114.179470964,   23.4075,  5, 17,  1.6452,  1.6557,  4.4587,  0.4234, -0.6288, -0.5686,  0.00,   0.0
2096,549963.000,  22.330599242, 114.179462491,   26.6399,  5, 17,  1.6453,  1.6556,  4.4586,  0.4232, -0.6282, -0.5685,  0.00,   0.0
2096,549964.000,  22.330631131, 114.179514496,   14.7145,  5, 17,  1.6454,  1.6555,  4.4584,  0.4230, -0.6276, -0.5684,  0.00,   0.0
2096,549965.000,  22.330678151, 114.179523551,   13.5890,  5, 16,  1.6470,  1.9205,  5.0424,  0.3293, -1.6392, -0.3910,  0.00,   0.0
2096,549966.000,  22.330717357, 114.179519492,   17.6789,  5, 17,  1.6447,  1.8737,  4.6333,  0.2665, -1.8769, -0.5730,  0.00,   0.0
2096,549967.000,  22.330760743, 114.179527434,   17.7338,  5, 17,  1.6448,  1.8735,  4.6330,  0.2661, -1.8765, -0.5728,  0.00,   0.0
2096,549968.000,  22.330800228, 114.179529902,   15.8353,  5, 17,  1.6456,  1.6552,  4.4580,  0.4222, -0.6251, -0.5681,  0.00,   0.0
2096,549969.000,  22.330833369, 114.179514317,    9.0366,  5, 15,  1.6889,  1.9884,  6.1086,  0.5480, -0.9463,  1.0647,  0.00,   0.0
2096,549970.000,  22.330879102, 114.179502512,   23.0346,  5, 18,  1.5978,  1.6261,  4.1006,  0.2377, -0.9631, -1.0058,  0.00,   0.0
2096,549971.000,  22.330912883, 114.179499341,   22.5264,  5, 17,  1.6458,  1.6549,  4.4576,  0.4215, -0.6231, -0.5678,  0.00,   0.0
2096,549972.000,  22.330949569, 114.179497019,   20.2082,  5, 18,  1.5979,  1.6259,  4.1002,  0.2370, -0.9623, -1.0058,  0.00,   0.0
2096,549973.000,  22.330994778, 114.179525511,   18.6074,  5, 18,  1.5980,  1.6258,  4.1000,  0.2366, -0.9619, -1.0058,  0.00,   0.0
2096,549974.000,  22.331035225, 114.179529183,   16.0526,  5, 18,  1.5981,  1.6257,  4.0998,  0.2362, -0.9615, -1.0058,  0.00,   0.0
2096,549975.000,  22.331077521, 114.179533511,   14.7309,  5, 19,  1.5979,  1.5646,  3.8620,  0.2572, -1.2373, -0.9893,  0.00,   0.0
2096,549976.000,  22.331118420, 114.179541656,   17.1364,  5, 19,  1.5980,  1.5645,  3.8617,  0.2569, -1.2370, -0.9893,  0.00,   0.0
2096,549977.000,  22.331157226, 114.179537527,   15.7932,  5, 19,  1.5981,  1.5644,  3.8615,  0.2566, -1.2367, -0.9893,  0.00,   0.0
2096,549978.000,  22.331200791, 114.179492554,   25.1985,  5, 19,  1.5981,  1.5643,  3.8612,  0.2563, -1.2364, -0.9892,  0.00,   0.0
2096,549979.000,  22.331251125, 114.179553767,   18.4355,  5, 17,  1.5984,  1.9134,  4.5681,  0.2239, -1.7197, -1.0010,  0.00,   0.0
2096,549980.000,  22.331296589, 114.179524482,   21.4890,  5, 18,  1.5984,  1.6252,  4.0985,  0.2340, -0.9592, -1.0058,  0.00,   0.0
2096,549981.000,  22.331345026, 114.179546823,   17.3561,  5, 18,  1.5985,  1.6251,  4.0982,  0.2336, -0.9588, -1.0058,  0.00,   0.0
2096,549982.000,  22.331393361, 114.179551767,   15.5737,  5, 17,  1.6063,  1.7037,  4.5361,  0.3676,  0.2768, -0.8395,  0.00,   0.0
2096,549983.000,  22.331442041, 114.179562123,   13.4249,  5, 17,  1.6064,  1.7037,  4.5359,  0.3673,  0.2784, -0.8396,  0.00,   0.0
2096,549984.000,  22.331495203, 114.179563368,   14.8259,  5, 18,  1.6062,  1.6021,  4.1121,  0.3458, -1.0149, -0.8690,  0.00,   0.0
2096,549985.000,  22.331554794, 114.179576056,   16.7744,  5, 19,  1.5931,  1.5610,  3.8047,  0.2131, -1.2614, -1.0370,  0.00,   0.0
2096,549986.000,  22.331608163, 114.179587489,   17.2343,  5, 19,  1.5986,  1.5636,  3.8593,  0.2538, -1.2341, -0.9891,  0.00,   0.0
2096,549987.000,  22.331658239, 114.179583867,   17.0773,  5, 19,  1.5904,  1.5797,  3.7955, -0.0929, -1.2248, -1.1244,  0.00,   0.0
2096,549988.000,  22.331709548, 114.179578937,   14.5691,  5, 18,  1.5989,  1.6245,  4.0967,  0.2309, -0.9561, -1.0058,  0.00,   0.0
2096,549989.000,  22.331758266, 114.179574995,   19.8745,  5, 18,  1.5990,  1.6245,  4.0965,  0.2305, -0.9557, -1.0058,  0.00,   0.0
2096,549990.000,  22.331804499, 114.179599890,   20.3095,  5, 17,  1.5990,  1.9116,  4.5640,  0.2180, -1.7149, -1.0004,  0.00,   0.0
2096,549991.000,  22.331849044, 114.179607666,   18.4716,  5, 17,  1.5991,  1.9115,  4.5637,  0.2174, -1.7145, -1.0003,  0.00,   0.0
2096,549992.000,  22.331874921, 114.179610008,   25.0220,  5, 17,  1.5991,  1.9113,  4.5633,  0.2168, -1.7141, -1.0003,  0.00,   0.0
2096,549993.000,  22.331913518, 114.179628771,   19.0052,  5, 17,  1.5992,  1.9112,  4.5629,  0.2163, -1.7136, -1.0002,  0.00,   0.0
2096,549994.000,  22.331920862, 114.179637665,   25.4724,  5, 18,  1.5992,  1.6240,  4.0954,  0.2286, -0.9537, -1.0058,  0.00,   0.0
2096,549995.000,  22.331945109, 114.179652243,   21.7915,  5, 18,  1.5993,  1.6239,  4.0952,  0.2282, -0.9533, -1.0058,  0.00,   0.0
2096,549996.000,  22.331953067, 114.179666074,   19.2370,  5, 17,  1.6473,  1.6528,  4.4547,  0.4162, -0.6070, -0.5659,  0.00,   0.0
2096,549997.000,  22.331958824, 114.179710525,   17.2593,  5, 18,  1.5994,  1.6238,  4.0948,  0.2274, -0.9525, -1.0058,  0.00,   0.0
2096,549998.000,  22.331951268, 114.179734057,   21.7313,  5, 18,  1.5995,  1.6237,  4.0946,  0.2270, -0.9521, -1.0058,  0.00,   0.0
2096,549999.000,  22.331950597, 114.179781182,   23.6046,  5, 18,  1.5995,  1.6236,  4.0943,  0.2267, -0.9518, -1.0058,  0.00,   0.0
2096,550000.000,  22.331972021, 114.179822483,   25.5170,  5, 17,  1.6508,  1.7172,  4.3179, -0.4208, -0.3709, -1.2537,  0.00,   0.0
2096,550001.000,  22.331974120, 114.179891552,   27.6801,  5, 18,  1.6261,  1.5898,  3.9983,  0.2302, -1.1173, -0.9164,  0.00,   0.0
2096,550002.000,  22.331955836, 114.179926212,   22.4439,  5, 18,  1.5997,  1.6234,  4.0937,  0.2255, -0.9506, -1.0058,  0.00,   0.0
2096,550003.000,  22.331959516, 114.179976549,   26.4670,  5, 19,  1.5914,  1.5780,  3.7925, -0.1069, -1.2204, -1.1238,  0.00,   0.0
2096,550004.000,  22.331956809, 114.180058186,   32.6629,  5, 18,  1.5998,  1.6232,  4.0933,  0.2247, -0.9498, -1.0058,  0.00,   0.0
2096,550005.000,  22.331965931, 114.180109457,   29.7576,  5, 18,  1.5999,  1.6231,  4.0930,  0.2243, -0.9494, -1.0058,  0.00,   0.0
2096,550006.000,  22.331940759, 114.180127836,   14.4200,  5, 16,  1.6844,  1.7951,  5.3254,  0.6456,  1.3004,  0.8369,  0.00,   0.0
2096,550007.000,  22.331939940, 114.180173402,   14.5021,  5, 16,  1.6845,  1.7951,  5.3253,  0.6454,  1.3008,  0.8368,  0.00,   0.0
2096,550008.000,  22.331940936, 114.180226909,   16.0563,  5, 16,  1.6845,  1.7951,  5.3251,  0.6453,  1.3012,  0.8368,  0.00,   0.0
2096,550009.000,  22.331931217, 114.180270298,   12.9324,  5, 16,  1.6846,  1.7950,  5.3250,  0.6452,  1.3016,  0.8367,  0.00,   0.0
2096,550010.000,  22.331947258, 114.180345921,   25.9643,  5, 17,  1.6078,  1.7023,  4.5284,  0.3601,  0.3169, -0.8421,  0.00,   0.0
2096,550011.000,  22.331944367, 114.180387686,   23.2869,  5, 18,  1.5950,  1.6212,  4.0351,  0.1564, -0.9826, -1.0607,  0.00,   0.0
2096,550012.000,  22.331937788, 114.180442259,   25.4228,  5, 19,  1.5947,  1.5585,  3.7980,  0.2022, -1.2539, -1.0364,  0.00,   0.0
2096,550013.000,  22.331947701, 114.180483063,   20.8151,  5, 18,  1.6385,  1.5687,  4.0154,  0.3288, -1.1567, -0.7640,  0.00,   0.0
2096,550014.000,  22.331933414, 114.180528654,   20.9165,  5, 18,  1.6385,  1.5686,  4.0153,  0.3285, -1.1564, -0.7639,  0.00,   0.0
2096,550015.000,  22.331921903, 114.180572578,   18.8827,  5, 18,  1.6386,  1.5685,  4.0151,  0.3282, -1.1561, -0.7638,  0.00,   0.0
2096,550016.000,  22.331910536, 114.180612655,   16.2441,  5, 17,  1.6703,  1.6266,  4.4873,  0.4970, -0.6870,  0.2554,  0.00,   0.0
2096,550017.000,  22.331914799, 114.180658370,   21.1762,  5, 18,  1.6387,  1.5683,  4.0147,  0.3277, -1.1555, -0.7637,  0.00,   0.0
2096,550018.000,  22.331910553, 114.180696539,   21.7214,  5, 18,  1.6388,  1.5682,  4.0145,  0.3274, -1.1552, -0.7636,  0.00,   0.0
2096,550019.000,  22.331921702, 114.180740911,   21.7911,  5, 18,  1.6388,  1.5682,  4.0143,  0.3272, -1.1549, -0.7635,  0.00,   0.0
2096,550020.000,  22.331918727, 114.180762231,   17.7636,  5, 17,  1.6705,  1.6263,  4.4864,  0.4964, -0.6846,  0.2553,  0.00,   0.0
2096,550021.000,  22.331923474, 114.180807013,   27.3425,  5, 19,  1.5952,  1.5577,  3.7957,  0.1985, -1.2514, -1.0362,  0.00,   0.0
2096,550022.000,  22.331891379, 114.180807383,   13.3326,  5, 17,  1.6706,  1.6262,  4.4859,  0.4960, -0.6835,  0.2553,  0.00,   0.0
2096,550023.000,  22.331883149, 114.180830477,   17.3688,  5, 17,  1.6706,  1.6261,  4.4857,  0.4959, -0.6829,  0.2553,  0.00,   0.0
2096,550024.000,  22.331867936, 114.180824850,    8.9764,  5, 17,  1.6707,  1.6260,  4.4855,  0.4957, -0.6823,  0.2553,  0.00,   0.0
2096,550025.000,  22.331870908, 114.180883899,   32.5761,  5, 17,  1.6406,  1.6504,  4.3966,  0.3766, -0.6346, -0.6765,  0.00,   0.0
2096,550026.000,  22.331844406, 114.180886693,   29.8725,  5, 18,  1.5959,  1.6199,  4.0317,  0.1472, -0.9770, -1.0607,  0.00,   0.0
2096,550027.000,  22.331814862, 114.180887454,   33.4409,  5, 18,  1.5960,  1.6199,  4.0315,  0.1465, -0.9766, -1.0607,  0.00,   0.0
2096,550028.000,  22.331801024, 114.180901325,   32.5032,  5, 17,  1.5961,  1.8961,  4.5314,  0.1033, -1.7299, -1.0501,  0.00,   0.0
2096,550029.000,  22.331779477, 114.180934113,   30.5791,  5, 17,  1.5961,  1.8959,  4.5310,  0.1021, -1.7295, -1.0501,  0.00,   0.0
2096,550030.000,  22.331742431, 114.180912655,   29.5681,  5, 16,  1.6125,  2.0039,  4.5324,  0.3982, -1.7048, -1.0360,  0.00,   0.0
2096,550031.000,  22.331681621, 114.180851268,   32.8356,  5, 16,  1.6330,  1.8484,  4.5791,  0.5724,  0.7978, -0.7153,  0.00,   0.0
2096,550032.000,  22.331663317, 114.180878297,   27.4154,  5, 18,  1.6396,  1.5669,  4.0118,  0.3236, -1.1510, -0.7626,  0.00,   0.0
2096,550033.000,  22.331619267, 114.180855220,   27.0984,  5, 18,  1.6396,  1.5668,  4.0116,  0.3234, -1.1507, -0.7625,  0.00,   0.0
2096,550034.000,  22.331593624, 114.180873156,   36.6022,  5, 18,  1.6397,  1.5668,  4.0114,  0.3231, -1.1504, -0.7624,  0.00,   0.0
2096,550035.000,  22.331541143, 114.180870252,   27.8830,  5, 15,  1.7175,  1.9943,  5.1438,  0.6226, -1.5481,  0.7514,  0.00,   0.0
2096,550036.000,  22.331494377, 114.180848925,   11.9543,  5, 14,  1.7703,  2.2098,  6.4372,  0.8919,  1.1360,  1.4912,  0.00,   0.0
2096,550037.000,  22.331446485, 114.180857032,   19.2130,  5, 15,  1.6923,  1.9815,  6.0859,  0.5357, -0.8706,  1.0651,  0.00,   0.0
2096,550038.000,  22.331408093, 114.180843616,   28.1277,  5, 17,  1.6092,  1.7010,  4.5206,  0.3524,  0.3524, -0.8445,  0.00,   0.0
2096,550039.000,  22.331381649, 114.180858475,   28.7959,  5, 17,  1.6093,  1.7009,  4.5203,  0.3522,  0.3536, -0.8446,  0.00,   0.0
2096,550040.000,  22.331352940, 114.180847070,   22.3038,  5, 17,  1.6527,  1.7154,  4.3034, -0.4301, -0.3367, -1.2494,  0.00,   0.0
2096,550041.000,  22.331304784, 114.180856016,   27.9943,  5, 18,  1.6486,  1.6221,  3.9758, -0.3465, -1.0152, -1.1699,  0.00,   0.0
2096,550042.000,  22.331274166, 114.180832104,   25.4233,  5, 18,  1.6524,  1.6298,  3.8746, -0.4502, -1.0550, -1.2732,  0.00,   0.0
2096,550043.000,  22.331221560, 114.180829361,   21.4238,  5, 19,  1.6473,  1.5729,  3.6924, -0.3835, -1.2699, -1.2113,  0.00,   0.0
2096,550044.000,  22.331186672, 114.180826583,   19.7534,  5, 20,  1.5927,  1.5307,  3.6337,  0.0697, -1.3596, -1.0916,  0.00,   0.0
2096,550045.000,  22.331142865, 114.180822178,   20.9333,  5, 18,  1.6020,  1.8604,  4.3030,  0.2108, -1.8560, -0.9775,  0.00,   0.0
2096,550046.000,  22.331102169, 114.180827978,   26.0266,  5, 18,  1.6299,  1.8417,  4.3058, -0.1225, -1.9600, -0.8512,  0.00,   0.0
2096,550047.000,  22.331053420, 114.180831578,   29.1379,  5, 18,  1.6300,  1.8415,  4.3055, -0.1235, -1.9597, -0.8510,  0.00,   0.0
2096,550048.000,  22.330997274, 114.180795619,   30.0184,  5, 18,  1.5942,  1.8703,  4.2498, -0.1518, -1.8481, -1.1191,  0.00,   0.0
2096,550049.000,  22.330963717, 114.180833849,   22.4663,  5, 15,  1.6633,  2.1000,  4.6209, -0.3241, -1.5093, -1.2032,  0.00,   0.0
2096,550050.000,  22.330916378, 114.180819715,   22.1345,  5, 16,  1.6100,  1.9479,  5.0232,  0.3129, -1.3975, -0.8122,  0.00,   0.0
2096,550051.000,  22.330865837, 114.180822606,   19.9370,  5, 16,  1.6101,  1.9478,  5.0227,  0.3125, -1.3969, -0.8122,  0.00,   0.0
2096,550052.000,  22.330818253, 114.180808516,   22.6620,  5, 16,  1.6339,  1.8474,  4.5739,  0.5683,  0.8105, -0.7171,  0.00,   0.0
2096,550053.000,  22.330757551, 114.180828621,   30.5468,  5, 18,  1.6027,  1.6191,  4.0826,  0.2042, -0.9305, -1.0057,  0.00,   0.0
2096,550054.000,  22.330717835, 114.180798090,   26.3560,  5, 18,  1.6027,  1.6190,  4.0824,  0.2038, -0.9301, -1.0057,  0.00,   0.0
2096,550055.000,  22.330668399, 114.180811968,   28.6324,  5, 18,  1.6295,  1.5840,  3.9919,  0.2072, -1.1012, -0.9116,  0.00,   0.0
2096,550056.000,  22.330611639, 114.180822358,   23.7061,  5, 16,  1.6765,  1.7876,  4.4523,  0.6075,  0.3543, -0.4588,  0.00,   0.0
2096,550057.000,  22.330543489, 114.180825333,   22.7092,  5, 15,  1.7446,  1.8098,  4.4854,  0.7109, -0.1668, -0.6882,  0.00,   0.0
2096,550058.000,  22.330489864, 114.180851208,   22.8406,  5, 14,  1.8550,  2.0270,  4.5991,  0.2364, -1.7283, -1.2706,  0.00,   0.0
2096,550059.000,  22.330404380, 114.180816979,   29.2023,  5, 17,  1.8014,  1.8758,  4.2499, -0.4082, -1.8359, -1.1828,  0.00,   0.0
2096,550060.000,  22.330350120, 114.180806407,   25.4310,  5, 17,  1.8015,  1.8757,  4.2496, -0.4086, -1.8356, -1.1827,  0.00,   0.0
2096,550061.000,  22.330339415, 114.180783561,   20.2772,  5, 18,  1.8015,  1.5828,  3.7843, -0.4200, -1.1931, -1.1751,  0.00,   0.0
2096,550062.000,  22.330328311, 114.180765272,   23.7966,  5, 19,  1.5951,  1.5719,  3.7812, -0.1478, -1.2041, -1.1217,  0.00,   0.0
2096,550063.000,  22.330325952, 114.180741152,   21.7947,  5, 19,  1.5951,  1.5718,  3.7810, -0.1484, -1.2038, -1.1216,  0.00,   0.0
2096,550064.000,  22.330305644, 114.180736533,   19.0405,  5, 18,  1.6301,  1.5830,  3.9908,  0.2031, -1.0985, -0.9107,  0.00,   0.0
2096,550065.000,  22.330294628, 114.180700913,   23.7692,  5, 18,  1.6302,  1.5829,  3.9907,  0.2026, -1.0982, -0.9107,  0.00,   0.0
2096,550066.000,  22.330296024, 114.180658411,   24.9543,  5, 17,  1.8388,  1.5928,  3.9919, -0.3327, -1.0897, -0.9564,  0.00,   0.0
2096,550067.000,  22.330283791, 114.180615677,   28.5798,  5, 17,  1.8389,  1.5927,  3.9917, -0.3330, -1.0894, -0.9563,  0.00,   0.0
2096,550068.000,  22.330283967, 114.180558026,   24.1471,  5, 17,  1.6514,  1.6467,  4.4462,  0.4002, -0.5585, -0.5594,  0.00,   0.0
2096,550069.000,  22.330268245, 114.180490541,   33.3931,  5, 18,  1.6304,  1.5825,  3.9902,  0.2008, -1.0970, -0.9103,  0.00,   0.0
2096,550070.000,  22.330275540, 114.180401574,   33.3060,  5, 16,  1.6873,  1.7933,  5.3171,  0.6367,  1.3274,  0.8336,  0.00,   0.0
2096,550071.000,  22.330253706, 114.180356304,   39.4586,  5, 13,  2.0114,  2.1856,  6.1745, -0.7159,  2.1242, -0.4095,  0.00,   0.0
2096,550072.000,  22.330288098, 114.180257882,   32.1639,  5, 16,  1.6874,  1.7932,  5.3168,  0.6364,  1.3283,  0.8335,  0.00,   0.0
2096,550073.000,  22.330265580, 114.180171295,   36.4226,  5, 17,  1.6732,  1.6227,  4.4741,  0.4874, -0.6529,  0.2551,  0.00,   0.0
2096,550074.000,  22.330307873, 114.180106955,   34.9293,  5, 18,  1.6109,  1.5958,  4.0852,  0.3232, -0.9806, -0.8718,  0.00,   0.0
2096,550075.000,  22.330317369, 114.180033905,   33.1397,  5, 17,  1.6733,  1.6226,  4.4737,  0.4871, -0.6517,  0.2550,  0.00,   0.0
2096,550076.000,  22.330306138, 114.179938414,   33.5996,  5, 16,  1.6876,  1.7931,  5.3163,  0.6358,  1.3300,  0.8332,  0.00,   0.0
2096,550077.000,  22.330287181, 114.179838832,   23.8712,  5, 16,  1.6876,  1.7931,  5.3161,  0.6357,  1.3304,  0.8331,  0.00,   0.0
2096,550078.000,  22.330305695, 114.179759784,   29.6442,  5, 16,  1.6877,  1.7931,  5.3160,  0.6355,  1.3308,  0.8331,  0.00,   0.0
2096,550079.000,  22.330307782, 114.179678684,   29.9213,  5, 16,  1.6877,  1.7931,  5.3159,  0.6354,  1.3313,  0.8330,  0.00,   0.0
2096,550080.000,  22.330319256, 114.179629284,   32.5296,  5, 16,  1.6878,  1.7930,  5.3157,  0.6353,  1.3317,  0.8329,  0.00,   0.0
2096,550081.000,  22.330322228, 114.179544723,   30.7432,  5, 14,  1.9500,  2.0764,  5.6684,  0.8567,  1.9535,  1.2496,  0.00,   0.0
2096,550082.000,  22.330308449, 114.179505079,   26.3132,  5, 15,  1.7634,  2.0637,  5.6661,  0.9617,  1.9444,  1.3021,  0.00,   0.0
2096,550083.000,  22.330313106, 114.179453891,   21.6974,  5, 17,  1.6707,  1.6490,  4.0084,  0.5069, -1.0820, -0.7121,  0.00,   0.0
2096,550084.000,  22.330379563, 114.179488766,   22.3089,  5, 18,  1.6426,  1.5621,  4.0019,  0.3091, -1.1352, -0.7587,  0.00,   0.0
2096,550085.000,  22.330415126, 114.179479412,   10.9322,  5, 16,  1.6880,  1.7929,  5.3151,  0.6345,  1.3338,  0.8325,  0.00,   0.0
2096,550086.000,  22.330444282, 114.179476377,    6.5348,  5, 18,  1.6427,  1.5619,  4.0015,  0.3085, -1.1346, -0.7586,  0.00,   0.0
2096,550087.000,  22.330486743, 114.179524061,   21.4019,  5, 18,  1.6428,  1.5618,  4.0013,  0.3082, -1.1343, -0.7585,  0.00,   0.0
2096,550088.000,  22.330522615, 114.179507712,   18.8555,  5, 18,  1.6327,  1.8341,  4.2941, -0.1608, -1.9463, -0.8425,  0.00,   0.0
2096,550089.000,  22.330561544, 114.179512509,   23.3235,  5, 18,  1.6328,  1.8339,  4.2938, -0.1616, -1.9459, -0.8423,  0.00,   0.0
2096,550090.000,  22.330600826, 114.179502217,   11.3910,  5, 15,  1.6949,  1.9763,  6.0677,  0.5257, -0.8067,  1.0648,  0.00,   0.0
2096,550091.000,  22.330642567, 114.179502858,   11.2168,  5, 15,  1.6949,  1.9762,  6.0674,  0.5255, -0.8055,  1.0647,  0.00,   0.0
2096,550092.000,  22.330699896, 114.179465711,   26.0702,  5, 15,  1.7055,  1.8878,  5.3186,  0.5080,  1.2875,  0.8631,  0.00,   0.0
2096,550093.000,  22.330737684, 114.179531885,   11.8193,  5, 15,  1.6950,  1.9760,  6.0667,  0.5251, -0.8030,  1.0647,  0.00,   0.0
2096,550094.000,  22.330789212, 114.179522456,   12.2818,  5, 16,  1.6884,  1.7927,  5.3138,  0.6332,  1.3375,  0.8318,  0.00,   0.0
2096,550095.000,  22.330845552, 114.179512839,   11.4856,  5, 16,  1.6884,  1.7926,  5.3137,  0.6331,  1.3379,  0.8317,  0.00,   0.0
2096,550096.000,  22.330903505, 114.179509684,   17.6360,  5, 16,  1.6884,  1.7926,  5.3136,  0.6329,  1.3383,  0.8316,  0.00,   0.0
2096,550097.000,  22.330955674, 114.179508878,   18.5156,  5, 16,  1.6885,  1.7926,  5.3134,  0.6328,  1.3387,  0.8315,  0.00,   0.0
2096,550098.000,  22.331012211, 114.179531914,   20.3507,  5, 18,  1.6053,  1.6153,  4.0728,  0.1832, -0.9123, -1.0058,  0.00,   0.0
2096,550099.000,  22.331059274, 114.179530805,   15.8488,  5, 17,  1.6123,  1.6981,  4.5037,  0.3347,  0.4200, -0.8504,  0.00,   0.0
2096,550100.000,  22.331108593, 114.179537263,   17.3612,  5, 18,  1.6052,  1.8513,  4.2814,  0.1781, -1.8348, -0.9727,  0.00,   0.0
2096,550101.000,  22.331151636, 114.179542499,   17.7110,  5, 18,  1.6052,  1.8511,  4.2810,  0.1775, -1.8344, -0.9727,  0.00,   0.0
2096,550102.000,  22.331199117, 114.179491211,   30.9544,  5, 20,  1.5962,  1.5246,  3.6214, -0.0693, -1.3453, -1.0887,  0.00,   0.0
2096,550103.000,  22.331239259, 114.179504251,   25.6388,  5, 18,  1.6055,  1.6149,  4.0717,  0.1807, -0.9102, -1.0058,  0.00,   0.0
2096,550104.000,  22.331289588, 114.179533524,   21.1360,  5, 17,  1.6126,  1.6979,  4.5024,  0.3332,  0.4250, -0.8509,  0.00,   0.0
2096,550105.000,  22.331339772, 114.179543626,   19.2673,  5, 17,  1.6126,  1.6979,  4.5021,  0.3329,  0.4260, -0.8510,  0.00,   0.0
2096,550106.000,  22.331393214, 114.179551747,   16.8725,  5, 17,  1.6127,  1.6978,  4.5018,  0.3326,  0.4270, -0.8511,  0.00,   0.0
2096,550107.000,  22.331449524, 114.179559247,   14.7149,  5, 17,  1.6127,  1.6978,  4.5015,  0.3323,  0.4280, -0.8512,  0.00,   0.0
2096,550108.000,  22.331508007, 114.179558900,   15.3336,  5, 17,  1.6128,  1.6977,  4.5013,  0.3320,  0.4289, -0.8513,  0.00,   0.0
2096,550109.000,  22.331562045, 114.179556816,   17.9773,  5, 16,  1.7393,  1.7917,  5.2028,  0.6950, -1.1444, -1.5570,  0.00,   0.0
2096,550110.000,  22.331632402, 114.179568624,   13.9795,  5, 17,  1.6129,  1.6976,  4.5007,  0.3314,  0.4309, -0.8515,  0.00,   0.0
2096,550111.000,  22.331688879, 114.179580408,   20.7675,  5, 19,  1.6057,  1.5521,  3.8291,  0.2096, -1.1977, -0.9861,  0.00,   0.0
2096,550112.000,  22.331750758, 114.179596491,   21.6070,  5, 19,  1.6058,  1.5520,  3.8289,  0.2092, -1.1974, -0.9861,  0.00,   0.0
2096,550113.000,  22.331810348, 114.179594652,   10.3951,  5, 17,  1.6130,  1.6975,  4.4999,  0.3305,  0.4339, -0.8519,  0.00,   0.0
2096,550114.000,  22.331860429, 114.179601130,   12.1438,  5, 17,  1.6131,  1.6975,  4.4996,  0.3302,  0.4348, -0.8520,  0.00,   0.0
2096,550115.000,  22.331908639, 114.179629893,   15.7935,  5, 18,  1.6062,  1.6139,  4.0691,  0.1747, -0.9053, -1.0060,  0.00,   0.0
2096,550116.000,  22.331937808, 114.179660900,   22.5670,  5, 18,  1.6012,  1.6126,  4.0114,  0.0685, -0.9424, -1.0611,  0.00,   0.0
2096,550117.000,  22.331955185, 114.179676998,   18.2555,  5, 18,  1.6445,  1.5591,  3.9956,  0.2995, -1.1251, -0.7566,  0.00,   0.0
2096,550118.000,  22.331952798, 114.179698911,   18.5975,  5, 18,  1.6446,  1.5590,  3.9954,  0.2992, -1.1248, -0.7566,  0.00,   0.0
2096,550119.000,  22.331945720, 114.179730396,   21.3949,  5, 18,  1.6065,  1.6136,  4.0682,  0.1726, -0.9037, -1.0060,  0.00,   0.0
2096,550120.000,  22.331955439, 114.179773269,   24.0416,  5, 17,  1.8181,  1.6221,  4.0686, -0.3356, -0.8965, -1.0362,  0.00,   0.0
2096,550121.000,  22.331968525, 114.179825542,   22.6189,  5, 18,  1.6066,  1.6134,  4.0678,  0.1715, -0.9029, -1.0060,  0.00,   0.0
2096,550122.000,  22.331961338, 114.179867540,   19.5593,  5, 18,  1.6527,  1.5610,  4.0546,  0.3321, -1.0915, -0.6716,  0.00,   0.0
2096,550123.000,  22.331923053, 114.179883716,   11.0152,  5, 17,  1.6756,  1.6194,  4.4624,  0.4786, -0.6217,  0.2517,  0.00,   0.0
2096,550124.000,  22.331962731, 114.179969323,   20.8386,  5, 18,  1.6449,  1.5585,  3.9942,  0.2974, -1.1230, -0.7562,  0.00,   0.0
2096,550125.000,  22.331942046, 114.180003091,   16.7219,  5, 17,  1.6757,  1.6193,  4.4620,  0.4783, -0.6205,  0.2516,  0.00,   0.0
2096,550126.000,  22.331923413, 114.180012981,   16.1211,  5, 16,  1.6897,  1.7918,  5.3094,  0.6284,  1.3505,  0.8290,  0.00,   0.0
2096,550127.000,  22.331947658, 114.180112853,   35.0679,  5, 17,  1.6548,  1.6418,  4.4389,  0.3866, -0.5152, -0.5554,  0.00,   0.0
2096,550128.000,  22.331929050, 114.180106146,   14.1483,  5, 16,  1.6898,  1.7918,  5.3091,  0.6281,  1.3513,  0.8288,  0.00,   0.0
2096,550129.000,  22.331922973, 114.180163240,   15.8622,  5, 17,  1.6759,  1.6190,  4.4610,  0.4776, -0.6180,  0.2514,  0.00,   0.0
2096,550130.000,  22.331925343, 114.180213745,   14.2325,  5, 17,  1.6759,  1.6190,  4.4608,  0.4774, -0.6174,  0.2514,  0.00,   0.0
2096,550131.000,  22.331922670, 114.180274807,   15.5906,  5, 17,  1.6760,  1.6189,  4.4606,  0.4772, -0.6167,  0.2513,  0.00,   0.0
2096,550132.000,  22.331938644, 114.180349080,   20.9737,  5, 17,  1.7594,  1.5616,  4.0328,  0.3947, -1.0922, -0.4662,  0.00,   0.0
2096,550133.000,  22.331934812, 114.180401021,   19.2995,  5, 17,  1.6761,  1.6188,  4.4601,  0.4769, -0.6155,  0.2512,  0.00,   0.0
2096,550134.000,  22.331939314, 114.180467257,   22.3184,  5, 18,  1.6455,  1.5576,  3.9923,  0.2944, -1.1199, -0.7555,  0.00,   0.0
2096,550135.000,  22.331940775, 114.180525585,   23.2031,  5, 17,  1.6469,  1.6415,  4.3815,  0.3475, -0.5634, -0.6718,  0.00,   0.0
2096,550136.000,  22.331914400, 114.180566577,   18.0199,  5, 17,  1.6469,  1.6414,  4.3814,  0.3472, -0.5627, -0.6718,  0.00,   0.0
2096,550137.000,  22.331911280, 114.180615203,   16.5291,  5, 17,  1.6470,  1.6413,  4.3812,  0.3469, -0.5620, -0.6718,  0.00,   0.0
2096,550138.000,  22.331902291, 114.180655876,   19.4561,  5, 16,  1.6902,  1.7915,  5.3077,  0.6266,  1.3552,  0.8280,  0.00,   0.0
2096,550139.000,  22.331910000, 114.180713331,   20.4580,  5, 17,  1.6471,  1.6412,  4.3810,  0.3464, -0.5606, -0.6717,  0.00,   0.0
2096,550140.000,  22.331905330, 114.180743214,   17.1920,  5, 16,  1.6903,  1.7914,  5.3074,  0.6263,  1.3560,  0.8278,  0.00,   0.0
2096,550141.000,  22.331903488, 114.180776274,   16.7374,  5, 16,  1.6903,  1.7914,  5.3073,  0.6261,  1.3564,  0.8277,  0.00,   0.0
2096,550142.000,  22.331910360, 114.180823233,   25.1033,  5, 17,  1.6556,  1.6406,  4.4371,  0.3830, -0.5038, -0.5543,  0.00,   0.0
2096,550143.000,  22.331897224, 114.180839006,   27.3004,  5, 17,  1.6557,  1.6405,  4.4369,  0.3828, -0.5031, -0.5542,  0.00,   0.0
2096,550144.000,  22.331895722, 114.180865396,   30.4085,  5, 17,  1.6474,  1.6408,  4.3803,  0.3450, -0.5572, -0.6715,  0.00,   0.0
2096,550145.000,  22.331875521, 114.180876343,   30.7399,  5, 17,  1.6474,  1.6407,  4.3801,  0.3447, -0.5565, -0.6714,  0.00,   0.0
2096,550146.000,  22.331848115, 114.180886016,   33.2070,  5, 17,  1.6475,  1.6406,  4.3800,  0.3444, -0.5558, -0.6714,  0.00,   0.0
2096,550147.000,  22.331799377, 114.180850856,   16.4175,  5, 16,  1.6380,  1.8432,  4.5506,  0.5486,  0.8655, -0.7269,  0.00,   0.0
2096,550148.000,  22.331769110, 114.180868598,   29.2970,  5, 18,  1.6081,  1.6112,  4.0619,  0.1566, -0.8919, -1.0060,  0.00,   0.0
2096,550149.000,  22.331748325, 114.180854689,   19.3147,  5, 17,  1.6148,  1.6959,  4.4899,  0.3192,  0.4672, -0.8554,  0.00,   0.0
2096,550150.000,  22.331698919, 114.180864521,   23.6863,  5, 17,  1.6242,  1.7053,  4.0671,  0.3891, -0.8208, -0.9814,  0.00,   0.0
2096,550151.000,  22.331688134, 114.180863390,   33.2249,  5, 19,  1.6005,  1.5627,  3.7642, -0.1937, -1.1789, -1.1187,  0.00,   0.0
2096,550152.000,  22.331635280, 114.180874936,   33.0869,  5, 19,  1.6356,  1.5231,  3.7588,  0.1528, -1.2909, -0.9063,  0.00,   0.0
2096,550153.000,  22.331586265, 114.180870016,   33.4424,  5, 18,  1.6466,  1.5558,  3.9886,  0.2886, -1.1141, -0.7541,  0.00,   0.0
2096,550155.000,  22.331503593, 114.180891849,   29.7649,  5, 15,  1.6979,  1.9701,  6.0448,  0.5128, -0.7229,  1.0628,  0.00,   0.0
2096,550156.000,  22.331439191, 114.180860096,   21.4276,  5, 16,  1.6383,  1.8428,  4.5484,  0.5466,  0.8705, -0.7278,  0.00,   0.0
2096,550157.000,  22.331388514, 114.180849830,   25.6202,  5, 17,  1.6152,  1.6955,  4.4876,  0.3166,  0.4743, -0.8562,  0.00,   0.0
2096,550158.000,  22.331354536, 114.180868801,   30.0071,  5, 18,  1.6086,  1.6104,  4.0597,  0.1506, -0.8877, -1.0060,  0.00,   0.0
2096,550159.000,  22.331312024, 114.180833187,   26.7280,  5, 18,  1.6087,  1.6103,  4.0594,  0.1500, -0.8873, -1.0060,  0.00,   0.0
2096,550160.000,  22.331270141, 114.180860971,   29.2965,  5, 19,  1.6011,  1.5618,  3.7625, -0.1978, -1.1763, -1.1184,  0.00,   0.0
2096,550161.000,  22.331241477, 114.180827980,   26.5860,  5, 20,  1.5997,  1.5185,  3.6089, -0.1208, -1.3309, -1.0857,  0.00,   0.0
2096,550162.000,  22.331199035, 114.180833719,   20.5763,  5, 20,  1.5998,  1.5184,  3.6087, -0.1215, -1.3306, -1.0857,  0.00,   0.0
2096,550163.000,  22.331148128, 114.180838572,   24.3026,  5, 18,  1.6087,  1.8410,  4.2567,  0.1311, -1.8106, -0.9673,  0.00,   0.0
2096,550164.000,  22.331117718, 114.180839023,   26.9029,  5, 19,  1.6000,  1.8199,  4.0579, -0.1721, -1.9059, -1.0731,  0.00,   0.0
2096,550165.000,  22.331076409, 114.180833088,   26.4816,  5, 18,  1.6088,  1.8407,  4.2559,  0.1293, -1.8098, -0.9671,  0.00,   0.0
2096,550166.000,  22.331041361, 114.180838974,   29.2539,  5, 19,  1.6014,  1.5612,  3.7614, -0.2004, -1.1746, -1.1182,  0.00,   0.0
2096,550168.000,  22.330954357, 114.180810638,   26.3000,  5, 16,  1.8166,  1.9199,  4.2313, -0.1703, -1.8509, -1.0656,  0.00,   0.0
2096,550169.000,  22.330915922, 114.180834754,   28.4896,  5, 17,  1.6160,  1.8625,  4.5214,  0.2425, -1.6818, -0.8403,  0.00,   0.0
2096,550170.000,  22.330900483, 114.180819649,   13.6014,  5, 16,  1.6161,  1.9343,  4.9659,  0.2612, -1.3240, -0.8174,  0.00,   0.0
2096,550171.000,  22.330839306, 114.180801576,   19.3420,  5, 16,  1.6162,  1.9342,  4.9654,  0.2608, -1.3234, -0.8175,  0.00,   0.0
2096,550172.000,  22.330825651, 114.180864347,   30.9618,  5, 18,  1.6094,  1.6093,  4.0566,  0.1418, -0.8819, -1.0060,  0.00,   0.0
2096,550173.000,  22.330773571, 114.180820142,   17.8604,  5, 16,  1.6390,  1.8421,  4.5442,  0.5429,  0.8798, -0.7295,  0.00,   0.0
2096,550174.000,  22.330723644, 114.180816090,   21.9418,  5, 17,  1.6254,  1.7031,  4.0621,  0.3826, -0.8088, -0.9810,  0.00,   0.0
2096,550175.000,  22.330695925, 114.180823544,   34.6140,  5, 18,  1.6045,  1.6079,  3.9980, -0.0809, -0.9194, -1.0613,  0.00,   0.0
2096,550176.000,  22.330645710, 114.180788530,   24.4932,  5, 17,  1.6161,  1.6947,  4.4824,  0.3103,  0.4908, -0.8580,  0.00,   0.0
2096,550177.000,  22.330617160, 114.180796637,   23.3471,  5, 17,  1.6161,  1.6946,  4.4821,  0.3100,  0.4917, -0.8581,  0.00,   0.0
2096,550178.000,  22.330583315, 114.180825034,   32.9159,  5, 17,  1.6048,  1.8728,  4.4733, -0.1640, -1.6649, -1.0416,  0.00,   0.0
2096,550179.000,  22.330519295, 114.180795807,   15.4586,  5, 15,  1.6394,  2.0780,  5.0045,  0.5232, -1.1137, -0.7003,  0.00,   0.0
2096,550180.000,  22.330479429, 114.180820973,   15.1578,  5, 15,  1.6395,  2.0779,  5.0041,  0.5229, -1.1129, -0.7003,  0.00,   0.0
2096,550181.000,  22.330453573, 114.180845014,   27.1895,  5, 18,  1.6024,  1.8466,  4.2067, -0.2367, -1.7993, -1.1062,  0.00,   0.0
2096,550182.000,  22.330423476, 114.180824113,   26.7554,  5, 18,  1.6025,  1.8464,  4.2064, -0.2373, -1.7989, -1.1061,  0.00,   0.0
2096,550183.000,  22.330398537, 114.180834685,   25.3946,  5, 18,  1.6025,  1.8462,  4.2061, -0.2378, -1.7985, -1.1060,  0.00,   0.0
2096,550184.000,  22.330362275, 114.180847533,   23.2230,  5, 18,  1.6026,  1.8460,  4.2057, -0.2383, -1.7982, -1.1059,  0.00,   0.0
2096,550185.000,  22.330363338, 114.180839650,   18.6694,  5, 18,  1.6026,  1.8459,  4.2054, -0.2388, -1.7978, -1.1059,  0.00,   0.0
2096,550186.000,  22.330356145, 114.180818839,   21.0993,  5, 18,  1.6027,  1.8457,  4.2051, -0.2393, -1.7974, -1.1058,  0.00,   0.0
2096,550187.000,  22.330371050, 114.180819617,   18.4594,  5, 18,  1.6028,  1.8455,  4.2048, -0.2399, -1.7971, -1.1057,  0.00,   0.0
2096,550188.000,  22.330350169, 114.180799991,   23.3527,  5, 18,  1.6028,  1.8453,  4.2044, -0.2404, -1.7967, -1.1056,  0.00,   0.0
2096,550189.000,  22.330347971, 114.180770795,   29.5193,  5, 19,  1.6028,  1.5589,  3.7569, -0.2104, -1.1680, -1.1173,  0.00,   0.0
2096,550190.000,  22.330333209, 114.180768900,   28.2667,  5, 19,  1.6029,  1.5588,  3.7568, -0.2108, -1.1677, -1.1173,  0.00,   0.0
2096,550191.000,  22.330337264, 114.180766357,   24.3657,  5, 19,  1.6029,  1.5587,  3.7566, -0.2112, -1.1674, -1.1172,  0.00,   0.0
2096,550192.000,  22.330329420, 114.180764516,   23.2186,  5, 19,  1.6030,  1.5586,  3.7564, -0.2116, -1.1671, -1.1172,  0.00,   0.0
2096,550193.000,  22.330318530, 114.180754298,   20.7228,  5, 19,  1.6031,  1.5585,  3.7562, -0.2120, -1.1668, -1.1172,  0.00,   0.0
2096,550194.000,  22.330310581, 114.180746982,   23.0504,  5, 19,  1.6031,  1.5584,  3.7560, -0.2124, -1.1665, -1.1171,  0.00,   0.0
2096,550195.000,  22.330305478, 114.180733037,   22.4376,  5, 19,  1.6032,  1.5583,  3.7558, -0.2129, -1.1663, -1.1171,  0.00,   0.0
2096,550196.000,  22.330292689, 114.180723020,   25.8748,  5, 19,  1.6032,  1.5582,  3.7556, -0.2133, -1.1660, -1.1171,  0.00,   0.0
2096,550197.000,  22.330309115, 114.180707126,   26.9838,  5, 19,  1.6033,  1.5581,  3.7554, -0.2137, -1.1657, -1.1170,  0.00,   0.0
2096,550198.000,  22.330299658, 114.180678617,   24.8761,  5, 19,  1.6034,  1.5580,  3.7552, -0.2141, -1.1654, -1.1170,  0.00,   0.0
2096,550199.000,  22.330280011, 114.180647856,   27.5321,  5, 18,  1.7423,  1.7002,  4.2947,  0.6467, -1.6663, -1.6335,  0.00,   0.0
2096,550200.000,  22.330292878, 114.180627429,   28.8965,  5, 18,  1.7424,  1.7001,  4.2946,  0.6465, -1.6661, -1.6335,  0.00,   0.0
2096,550201.000,  22.330302933, 114.180594714,   26.9690,  5, 18,  1.7424,  1.7000,  4.2945,  0.6463, -1.6659, -1.6335,  0.00,   0.0
2096,550202.000,  22.330306087, 114.180563286,   28.3447,  5, 18,  1.7425,  1.6999,  4.2944,  0.6462, -1.6657, -1.6335,  0.00,   0.0
2096,550203.000,  22.330304067, 114.180530904,   30.1748,  5, 18,  1.7425,  1.6998,  4.2943,  0.6460, -1.6655, -1.6336,  0.00,   0.0
2096,550204.000,  22.330316140, 114.180494643,   28.7391,  5, 18,  1.7426,  1.6996,  4.2942,  0.6459, -1.6653, -1.6336,  0.00,   0.0
2096,550205.000,  22.330282737, 114.180427288,   36.8058,  5, 18,  1.6112,  1.6066,  4.0494,  0.1185, -0.8680, -1.0061,  0.00,   0.0
2096,550206.000,  22.330315008, 114.180402748,   29.8315,  5, 17,  1.7429,  1.7208,  4.7169,  0.6508, -1.4981, -1.6186,  0.00,   0.0
2096,550207.000,  22.330319770, 114.180362897,   33.2783,  5, 18,  1.7428,  1.6993,  4.2939,  0.6454, -1.6647, -1.6336,  0.00,   0.0
2096,550208.000,  22.330298225, 114.180281004,   47.8180,  5, 18,  1.6114,  1.6064,  4.0487,  0.1162, -0.8667, -1.0061,  0.00,   0.0
2096,550209.000,  22.330301810, 114.180227841,   45.8988,  5, 19,  1.6111,  1.5434,  3.8053,  0.1662, -1.1686, -0.9838,  0.00,   0.0
2096,550210.000,  22.330339438, 114.180194437,   35.1647,  5, 18,  1.7407,  1.6761,  4.4386,  0.6770, -1.6910, -1.5727,  0.00,   0.0
2096,550211.000,  22.330318437, 114.180116868,   43.0177,  5, 19,  1.6112,  1.5432,  3.8048,  0.1652, -1.1680, -0.9838,  0.00,   0.0
2096,550212.000,  22.330361102, 114.180068174,   25.4933,  5, 18,  1.7408,  1.6759,  4.4383,  0.6767, -1.6906, -1.5727,  0.00,   0.0
2096,550213.000,  22.330346470, 114.180050089,   37.9995,  5, 17,  1.7433,  1.7201,  4.7162,  0.6496, -1.4962, -1.6189,  0.00,   0.0
2096,550214.000,  22.330329581, 114.179988556,   40.3171,  5, 19,  1.6043,  1.5564,  3.7522, -0.2206, -1.1607, -1.1165,  0.00,   0.0
2096,550215.000,  22.330300219, 114.179948324,   36.3626,  5, 19,  1.6044,  1.5563,  3.7520, -0.2210, -1.1604, -1.1164,  0.00,   0.0
2096,550216.000,  22.330310923, 114.179888340,   36.3339,  5, 18,  1.6118,  1.6057,  4.0469,  0.1096, -0.8633, -1.0062,  0.00,   0.0
2096,550217.000,  22.330317729, 114.179833000,   39.7608,  5, 18,  1.6119,  1.6057,  4.0467,  0.1088, -0.8628, -1.0062,  0.00,   0.0
2096,550218.000,  22.330360022, 114.179797593,   32.6895,  5, 16,  1.7767,  1.7384,  5.1244,  0.7128, -1.3124, -1.3916,  0.00,   0.0
2096,550219.000,  22.330368137, 114.179737296,   36.3777,  5, 16,  1.7767,  1.7383,  5.1244,  0.7126, -1.3121, -1.3916,  0.00,   0.0
2096,550220.000,  22.330367720, 114.179692165,   48.6885,  5, 17,  1.6599,  1.6343,  4.4272,  0.3637, -0.4390, -0.5488,  0.00,   0.0
2096,550226.000,  22.330439197, 114.179512460,   16.7041,  5, 18,  1.6507,  1.5493,  3.9745,  0.2650, -1.0914, -0.7492,  0.00,   0.0
2096,550227.000,  22.330480973, 114.179523413,   24.4677,  5, 18,  1.6586,  1.5515,  4.0353,  0.3035, -1.0575, -0.6625,  0.00,   0.0
2096,550228.000,  22.330508236, 114.179508148,   17.2268,  5, 18,  1.6419,  1.8091,  4.2549, -0.2479, -1.9005, -0.8136,  0.00,   0.0
2096,550229.000,  22.330535314, 114.179528153,   13.3810,  5, 17,  1.6609,  1.8305,  4.5495,  0.0918, -1.7774, -0.5083,  0.00,   0.0
2096,550230.000,  22.330548291, 114.179515343,   14.3306,  5, 16,  1.6631,  1.8795,  4.9751,  0.2097, -1.5157, -0.2988,  0.00,   0.0
2096,550231.000,  22.330536431, 114.179474815,   30.9572,  5, 16,  1.6631,  1.8794,  4.9749,  0.2092, -1.5152, -0.2985,  0.00,   0.0
2096,550232.000,  22.330540809, 114.179478326,   37.4248,  5, 16,  1.6632,  1.8792,  4.9746,  0.2086, -1.5148, -0.2981,  0.00,   0.0
2096,550233.000,  22.330577128, 114.179539088,   15.5939,  5, 15,  1.7911,  2.1992,  6.4305,  0.8959, -2.6362, -1.6724,  0.00,   0.0
2096,550234.000,  22.330570550, 114.179503935,   20.2873,  5, 16,  1.6633,  1.8789,  4.9741,  0.2074, -1.5138, -0.2975,  0.00,   0.0
2096,550235.000,  22.330572111, 114.179530521,   18.2532,  5, 16,  1.6717,  2.0697,  4.6396, -0.5985, -2.0528, -0.5403,  0.00,   0.0
2096,550236.000,  22.330576035, 114.179536848,   16.3765,  5, 16,  1.6718,  2.0694,  4.6393, -0.5987, -2.0524, -0.5400,  0.00,   0.0
2096,550237.000,  22.330573962, 114.179527331,   19.5730,  5, 16,  1.6719,  2.0692,  4.6390, -0.5990, -2.0520, -0.5397,  0.00,   0.0
2096,550238.000,  22.330565090, 114.179507016,   23.7266,  5, 16,  1.6720,  2.0690,  4.6387, -0.5992, -2.0516, -0.5393,  0.00,   0.0
2096,550239.000,  22.330566127, 114.179509023,   23.0412,  5, 16,  1.6720,  2.0688,  4.6384, -0.5995, -2.0512, -0.5390,  0.00,   0.0
2096,550240.000,  22.330565688, 114.179511739,   22.2837,  5, 16,  1.6721,  2.0686,  4.6382, -0.5997, -2.0508, -0.5387,  0.00,   0.0
2096,550241.000,  22.330573153, 114.179527561,   17.7325,  5, 16,  1.6722,  2.0684,  4.6379, -0.6000, -2.0504, -0.5384,  0.00,   0.0
2096,550242.000,  22.330579905, 114.179539507,   14.5283,  5, 16,  1.6723,  2.0681,  4.6376, -0.6002, -2.0500, -0.5380,  0.00,   0.0
2096,550243.000,  22.330584424, 114.179553532,   12.3676,  5, 16,  1.6724,  2.0679,  4.6373, -0.6005, -2.0496, -0.5377,  0.00,   0.0
2096,550244.000,  22.330581577, 114.179542473,   15.5698,  5, 16,  1.6724,  2.0677,  4.6370, -0.6007, -2.0492, -0.5374,  0.00,   0.0
2096,550245.000,  22.330580220, 114.179536035,   19.8625,  5, 16,  1.6725,  2.0675,  4.6367, -0.6010, -2.0488, -0.5371,  0.00,   0.0
2096,550246.000,  22.330585171, 114.179469655,   32.0877,  5, 17,  1.6630,  1.6595,  3.9824, -0.3754, -1.1266, -0.8443,  0.00,   0.0
2096,550247.000,  22.330586620, 114.179507307,   22.9677,  5, 17,  1.6631,  1.6594,  3.9822, -0.3757, -1.1262, -0.8443,  0.00,   0.0
2096,550248.000,  22.330576102, 114.179536087,   20.8227,  5, 16,  1.6728,  2.0668,  4.6359, -0.6017, -2.0476, -0.5361,  0.00,   0.0
2096,550249.000,  22.330573224, 114.179529185,   21.6428,  5, 16,  1.6728,  2.0666,  4.6356, -0.6020, -2.0472, -0.5358,  0.00,   0.0
2096,550250.000,  22.330576935, 114.179543020,   19.3291,  5, 16,  1.6729,  2.0664,  4.6353, -0.6022, -2.0468, -0.5355,  0.00,   0.0
2096,550251.000,  22.330578528, 114.179545262,   20.4350,  5, 16,  1.6730,  2.0662,  4.6350, -0.6025, -2.0464, -0.5351,  0.00,   0.0
2096,550252.000,  22.330570708, 114.179525653,   22.9100,  5, 16,  1.6731,  2.0660,  4.6347, -0.6027, -2.0460, -0.5348,  0.00,   0.0
2096,550253.000,  22.330564156, 114.179512378,   25.0720,  5, 16,  1.6732,  2.0658,  4.6344, -0.6030, -2.0456, -0.5345,  0.00,   0.0
2096,550254.000,  22.330573711, 114.179468353,   35.8862,  5, 17,  1.6636,  1.6586,  3.9813, -0.3776, -1.1240, -0.8436,  0.00,   0.0
2096,550256.000,  22.330560207, 114.179510021,   26.6308,  5, 16,  1.6734,  2.0651,  4.6336, -0.6037, -2.0444, -0.5335,  0.00,   0.0
2096,550257.000,  22.330560735, 114.179504704,   28.2820,  5, 16,  1.6735,  2.0649,  4.6333, -0.6040, -2.0440, -0.5332,  0.00,   0.0
2096,550258.000,  22.330557455, 114.179492658,   32.1934,  5, 16,  1.6736,  2.0647,  4.6330, -0.6042, -2.0436, -0.5329,  0.00,   0.0
2096,550259.000,  22.330557808, 114.179492160,   33.9954,  5, 16,  1.6737,  2.0645,  4.6327, -0.6045, -2.0432, -0.5325,  0.00,   0.0
2096,550260.000,  22.330557210, 114.179483186,   36.6198,  5, 16,  1.6737,  2.0643,  4.6324, -0.6047, -2.0428, -0.5322,  0.00,   0.0
2096,550261.000,  22.330554691, 114.179482796,   35.3269,  5, 16,  1.6738,  2.0640,  4.6321, -0.6050, -2.0424, -0.5319,  0.00,   0.0
2096,550262.000,  22.330556369, 114.179488670,   31.6148,  5, 16,  1.6739,  2.0638,  4.6318, -0.6052, -2.0420, -0.5316,  0.00,   0.0
2096,550263.000,  22.330552835, 114.179486013,   31.2446,  5, 16,  1.6740,  2.0636,  4.6315, -0.6055, -2.0416, -0.5312,  0.00,   0.0
2096,550264.000,  22.330557252, 114.179493753,   29.2338,  5, 16,  1.6741,  2.0634,  4.6313, -0.6057, -2.0412, -0.5309,  0.00,   0.0
2096,550265.000,  22.330558520, 114.179496428,   28.4646,  5, 16,  1.6741,  2.0632,  4.6310, -0.6060, -2.0408, -0.5306,  0.00,   0.0
2096,550266.000,  22.330557010, 114.179496564,   28.5487,  5, 16,  1.6742,  2.0630,  4.6307, -0.6062, -2.0404, -0.5303,  0.00,   0.0
2096,550267.000,  22.330561142, 114.179498799,   29.0265,  5, 15,  1.6897,  2.0821,  5.1263, -0.5507, -1.8809,  0.4685,  0.00,   0.0
2096,550268.000,  22.330564674, 114.179508986,   26.6648,  5, 15,  1.6897,  2.0820,  5.1259, -0.5510, -1.8804,  0.4686,  0.00,   0.0
2096,550269.000,  22.330569656, 114.179518367,   25.1719,  5, 15,  1.6898,  2.0818,  5.1256, -0.5512, -1.8799,  0.4688,  0.00,   0.0
2096,550270.000,  22.330575293, 114.179530189,   21.7820,  5, 15,  1.6899,  2.0816,  5.1252, -0.5515, -1.8794,  0.4690,  0.00,   0.0
2096,550271.000,  22.330579722, 114.179538689,   20.2615,  5, 15,  1.6900,  2.0814,  5.1248, -0.5518, -1.8789,  0.4692,  0.00,   0.0
2096,550272.000,  22.330585470, 114.179549658,   15.2489,  5, 15,  1.6900,  2.0812,  5.1245, -0.5520, -1.8784,  0.4694,  0.00,   0.0
2096,550273.000,  22.330589799, 114.179559557,   14.0368,  5, 15,  1.6901,  2.0810,  5.1241, -0.5523, -1.8779,  0.4696,  0.00,   0.0
2096,550274.000,  22.330594302, 114.179568026,   12.5421,  5, 15,  1.6902,  2.0808,  5.1238, -0.5525, -1.8773,  0.4698,  0.00,   0.0
2096,550275.000,  22.330591540, 114.179563578,   10.4140,  5, 16,  1.6749,  2.0610,  4.6281, -0.6084, -2.0368, -0.5273,  0.00,   0.0
2096,550276.000,  22.330594608, 114.179567515,   16.8573,  5, 16,  1.6750,  2.0608,  4.6278, -0.6087, -2.0364, -0.5270,  0.00,   0.0
2096,550277.000,  22.330599940, 114.179575376,   17.9707,  5, 16,  1.6751,  2.0606,  4.6275, -0.6089, -2.0360, -0.5267,  0.00,   0.0
2096,550278.000,  22.330607825, 114.179543847,   28.1880,  5, 17,  1.6652,  1.6560,  3.9782, -0.3841, -1.1163, -0.8414,  0.00,   0.0
2096,550279.000,  22.330603965, 114.179566573,   27.3043,  5, 17,  1.6653,  1.6559,  3.9781, -0.3844, -1.1160, -0.8414,  0.00,   0.0
2096,550280.000,  22.330607819, 114.179586051,   29.6941,  5, 16,  1.6753,  2.0600,  4.6267, -0.6097, -2.0348, -0.5257,  0.00,   0.0
2096,550285.000,  22.330593257, 114.179536289,   49.9931,  5, 18,  1.6657,  1.6052,  3.7534, -0.3845, -1.3314, -0.8385,  0.00,   0.0
2096,550286.000,  22.330588122, 114.179546908,   49.7136,  5, 18,  1.6658,  1.6050,  3.7532, -0.3847, -1.3311, -0.8384,  0.00,   0.0
2096,550287.000,  22.330584345, 114.179559246,   50.7653,  5, 18,  1.6658,  1.6049,  3.7530, -0.3850, -1.3309, -0.8383,  0.00,   0.0
2096,550289.000,  22.330581001, 114.179537613,   47.3766,  5, 16,  1.6761,  2.0580,  4.6241, -0.6119, -2.0311, -0.5228,  0.00,   0.0
2096,550290.000,  22.330583067, 114.179544748,   44.9099,  5, 16,  1.6761,  2.0578,  4.6238, -0.6121, -2.0307, -0.5224,  0.00,   0.0
2096,550291.000,  22.330581207, 114.179547141,   44.0957,  5, 16,  1.6762,  2.0576,  4.6235, -0.6124, -2.0303, -0.5221,  0.00,   0.0
2096,550292.000,  22.330582748, 114.179550015,   43.8801,  5, 16,  1.6763,  2.0574,  4.6232, -0.6126, -2.0299, -0.5218,  0.00,   0.0
2096,550293.000,  22.330582635, 114.179549651,   44.3543,  5, 16,  1.6764,  2.0572,  4.6229, -0.6129, -2.0295, -0.5214,  0.00,   0.0
2096,550295.000,  22.330578096, 114.179498435,   53.3797,  5, 17,  1.6462,  1.8269,  4.4824, -0.2757, -1.7462, -0.7936,  0.00,   0.0
2096,550297.000,  22.330569403, 114.179518742,   48.9698,  5, 16,  1.6767,  2.0563,  4.6218, -0.6138, -2.0279, -0.5201,  0.00,   0.0
2096,550298.000,  22.330572757, 114.179531291,   45.5865,  5, 16,  1.6768,  2.0561,  4.6215, -0.6141, -2.0275, -0.5198,  0.00,   0.0
2096,550299.000,  22.330574189, 114.179532547,   45.7479,  5, 16,  1.6769,  2.0559,  4.6212, -0.6143, -2.0271, -0.5195,  0.00,   0.0
2096,550301.000,  22.330583900, 114.179494805,   53.1654,  5, 17,  1.6668,  1.6535,  3.9752, -0.3902, -1.1089, -0.8394,  0.00,   0.0
2096,550302.000,  22.330584048, 114.179504701,   50.3608,  5, 17,  1.6669,  1.6533,  3.9750, -0.3905, -1.1086, -0.8393,  0.00,   0.0
2096,550303.000,  22.330580215, 114.179511617,   46.5176,  5, 17,  1.6669,  1.6532,  3.9749, -0.3908, -1.1083, -0.8392,  0.00,   0.0
2096,550304.000,  22.330582772, 114.179486182,   51.2862,  5, 17,  1.6670,  1.6531,  3.9748, -0.3910, -1.1079, -0.8391,  0.00,   0.0
2096,550306.000,  22.330575486, 114.179528613,   42.7545,  5, 16,  1.6774,  2.0544,  4.6192, -0.6160, -2.0243, -0.5172,  0.00,   0.0
2096,550307.000,  22.330576200, 114.179527569,   43.6492,  5, 16,  1.6775,  2.0542,  4.6189, -0.6163, -2.0239, -0.5169,  0.00,   0.0
2096,550308.000,  22.330573613, 114.179525377,   42.9299,  5, 16,  1.6776,  2.0540,  4.6186, -0.6165, -2.0235, -0.5165,  0.00,   0.0
2096,550309.000,  22.330579985, 114.179475356,   51.9789,  5, 17,  1.6673,  1.6526,  3.9741, -0.3923, -1.1063, -0.8386,  0.00,   0.0
2096,550311.000,  22.330572967, 114.179526798,   42.7071,  5, 16,  1.6778,  2.0534,  4.6177, -0.6172, -2.0223, -0.5155,  0.00,   0.0
2096,550312.000,  22.330572976, 114.179526839,   41.6999,  5, 16,  1.6779,  2.0531,  4.6174, -0.6175, -2.0219, -0.5152,  0.00,   0.0
2096,550313.000,  22.330572369, 114.179527537,   41.3033,  5, 16,  1.6780,  2.0529,  4.6171, -0.6177, -2.0215, -0.5149,  0.00,   0.0
2096,550314.000,  22.330572563, 114.179526180,   40.4953,  5, 16,  1.6780,  2.0527,  4.6169, -0.6179, -2.0211, -0.5146,  0.00,   0.0
2096,550315.000,  22.330573326, 114.179528898,   39.6802,  5, 16,  1.6781,  2.0525,  4.6166, -0.6182, -2.0206, -0.5142,  0.00,   0.0
2096,550316.000,  22.330572889, 114.179530739,   39.0282,  5, 16,  1.6782,  2.0523,  4.6163, -0.6184, -2.0202, -0.5139,  0.00,   0.0
2096,550317.000,  22.330574068, 114.179531206,   38.4141,  5, 16,  1.6783,  2.0521,  4.6160, -0.6187, -2.0198, -0.5136,  0.00,   0.0
2096,550318.000,  22.330583576, 114.179482434,   49.1466,  5, 17,  1.6680,  1.6516,  3.9729, -0.3947, -1.1034, -0.8378,  0.00,   0.0
2096,550319.000,  22.330581023, 114.179498596,   44.1701,  5, 17,  1.6680,  1.6515,  3.9728, -0.3950, -1.1031, -0.8377,  0.00,   0.0
2096,550320.000,  22.330568051, 114.179594499,   23.9901,  5, 17,  1.6681,  1.6514,  3.9727, -0.3952, -1.1027, -0.8377,  0.00,   0.0
2096,550321.000,  22.330576952, 114.179539266,   34.2568,  5, 16,  1.6786,  2.0512,  4.6148, -0.6196, -2.0182, -0.5123,  0.00,   0.0
2096,550322.000,  22.330575739, 114.179539147,   31.5878,  5, 16,  1.6787,  2.0510,  4.6145, -0.6199, -2.0178, -0.5119,  0.00,   0.0
2096,550327.000,  22.330591894, 114.179578653,   20.4108,  5, 16,  1.6791,  2.0500,  4.6131, -0.6211, -2.0158, -0.5103,  0.00,   0.0
2096,550328.000,  22.330593172, 114.179579590,   21.2314,  5, 16,  1.6792,  2.0498,  4.6128, -0.6213, -2.0154, -0.5100,  0.00,   0.0
2096,550329.000,  22.330594134, 114.179578169,   22.4721,  5, 16,  1.6792,  2.0495,  4.6125, -0.6215, -2.0150, -0.5096,  0.00,   0.0
2096,550330.000,  22.330588231, 114.179564496,   26.1135,  5, 16,  1.6793,  2.0493,  4.6122, -0.6218, -2.0146, -0.5093,  0.00,   0.0
2096,550331.000,  22.330587936, 114.179565460,   25.0607,  5, 16,  1.6794,  2.0491,  4.6119, -0.6220, -2.0142, -0.5090,  0.00,   0.0
2096,550332.000,  22.330592683, 114.179572555,   24.2179,  5, 16,  1.6795,  2.0489,  4.6117, -0.6222, -2.0138, -0.5086,  0.00,   0.0
2096,550333.000,  22.330594355, 114.179575307,   25.2616,  5, 16,  1.6796,  2.0487,  4.6114, -0.6225, -2.0134, -0.5083,  0.00,   0.0
2096,550334.000,  22.330588926, 114.179563047,   27.2070,  5, 16,  1.6796,  2.0485,  4.6111, -0.6227, -2.0130, -0.5080,  0.00,   0.0
2096,550335.000,  22.330595498, 114.179577267,   26.6800,  5, 16,  1.6797,  2.0483,  4.6108, -0.6230, -2.0126, -0.5077,  0.00,   0.0
2096,550336.000,  22.330593055, 114.179552711,   32.9881,  5, 17,  1.6692,  1.6497,  3.9706, -0.3994, -1.0975, -0.8362,  0.00,   0.0
2096,550337.000,  22.330594090, 114.179536093,   35.4057,  5, 17,  1.6692,  1.6495,  3.9704, -0.3996, -1.0972, -0.8361,  0.00,   0.0
2096,550339.000,  22.330592393, 114.179569347,   30.4524,  5, 16,  1.6800,  2.0474,  4.6096, -0.6239, -2.0110, -0.5063,  0.00,   0.0
