     3.03           OBSERVATION DATA    M: Mixed            RINEX VERSION / TYPE
RTKCONV demo5 b33c                      20210520 090433 UTC PGM / RUN BY / DATE 
log: C:\Users\Ivan_PolyU_Dktp\Dropbox\HUAWEI Exp\20210518_  COMMENT             
format: RINEX                                               COMMENT             
Geo++                                                       MARKER NAME         
                                                            MARKER NUMBER       
                                                            MARKER TYPE         
                                                            OBSERVER / AGENCY   
unknown             HUAWEI              ELS-AN00            REC # / TYPE / VERS 
unknown             ELS-AN00                                ANT # / TYPE        
 -2419219.6360  5385467.2026  2405342.6703                  APPROX POSITION XYZ 
        0.0000        0.0000        0.0000                  ANTENNA: DELTA H/E/N
G    8 C1C L1C D1C S1C C5Q L5Q D5Q S5Q                      SYS / # / OBS TYPES 
R    4 C1C L1C D1C S1C                                      SYS / # / OBS TYPES 
E    4 C5Q L5Q D5Q S5Q                                      SYS / # / OBS TYPES 
J    8 C1C L1C D1C S1C C5Q L5Q D5Q S5Q                      SYS / # / OBS TYPES 
C    4 C2I L2I D2I S2I                                      SYS / # / OBS TYPES 
  2021     5    18     3     7   14.9981320     GPS         TIME OF FIRST OBS   
  2021     5    18     4     3   21.9990193     GPS         TIME OF LAST OBS    
G                                                           SYS / PHASE SHIFT   
R                                                           SYS / PHASE SHIFT   
E                                                           SYS / PHASE SHIFT   
J                                                           SYS / PHASE SHIFT   
C                                                           SYS / PHASE SHIFT   
  3 R01  1 R09 -2 R17  4                                    GLONASS SLOT / FRQ #
 C1C    0.000 C1P    0.000 C2C    0.000 C2P    0.000        GLONASS COD/PHS/BIS 
                                                            END OF HEADER       
> 2021  5 18  3  7 14.9981320  0  6                     
C10  37272901.907 1 194089976.204 1      -741.358          25.000  
C23  23085966.418 1 120214653.252 1     -2647.178          25.000  
C37  22086159.770 1 115008422.027 1        70.490          41.000  
G 7  20340046.479 1 106887659.348 1        -4.592          31.000                                                                  
G21  20529444.261 1 107882944.539 1     -1654.439          31.000                                                                  
J 3  38975685.894 1 204818609.904 1     -1809.267          25.000                                                                  
> 2021  5 18  3  7 15.9981315  0  8                     
C10  37272893.513 1 194089935.875 1      -740.048          24.000  
C13  38598379.998 1 200991861.11811       547.114          24.000  
C23  23086322.871 1 120216519.503 1     -2648.011          25.000  
C37  22085996.683 1 115007570.990 1        69.954          40.000  
G 1  20405525.049 1 107231553.15111       983.618          13.000                                                                  
G 7  20339900.180 1 106886876.690 1        -7.501          31.000                                                                  
G21  20529615.143 1 107883812.607 1     -1655.788          30.000                                                                  
J 3  38975880.160 1 204819631.127 1     -1808.868          25.000                                                                  
> 2021  5 18  3  7 16.9981307  0  8                     
C10  37272796.380 1 194089426.159 1      -737.429          24.000  
C13  38598036.735 1 200990064.956 1       547.037          22.000  
C23  23086591.185 1 120217918.249 1     -2647.334          24.000  
C37  22085743.358 1 115006251.927 1        69.700          40.000  
G 7  20339657.048 1 106885622.014 1        -5.270          30.000                                                                  
G21  20529683.496 1 107884208.604 1     -1656.015          30.000                                                                  
J 3  38975983.888 1 204820179.557 1     -1807.903          25.000                                                                  
R21  20193695.296 1 108060542.57611       985.821          17.000  
> 2021  5 18  3  7 17.9981302  0  9                     
C10  37272788.286 1 194089383.465 1      -737.988          26.000  
C13  38597779.513 1 200988737.189 1       547.664          24.000  
C23  23086950.037 1 120219784.518 1     -2646.139          24.000  
C37  22085579.072 1 115005401.376 1        70.032          40.000  
G 1  20404763.876 1 107227538.12511       983.362          17.000                                                                  
G 7  20339505.953 1 106884840.410 1        -7.399          30.000                                                                  
G21  20529850.780 1 107885077.648 1     -1654.590          30.000                                                                  
J 3  38976176.954 1 204821199.441 1     -1807.083          24.000                                                                  
R21  20193368.822 1 108058794.984 1       985.059          18.000  
> 2021  5 18  3  7 18.9981294  0  7                     
C10  37272691.153 1 194088872.207 1      -737.536          25.000  
C13  38597434.452 1 200986940.097 1       548.061          24.000  
C23  23087220.150 1 120221182.577 1     -2649.036          22.000  
C37  22085326.347 1 115004082.620 1        69.467          40.000  
G 7  20339265.819 1 106883586.404 1        -7.914          30.000                                                                  
G21  20529926.628 1 107885474.501 1     -1659.653          29.000                                                                  
J 3  38976278.884 1 204821746.710 1     -1808.142          23.000                                                                  
> 2021  5 18  3  7 19.9981289  0  8                     
C10  37272682.759 1 194088829.051 1      -737.249          26.000  
C13  38597179.629 1 200985611.531 1       548.319          24.000  
C28  22156304.609 1 115373587.13111     -2572.528          16.000  
C37  22085163.260 1 115003232.453 1        69.741          39.000  
G 1  20404000.305 1 107223521.74011       984.486          20.000                                                                  
G 7  20339119.820 1 106882805.682 1        -7.130          30.000                                                                  
G21  20530088.815 1 107886344.493 1     -1657.578          30.000                                                                  
J 3  38976471.950 1 204822766.336 1     -1806.581          25.000                                                                  
> 2021  5 18  3  7 20.9981281  0  9                     
C10  37272584.127 1 194088318.095 1      -738.563          26.000  
C13  38596834.567 1 200983814.154 1       548.844          25.000  
C37  22084909.935 1 115001914.062 1        68.946          40.000  
E27  25630052.584 1 100577830.75611       581.002          23.000  
G 1  20403573.100 1 107221278.261 1       982.251          25.000                                                                  
G 7  20338880.886 1 106881552.573 1        -7.464          31.000                                                                  
G21  20530161.365 1 107886742.173 1     -1658.142          30.000                                                                  
J 3  38976576.877 1 204823312.153 1     -1806.034          25.000                                                                  
R21  20192196.034 1 108052519.33011       984.340          18.000  
> 2021  5 18  3  7 21.9981274  0 10                     
C10  37272515.774 1 194087963.738 1      -737.954          26.000  
C13  38596523.083 1 200982173.242 1       546.933          23.000  
C23  23088144.410 1 120226005.86411     -2644.662          18.000  
C37  22084686.590 1 115000752.041 1        68.534          40.000  
E27  25629694.931 1 100576426.797 1       579.596          23.000  
G 1  20403177.374 1 107219193.503 1       981.556          24.000                                                                  
G 7  20338670.431 1 106880457.553 1        -9.183          31.000                                                                  
G21  20530267.492 1 107887298.012 1     -1657.978          30.000                                                                  
J 3  38976710.885 1 204824014.976 1     -1805.276          24.000                                                                  
R21  20191803.006 1 108050416.192 1       983.574          19.000  
> 2021  5 18  3  7 22.9981268  0  9                     
C10  37272476.801 1 194087765.310 1      -739.190          26.000  
C28  22157155.720 1 115378026.93511     -2570.889          16.000  
C37  22084493.223 1 114999746.380 1        68.725          40.000  
E27  25629366.359 1 100575140.399 1       580.712          25.000  
G 1  20402809.529 1 107217268.652 1       978.360          24.000                                                                  
G 7  20338492.954 1 106879520.565 1        -8.200          31.000                                                                  
G21  20530408.994 1 107888011.857 1     -1660.948          30.000                                                                  
J 3  38976874.271 1 204824875.631 1     -1806.708          24.000                                                                  
R21  20191445.953 1 108048505.127 1       983.645          19.000  
> 2021  5 18  3  7 23.9981263  0  8                     
C10  37272469.906 1 194087723.769 1      -739.413          25.000  
C13  38595984.656 1 200979366.51011       544.712          20.000  
C37  22084330.136 1 114998896.991 1        68.422          40.000  
E27  25629068.665 1 100573972.394 1       580.653          23.000  
G 1  20402473.162 1 107215502.524 1       978.497          24.000                                                                  
G 7  20338345.456 1 106878741.514 1        -9.593          32.000                                                                  
G21  20530573.879 1 107888883.640 1     -1660.198          30.000                                                                  
R21  20191117.081 1 108046745.985 1       982.226          19.000  
> 2021  5 18  3  7 24.9981256  0 10                     
C10  37272402.753 1 194087368.074 1      -737.460          26.000  
C13  38595669.874 1 200977727.897 1       546.398          25.000  
C28  22157782.287 1 115381295.88911     -2572.185          17.000  
C37  22084107.391 1 114997735.510 1        67.906          41.000  
E27  25628709.813 1 100572567.939 1       581.853          24.000  
G 1  20402077.436 1 107213421.510 1       978.747          22.000                                                                  
G 7  20338143.996 1 106877647.818 1       -10.074          32.000                                                                  
G21  20530672.811 1 107889440.756 1     -1662.091          30.000                                                                  
J 3  38977201.045 1 204826596.66111     -1805.971          23.000                                                                  
R21  20190722.853 1 108044635.558 1       981.539          20.000  
> 2021  5 18  3  7 25.9981248  0  9                     
C10  37272304.121 1 194086856.316 1      -737.330          24.000  
C13  38595322.114 1 200975930.730 1       548.245          25.000  
C28  22158035.611 1 115382618.833 1     -2571.007          19.000  
C37  22083854.066 1 114996418.035 1        68.576          40.000  
E27  25628322.482 1 100571044.809 1       580.490          24.000  
G 1  20401650.831 1 107211182.729 1       977.511          23.000                                                                  
G 7  20337902.663 1 106876396.796 1        -8.815          32.000                                                                  
G21  20530750.457 1 107889840.669 1     -1660.106          30.000                                                                  
R21  20190299.546 1 108042371.082 1       981.427          21.000  
> 2021  5 18  3  7 26.9981243  0  9                     
C10  37272298.725 1 194086811.826 1      -736.222          24.000  
C13  38595063.993 1 200974600.703 1       550.635          22.000  
C28  22158379.473 1 115384411.124 1     -2574.621          20.000  
C37  22083691.578 1 114995568.992 1        68.078          40.000  
E27  25628023.888 1 100569874.582 1       582.028          24.000  
G 1  20401313.864 1 107209415.696 1       979.632          23.000                                                                  
G21  20530918.341 1 107890713.675 1     -1662.206          30.000                                                                  
J 3  38977498.439 1 204828159.89311     -1805.902          24.000                                                                  
R21  20189969.475 1 108040604.893 1       980.659          21.000  
> 2021  5 18  3  7 27.9981235  0  9                     
C10  37272200.692 1 194086298.688 1      -735.452          25.000  
C23  23090004.023 1 120235786.20511     -2652.932          13.000  
C37  22083438.254 1 114994251.758 1        68.536          40.000  
E27  25627635.657 1 100568349.904 1       585.075          25.000  
G 1  20400886.360 1 107207174.116 1       981.783          23.000                                                                  
G 7  20337513.233 1 106874368.77711       -10.981          31.000                                                                  
G21  20530999.285 1 107891114.451 1     -1660.659          30.000                                                                  
J 3  38977601.568 1 204828703.913 1     -1803.902          24.000                                                                  
R21  20189548.267 1 108038350.107 1       980.104          21.000  
> 2021  5 18  3  7 28.9981230  0  7                     
C10  37272191.099 1 194086252.820 1      -734.877          23.000  
C13  38594460.211 1 200971472.77211       550.012          18.000  
C37  22083275.167 1 114993402.958 1        68.010          40.000  
E27  25627337.364 1 100567176.991 1       583.407          25.000  
G 7  20337369.632 1 106873591.537 1       -10.194          32.000                                                                  
G21  20531166.269 1 107891988.158 1     -1661.499          31.000                                                                  
R21  20189213.398 1 108036558.726 1       979.806          21.000  
> 2021  5 18  3  7 29.9981222  0  8                     
C10  37272090.669 1 194085739.267 1      -736.171          25.000  
C13  38594116.049 1 200969672.889 1       551.479          23.000  
C37  22083022.741 1 114992085.959 1        67.867          41.000  
E27  25626950.331 1 100565654.141 1       582.426          24.000  
G 1  20400121.889 1 107203167.20411       978.202          21.000                                                                  
G21  20531243.016 1 107892389.676 1     -1663.200          32.000                                                                  
J 3  38977895.964 1 204830262.60811     -1801.877          25.000                                                                  
R21  20188789.192 1 108034288.352 1       979.821          20.000  
> 2021  5 18  3  7 30.9981217  0  7                     
C10  37272080.476 1 194085694.078 1      -735.268          25.000  
C13  38593858.827 1 200968340.328 1       551.989          25.000  
C37  22082859.055 1 114991237.519 1        67.739          43.000  
E27  25626652.038 1 100564485.426 1       579.526          24.000  
G 7  20336978.403 1 106871565.81111        -9.726          32.000                                                                  
G21  20531402.806 1 107893264.322 1     -1662.046          30.000                                                                  
J 3  38978087.532 1 204831277.855 1     -1803.018          23.000                                                                  
> 2021  5 18  3  7 31.9981210  0 10                     
C 3  36458861.355 1 189850722.02111      -974.884          31.000  
C10  37272009.725 1 194085336.425 1      -735.238          24.000  
C13  38593541.347 1 200966695.240 1       551.766          28.000  
C37  22082636.609 1 114990077.077 1        67.347          44.000  
E27  25626293.786 1 100563081.106 1       581.507          24.000  
G 7  20336772.745 1 106870474.799 1       -13.507          33.000                                                                  
G21  20531504.735 1 107893824.347 1     -1662.682          31.000                                                                  
G30  22736811.933 1 119482752.27411      1854.082          26.000                                                                  
J 3  38978220.939 1 204831978.411 1     -1803.922          24.000                                                                  
R21  20188058.898 1 108030380.56411       979.261          20.000  
> 2021  5 18  3  7 32.9981202  0 10                     
C 3  36458808.892 1 189850447.528 1      -973.976          31.000  
C10  37271910.493 1 194084824.019 1      -736.726          24.000  
C37  22082383.884 1 114988760.843 1        67.399          41.000  
E27  25625905.555 1 100561558.599 1       582.683          24.000  
G 1  20398957.496 1 107197085.99211       976.175          19.000                                                                  
G 7  20336535.909 1 106869226.865 1       -12.623          32.000                                                                  
G21  20531586.878 1 107894227.388 1     -1663.287          31.000                                                                  
G30  22736220.742 1 119479638.209 1      1853.270          26.000                                                                  
J 3  38978326.466 1 204832522.048 1     -1803.773          24.000                                                                  
R21  20187635.890 1 108028116.802 1       977.679          20.000  
> 2021  5 18  3  7 33.9981199  0 11                     
C 3  36458906.624 1 189850953.149 1      -974.085          28.000  
C10  37271959.659 1 194085092.156 1      -736.138          26.000  
C28  22160530.784 1 115395569.19111     -2576.741          26.000  
C37  22082281.355 1 114988225.222 1        67.133          41.000  
E27  25625666.021 1 100560622.935 1       583.166          25.000  
G 1  20398679.888 1 107195637.261 1       975.317          19.000                                                                  
G 7  20336448.670 1 106868766.897 1       -12.528          34.000                                                                  
G21  20531815.620 1 107895418.516 1     -1663.858          32.000                                                                  
G30  22735777.948 1 119477312.211 1      1852.185          26.000                                                                  
J 3  38978579.491 1 204833852.928 1     -1803.969          24.000                                                                  
R21  20187363.379 1 108026658.789 1       977.468          21.000  
> 2021  5 18  3  7 34.9981192  0 10                     
C10  37271888.908 1 194084734.652 1      -735.102          26.000  
C28  22160815.587 1 115397052.301 1     -2574.871          27.000  
C37  22082057.710 1 114987065.393 1        66.897          43.000  
E27  25625307.769 1 100559216.864 1       581.726          24.000  
G 1  20398280.564 1 107193559.330 1       974.911          19.000                                                                  
G 7  20336241.513 1 106867677.337 1       -13.789          34.000                                                                  
G21  20531922.046 1 107895979.963 1     -1663.582          32.000                                                                  
G30  22735216.737 1 119474357.227 1      1852.333          27.000                                                                  
J 3  38978711.999 1 204834554.505 1     -1803.810          24.000                                                                  
R21  20186974.548 1 108024577.670 1       977.052          21.000  
> 2021  5 18  3  7 35.9981184  0  9                     
C10  37271789.377 1 194084220.446 1      -734.641          26.000  
C28  22161070.410 1 115398378.645 1     -2575.450          26.000  
C37  22081804.985 1 114985749.598 1        66.948          43.000  
E27  25624919.537 1 100557693.741 1       582.588          24.000  
G 7  20336006.176 1 106866430.605 1       -15.112          33.000                                                                  
G21  20532000.292 1 107896384.262 1     -1665.536          32.000                                                                  
G30  22734626.446 1 119471244.626 1      1852.316          26.000                                                                  
J 3  38978814.528 1 204835096.937 1     -1802.579          24.000                                                                  
R21  20186554.239 1 108022329.211 1       976.597          21.000  
> 2021  5 18  3  7 36.9981176  0  9                     
C10  37271690.745 1 194083706.731 1      -735.426          25.000  
C13  38591998.316 1 200958638.16511       550.607          17.000  
C28  22161322.835 1 115399705.040 1     -2575.367          24.000  
C37  22081552.559 1 114984434.016 1        66.665          42.000  
E27  25624531.006 1 100556169.688 1       583.010          25.000  
G 7  20335768.141 1 106865184.227 1       -14.086          33.000                                                                  
G21  20532075.840 1 107896789.033 1     -1665.437          32.000                                                                  
G30  22734034.655 1 119468131.345 1      1853.180          27.000                                                                  
J 3  38978915.558 1 204835639.706 1     -1803.265          23.000                                                                  
> 2021  5 18  3  7 37.9981171  0 11                     
C10  37271681.152 1 194083660.777 1      -734.037          25.000  
C13  38591742.593 1 200957305.802 1       553.965          17.000  
C28  22161666.398 1 115401498.832 1     -2573.753          23.000  
C37  22081390.971 1 114983586.814 1        66.358          41.000  
E27  25624232.113 1 100554998.487 1       584.313          24.000  
G 1  20397078.696 1 107187321.37811       977.685          18.000                                                                  
G 7  20335626.339 1 106864410.950 1       -15.006          32.000                                                                  
G21  20532244.923 1 107897666.768 1     -1666.240          31.000                                                                  
G30  22733532.203 1 119465490.320 1      1854.180          26.000                                                                  
J 3  38979108.025 1 204836655.860 1     -1805.199          22.000                                                                  
R21  20185810.754 1 108018350.44811       974.787          21.000  
> 2021  5 18  3  7 38.9981166  0 10                     
C10  37271674.856 1 194083614.025 1      -733.851          24.000  
C13  38591490.167 1 200955972.765 1       552.123          17.000  
C28  22162008.461 1 115403292.169 1     -2574.115          23.000  
C37  22081228.184 1 114982739.750 1        66.417          39.000  
E27  25623933.520 1 100553827.385 1       585.021          24.000  
G 1  20396739.931 1 107185557.468 1       974.936          18.000                                                                  
G 7  20335477.942 1 106863637.923 1       -14.207          32.000                                                                  
G21  20532409.509 1 107898544.850 1     -1666.512          30.000                                                                  
G30  22733029.751 1 119462848.434 1      1854.404          24.000                                                                  
J 3  38979302.890 1 204837672.375 1     -1803.339          22.000                                                                  
> 2021  5 18  3  7 39.9981158  0  9                     
C10  37271575.625 1 194083097.359 1      -731.991          24.000  
C28  22162262.385 1 115404618.157 1     -2574.963          24.000  
C37  22080975.459 1 114981424.505 1        65.930          40.000  
E27  25623544.389 1 100552301.611 1       584.984          24.000  
G 1  20396313.026 1 107183322.833 1       973.739          19.000                                                                  
G 7  20335238.108 1 106862392.702 1       -16.447          33.000                                                                  
G21  20532483.557 1 107898950.799 1     -1664.993          31.000                                                                  
G30  22732437.361 1 119459733.986 1      1853.340          26.000                                                                  
J 3  38979405.419 1 204838213.817 1     -1800.571          22.000                                                                  
> 2021  5 18  3  7 40.9981153  0  7                     
C10  37271568.730 1 194083048.822 1      -732.001          25.000  
C28  22162607.146 1 115406413.289 1     -2576.631          24.000  
C37  22080813.271 1 114980577.649 1        65.635          41.000  
G 1  20395976.959 1 107181561.712 1       972.910          18.000                                                                  
G21  20532655.638 1 107899829.618 1     -1667.014          32.000                                                                  
G30  22731934.609 1 119457093.282 1      1852.807          26.000                                                                  
J 3  38979599.685 1 204839226.495 1     -1800.402          24.000                                                                  
> 2021  5 18  3  7 41.9981146  0  6                     
C10  37271499.478 1 194082687.481 1      -731.642          24.000  
C28  22162893.448 1 115407896.930 1     -2575.613          25.000  
C37  22080590.525 1 114979418.793 1        65.894          41.000  
G 7  20334882.254 1 106860533.53211       -13.973          32.000                                                                  
G21  20532758.467 1 107900393.851 1     -1668.871          32.000                                                                  
G30  22731373.398 1 119454138.673 1      1851.620          26.000                                                                  
> 2021  5 18  3  7 42.9981138  0  7                     
C10  37271401.446 1 194082169.537 1      -730.405          25.000  
C37  22080338.100 1 114978103.946 1        66.290          41.000  
G 1  20395158.825 1 107177254.44011       972.221          19.000                                                                  
G 7  20334645.118 1 106859289.406 1       -15.388          31.000                                                                  
G21  20532837.612 1 107900800.981 1     -1668.728          32.000                                                                  
G30  22730781.308 1 119451025.420 1      1852.634          26.000                                                                  
J 3  38979831.424 1 204840464.38111     -1800.003          22.000                                                                  
> 2021  5 18  3  7 43.9981133  0  9                     
C10  37271392.752 1 194082118.837 1      -729.730          25.000  
C28  22163497.830 1 115411020.00111     -2577.078          24.000  
C37  22080175.313 1 114977257.494 1        65.897          41.000  
G 1  20394823.657 1 107175494.391 1       972.314          24.000                                                                  
G 7  20334504.515 1 106858518.381 1       -18.374          31.000                                                                  
G 8  21983068.638 1 115521804.44311     -3267.968          25.000                                                                  
G21  20533009.094 1 107901681.068 1     -1667.735          32.000                                                                  
G30  22730278.855 1 119448385.316 1      1852.578          26.000                                                                  
J 3  38980022.392 1 204841475.963 1     -1799.205          24.000                                                                  
> 2021  5 18  3  7 44.9981128  0  7                     
C10  37271383.458 1 194082067.602 1      -729.861          24.000  
C37  22080012.226 1 114976410.999 1        66.095          40.000  
G 1  20394492.087 1 107173734.515 1       971.907          24.000                                                                  
G 7  20334353.720 1 106857747.519 1       -17.405          31.000                                                                  
G 8  21983543.809 1 115524284.517 1     -3267.623          24.000                                                                  
G21  20533173.680 1 107902561.585 1     -1668.024          30.000                                                                  
J 3  38980212.760 1 204842487.549 1     -1800.427          24.000                                                                  
> 2021  5 18  3  7 45.9981120  0  7                     
C10  37271283.028 1 194081547.285 1      -729.085          26.000  
C28  22164099.213 1 115414143.98511     -2575.721          24.000  
C37  22079759.501 1 114975095.930 1        66.141          39.000  
G 1  20394067.881 1 107171503.086 1       970.875          22.000                                                                  
G 7  20334121.081 1 106856504.143 1       -17.268          30.000                                                                  
G 8  21983923.646 1 115526291.316 1     -3267.207          17.000                                                                  
G21  20533250.427 1 107902970.338 1     -1670.161          26.000                                                                  
> 2021  5 18  3  7 46.9981112  0  7                     
C10  37271182.897 1 194081026.327 1      -727.866          28.000  
C28  22164356.735 1 115415470.659 1     -2575.499          27.000  
C37  22079506.476 1 114973780.558 1        67.261          39.000  
G 7  20333882.746 1 106855261.098 1       -17.303          24.000                                                                  
G 8  21984313.077 1 115528299.119 1     -3268.268          18.000                                                                  
G21  20533325.674 1 107903379.842 1     -1669.688          26.000                                                                  
G30  22728590.424 1 119439524.66611      1849.788          16.000                                                                  
> 2021  5 18  3  7 47.9981107  0  8                     
C10  37271172.404 1 194080973.294 1      -727.265          32.000  
C28  22164704.494 1 115417265.924 1     -2576.782          24.000  
C37  22079341.890 1 114972933.160 1        66.798          40.000  
G 1  20393311.204 1 107167515.18011       967.265          23.000                                                                  
G 7  20333735.848 1 106854490.634 1       -17.482          32.000                                                                  
G 8  21984788.847 1 115530778.329 1     -3265.255          23.000                                                                  
G21  20533491.759 1 107904261.549 1     -1669.681          27.000                                                                  
J 3  38980620.778 1 204844580.03411     -1798.416          19.000                                                                  
> 2021  5 18  3  7 48.9981100  0  8                     
C10  37271101.953 1 194080606.730 1      -726.537          27.000  
C28  22164991.696 1 115418750.023 1     -2577.523          27.000  
C37  22079120.343 1 114971773.361 1        66.398          38.000  
G 1  20392917.277 1 107165444.527 1       969.069          19.000                                                                  
G 7  20333528.091 1 106853405.530 1       -18.249          31.000                                                                  
G21  20533599.985 1 107904829.280 1     -1670.527          23.000                                                                  
G30  22727530.358 1 119433932.63511      1850.895          17.000                                                                  
J 3  38980755.984 1 204845275.046 1     -1798.854          25.000                                                                  
> 2021  5 18  3  7 49.9981094  0  7                     
C10  37271061.481 1 194080395.827 1      -724.476          29.000  
C28  22165309.176 1 115420390.380 1     -2576.370          25.000  
C37  22078929.975 1 114970769.642 1        67.350          38.000  
G 1  20392556.627 1 107163529.998 1       967.904          21.000                                                                  
G 7  20333350.914 1 106852478.757 1       -18.567          32.000                                                                  
G21  20533736.690 1 107905554.772 1     -1670.264          20.000                                                                  
J 3  38980919.071 1 204846127.583 1     -1797.715          23.000                                                                  
> 2021  5 18  3  7 50.9981089  0  8                     
C10  37271049.789 1 194080339.948 1      -724.924          29.000  
C28  22165658.134 1 115422185.721 1     -2576.205          23.000  
C37  22078766.888 1 114969922.357 1        66.810          37.000  
G 7  20333203.716 1 106851709.491 1       -18.444          30.000                                                                  
G 8  21986112.431 1 115537735.85411     -3263.788          24.000                                                                  
G21  20533903.974 1 107906436.952 1     -1669.217          26.000                                                                  
G30  22726497.273 1 119428496.26311      1852.140          18.000                                                                  
J 3  38981113.637 1 204847138.808 1     -1798.927          25.000                                                                  
> 2021  5 18  3  7 51.9981082  0  8                     
C10  37270980.237 1 194079972.484 1      -725.674          30.000  
C28  22165944.436 1 115423668.764 1     -2575.276          22.000  
C37  22078543.542 1 114968763.294 1        66.030          39.000  
G 1  20391830.529 1 107159706.19211       967.357          24.000                                                                  
G 7  20332995.960 1 106850625.250 1       -18.913          35.000                                                                  
G 8  21986521.948 1 115539896.796 1     -3263.604          25.000                                                                  
G21  20534005.604 1 107907003.640 1     -1670.268          24.000                                                                  
J 3  38981247.044 1 204847835.054 1     -1798.931          26.000                                                                  
> 2021  5 18  3  7 52.9981074  0  8                     
C10  37270879.507 1 194079449.584 1      -726.739          27.000  
C28  22166197.761 1 115424996.608 1     -2576.372          22.000  
C37  22078291.117 1 114967448.369 1        66.438          39.000  
G 7  20332760.623 1 106849384.147 1       -19.825          34.000                                                                  
G 8  21986903.284 1 115541899.890 1     -3263.757          20.000                                                                  
G21  20534082.351 1 107907415.423 1     -1673.400          22.000                                                                  
G30  22725338.276 1 119422428.67211      1852.723          18.000                                                                  
J 3  38981352.871 1 204848373.585 1     -1797.596          21.000                                                                  
> 2021  5 18  3  7 53.9981066  0  4                     
C37  22078038.092 1 114966134.355 1        63.878          40.000  
G 1  20390986.914 1 107155250.17311       966.292          24.000                                                                  
G 7  20332531.881 1                       -21.830          34.000                                                                  
G 8  21987284.320 1 115543903.212 1     -3263.952          25.000                                                                  
> 2021  5 18  3  7 54.9981064  0  3                     
C37  22077966.442 1 114965758.054 1        64.325          41.000  
G 7  20332471.923 1                       -20.332          31.000                                                                  
G21  20534419.317 1 107909184.02011     -1672.760          27.000                                                                  
> 2021  5 18  3  7 55.9981056  0  6                     
C10  37270758.990 1 194078814.15411      -722.764          18.000  
C28  22167151.400 1 115429919.08211     -2576.873          17.000  
C37  22077714.916 1 114964445.179 1        63.820          42.000  
G 7  20332239.883 1 106846643.85511       -21.036          30.000                                                                  
G 8  21988223.570 1 115548859.53511     -3268.052          26.000                                                                  
G21  20534497.563 1 107909597.078 1     -1673.653          26.000                                                                  
> 2021  5 18  3  7 56.9981048  0  6                     
C28  22167407.123 1 115431246.171 1     -2576.243          18.000  
C37  22077460.692 1 114963132.330 1        64.164          41.000  
G 1  20389890.872 1 107149513.85011       966.916          19.000                                                                  
G 7  20332001.548 1 106845405.358 1       -20.358          32.000                                                                  
G 8  21988604.306 1 115550867.003 1     -3267.096          26.000                                                                  
G21  20534576.409 1 107910010.477 1     -1674.217          27.000                                                                  
> 2021  5 18  3  7 57.9981043  0  6                     
C13  38585780.320 1 200926302.56411       555.991          26.000  
C28  22167749.187 1 115433041.904 1     -2576.656          19.000  
C37  22077300.303 1 114962287.596 1        64.037          40.000  
G 1  20389559.302 1 107147758.714 1       967.962          20.000                                                                  
G 7  20331855.549 1 106844639.671 1       -21.112          32.000                                                                  
G21  20534747.890 1 107910897.055 1     -1674.482          28.000                                                                  
> 2021  5 18  3  7 58.9981036  0  6                     
C13  38585462.840 1 200924654.533 1       554.523          23.000  
C37  22077077.557 1 114961130.568 1        64.701          40.000  
G 7  20331648.992 1 106843559.166 1       -25.026          34.000                                                                  
G 8  21989481.799 1 115555510.62311     -3266.930          21.000                                                                  
G21  20534858.513 1 107911469.142 1     -1675.105          28.000                                                                  
G30  22722078.632 1 119405326.76011      1852.978          17.000                                                                  
> 2021  5 18  3  7 59.9981028  0  8                     
C10  37270479.884 1 194077343.67311      -726.201          20.000  
C13  38585115.980 1 200922851.182 1       554.199          21.000  
C28  22168284.316 1 115435853.87111     -2577.377          23.000  
C37  22076826.031 1 114959817.265 1        64.832          40.000  
G 1  20388747.464 1 107143461.82911       966.338          21.000                                                                  
G 7  20331413.355 1 106842321.709 1       -26.619          31.000                                                                  
G 8  21989861.036 1 115557516.563 1     -3265.856          21.000                                                                  
G21  20534938.258 1 107911884.736 1     -1676.211          28.000                                                                  
> 2021  5 18  3  8  0.9981023  0  7                     
C10  37270472.389 1 194077289.889 1      -726.525          25.000  
C28  22168624.281 1 115437651.059 1     -2577.074          26.000  
C37  22076663.844 1 114958972.681 1        63.969          40.000  
G 1  20388411.996 1 107141708.336 1       964.593          24.000                                                                  
G 7  20331269.755 1 106841556.959 1       -24.282          31.000                                                                  
G 8  21990330.811 1 115559994.826 1     -3265.743          23.000                                                                  
G21  20535107.041 1 107912773.139 1     -1676.669          27.000                                                                  
> 2021  5 18  3  8  1.9981018  0  8                     
C10  37270461.896 1 194077235.087 1      -726.450          27.000  
C28  22168965.445 1 115439447.385 1     -2576.542          26.000  
C37  22076500.757 1 114958128.158 1        63.828          41.000  
G 1  20388079.526 1 107139957.906 1       961.766          24.000                                                                  
G 7  20331128.553 1 106840792.650 1       -20.313          32.000                                                                  
G 8  21990801.785 1 115562471.582 1     -3263.801          23.000                                                                  
G21  20535278.223 1 107913662.980 1     -1677.469          27.000                                                                  
G30  22720485.535 1 119396934.69811      1851.370          17.000                                                                  
> 2021  5 18  3  8  2.9981010  0  8                     
C10  37270363.264 1 194076710.823 1      -724.528          23.000  
C13  38584264.270 1 200918388.69811       547.753          18.000  
C28  22169218.170 1 115440775.158 1     -2576.721          31.000  
C37  22076248.931 1 114956814.912 1        64.623          40.000  
G 1  20387655.620 1 107137735.431 1       963.303          24.000                                                                  
G 7  20330890.817 1 106839555.957 1       -24.532          30.000                                                                  
G 8  21991185.219 1 115564474.165 1     -3262.457          22.000                                                                  
G21  20535363.364 1 107914079.015 1     -1676.225          21.000                                                                  
> 2021  5 18  3  8  3.9981002  0  7                     
C10  37270262.834 1 194076185.623 1      -723.736          23.000  
C13  38583919.209 1 200916592.210 1       547.389          24.000  
C28  22169469.995 1 115442102.270 1     -2575.091          35.000  
C37  22075995.906 1 114955499.969 1        66.592          39.000  
G 7  20330653.082 1 106838320.712 1       -26.045          30.000                                                                  
G 8  21991566.255 1 115566475.328 1     -3258.509          23.000                                                                  
G21  20535444.008 1 107914494.825 1     -1676.138          22.000                                                                  
> 2021  5 18  3  8  4.9980997  0  8                     
C10  37270248.444 1 194076126.219 1      -719.782          23.000  
C13  38583663.486 1 200915265.341 1       545.577          22.000  
C28  22169812.358 1 115443895.838 1     -2573.678          36.000  
C37  22075834.318 1 114954652.501 1        66.453          39.000  
G 1  20386899.243 1 107133765.62411       958.894          26.000                                                                  
G 7  20330505.584 1 106837558.142 1       -24.667          28.000                                                                  
G21  20535609.793 1 107915383.436 1     -1675.680          24.000                                                                  
G30  22718798.303 1 119388068.04911      1848.967          18.000                                                                  
> 2021  5 18  3  8  5.9980992  0  8                     
C10  37270236.152 1 194076065.056 1      -719.500          22.000  
C13  38583407.163 1 200913939.605 1       546.299          24.000  
C28  22170156.520 1 115445688.549 1     -2572.306          35.000  
C37  22075671.830 1 114953805.380 1        65.654          39.000  
G 1  20386566.774 1 107132019.034 1       958.340          25.000                                                                  
G 7  20330360.484 1 106836795.505 1       -26.443          26.000                                                                  
G 8  21992509.702 1 115571412.39311     -3254.751          22.000                                                                  
G21  20535776.478 1 107916271.361 1     -1676.131          21.000                                                                  
> 2021  5 18  3  8  6.9980984  0  8                     
C10  37270131.525 1 194075535.325 1      -718.143          22.000  
C13  38583059.704 1 200912143.250 1       546.502          25.000  
C28  22170411.643 1                     -2567.969          34.000  
C37  22075417.606 1 114952489.104 1        68.484          38.000  
G 1  20386141.968 1 107129801.943 1       955.485          23.000                                                                  
G 7  20330127.845 1 106835561.075 1       -25.508          22.000                                                                  
G 8  21992888.340 1 115573406.825 1     -3258.143          22.000                                                                  
G21  20535853.824 1 107916687.616 1     -1677.045          25.000                                                                  
> 2021  5 18  3  8  7.9980979  0  7                     
C13  38582805.779 1 200910815.955 1       547.986          19.000  
C28  22170756.405 1 115448940.46111     -2570.465          35.000  
C37  22075256.318 1 114951640.292 1        68.265          38.000  
G 1  20385809.798 1 107128060.176 1       953.368          24.000                                                                  
G 7  20329981.547 1 106834796.555 1       -22.611          26.000                                                                  
G21  20536021.108 1 107917577.917 1     -1679.141          29.000                                                                  
G30  22717205.506 1 119379678.35411      1852.520          18.000                                                                  
> 2021  5 18  3  8  8.9980972  0  7                     
C10  37270045.484 1 194075097.78611      -716.169          22.000  
C28  22171039.409 1 115450418.118 1     -2570.395          37.000  
C37  22075032.973 1 114950479.649 1        66.615          38.000  
G 1  20385418.568 1 107126004.502 1       952.214          23.000                                                                  
G 7  20329773.191 1 106833716.181 1       -22.812          26.000                                                                  
G 8  21993762.835 1 115578020.66211     -3250.550          20.000                                                                  
G21  20536128.734 1 107918154.974 1     -1680.601          33.000                                                                  
> 2021  5 18  3  8  9.9980964  0  7                     
C 7  36697692.816 1 191094416.27711      -631.952          30.000  
C28  22171291.834 1 115451740.305 1     -2571.474          37.000  
C37  22074778.449 1 114949163.509 1        67.189          39.000  
G 1  20384997.360 1 107123788.468 1       958.083          22.000                                                                  
G 7  20329537.254 1 106832478.844 1       -23.357          26.000                                                                  
G 8  21994140.274 1 115580011.397 1     -3252.243          20.000                                                                  
G21  20536206.980 1 107918575.374 1     -1680.933          34.000                                                                  
> 2021  5 18  3  8 10.9980959  0  7                     
C 7  36697663.436 1 191094267.568 1      -631.932          30.000  
C28  22171635.096 1 115453531.514 1     -2573.259          36.000  
C37  22074616.861 1 114948316.260 1        66.563          39.000  
G 1  20384663.091 1 107122044.109 1       955.577          23.000                                                                  
G 7  20329389.157 1 106831714.300 1       -24.090          22.000                                                                  
G 8  21994610.048 1 115582476.278 1     -3252.671          20.000                                                                  
G21  20536377.262 1 107919466.946 1     -1678.666          31.000                                                                  
> 2021  5 18  3  8 11.9980954  0  7                     
C 7  36697633.757 1 191094119.381 1      -632.773          32.000  
C28  22171981.656 1 115455323.983 1     -2574.158          37.000  
C37  22074454.673 1 114947470.125 1        64.613          40.000  
G 1  20384334.519 1 107120301.346 1       955.130          19.000                                                                  
G 7  20329247.355 1 106830951.746 1       -26.384          22.000                                                                  
G21  20536551.141 1 107920357.488 1     -1678.019          22.000                                                                  
G30  22715019.719 1 119368300.07511      1861.671          24.000                                                                  
> 2021  5 18  3  8 12.9980946  0  9                     
C 7  36697515.339 1 191093504.035 1      -634.261          30.000  
C13  38581299.922 1 200902938.37411       545.437          16.000  
C28  22172236.780 1 115456650.494 1     -2576.734          38.000  
C37  22074204.946 1 114946157.667 1        62.785          40.000  
G 1  20383913.011 1 107118085.405 1       955.729          24.000                                                                  
G 7  20329010.819 1 106829718.166 1       -27.022          25.000                                                                  
G 8  21995468.654 1 115586951.16211     -3269.138          21.000                                                                  
G21  20536628.788 1 107920777.003 1     -1681.299          27.000                                                                  
G30  22714424.031 1 119365180.321 1      1857.641          30.000                                                                  
> 2021  5 18  3  8 13.9980938  0  9                     
C 7  36697397.520 1 191092890.579 1      -636.137          29.000  
C28  22172491.304 1 115457978.450 1     -2577.192          38.000  
C37  22073952.221 1 114944846.378 1        62.143          41.000  
G 1  20383490.004 1 107115868.657 1       956.986          24.000                                                                  
G 7  20328772.783 1 106828485.263 1       -28.045          22.000                                                                  
G 8  21995851.789 1 115588958.688 1     -3266.516          21.000                                                                  
G21  20536707.633 1 107921198.346 1     -1682.392          30.000                                                                  
G30  22713826.245 1 119362064.548 1      1854.275          28.000                                                                  
J 2  38010784.082 1 199748002.14611       162.466          27.000                                                                  
> 2021  5 18  3  8 14.9980933  0  8                     
C 7  36697371.139 1 191092746.714 1      -636.673          25.000  
C28  22172835.465 1 115459773.652 1     -2574.081          37.000  
C37  22073789.134 1 114944002.522 1        64.446          40.000  
G 1  20383157.234 1 107114121.872 1       961.676          22.000                                                                  
G 7  20328628.583 1 106827726.460 1       -29.673          24.000                                                                  
G21  20536876.716 1 107922092.917 1     -1682.650          30.000                                                                  
G30  22713321.695 1 119359425.042 1      1851.493          27.000                                                                  
J 2  38010602.707 1 199747052.151 1       161.308          27.000                                                                  
> 2021  5 18  3  8 15.9980925  0  8                     
C 7  36697255.119 1 191092133.402 1      -633.934          22.000  
C28  22173090.289 1 115461098.363 1     -2572.389          32.000  
C37  22073536.709 1 114942688.766 1        65.761          40.000  
G 1  20382733.327 1 107111901.323 1       956.290          21.000                                                                  
G 7  20328394.745 1 106826495.343 1       -28.934          25.000                                                                  
G21  20536959.459 1 107922513.728 1     -1680.491          24.000                                                                  
G30  22712732.003 1 119356312.906 1      1853.712          20.000                                                                  
J 2  38010333.494 1 199745630.193 1       161.630          25.000                                                                  
> 2021  5 18  3  8 16.9980920  0  9                     
C 7  36697227.538 1 191091986.185 1      -632.040          22.000  
C28  22173432.352 1 115462890.957 1     -2572.502          30.000  
C37  22073374.821 1 114941841.941 1        66.547          39.000  
G 1  20382399.059 1 107110160.108 1       950.482          23.000                                                                  
G 7  20328252.943 1 106825736.574 1       -28.831          26.000                                                                  
G 8  21997166.678 1 115595894.90911     -3252.490          22.000                                                                  
G21  20537130.341 1 107923407.404 1     -1682.678          25.000                                                                  
G30  22712228.651 1 119353669.107 1      1858.853          23.000                                                                  
J 2  38010153.918 1 199744680.452 1       163.961          21.000                                                                  
> 2021  5 18  3  8 17.9980915  0  8                     
C 7  36697199.657 1 191091834.778 1      -626.335          25.000  
C28  22173775.914 1 115464681.383 1     -2569.787          34.000  
C37  22073211.733 1 114940994.039 1        67.859          40.000  
G 1  20382071.985 1 107108425.938 1       946.832          21.000                                                                  
G 7  20328109.043 1 106824977.494 1       -28.012          26.000                                                                  
G 8  21997631.956 1 115598356.781 1     -3248.247          22.000                                                                  
G21  20537299.723 1 107924303.230 1     -1684.960          26.000                                                                  
G30  22711727.398 1 119351020.496 1      1862.094          24.000                                                                  
> 2021  5 18  3  8 18.9980908  0  8                     
C 7  36697109.120 1 191091366.662 1      -623.667          33.000  
C28  22174058.019 1 115466157.422 1     -2567.772          36.000  
C37  22072988.088 1 114939833.315 1        67.839          40.000  
G 1  20381683.454 1 107106379.384 1       942.358          23.000                                                                  
G 7  20327905.484 1 106823902.110 1       -26.779          25.000                                                                  
G21  20537413.045 1 107924887.721 1     -1687.832          21.000                                                                  
G30  22711162.889 1 119348054.127 1      1865.925          22.000                                                                  
J 2  38009732.710 1 199742457.77711       167.670          25.000                                                                  
> 2021  5 18  3  8 19.9980900  0  7                     
C 7  36696988.304 1 191090740.744 1      -623.155          33.000  
C28  22174314.342 1 115467476.641 1     -2570.136          37.000  
C37  22072734.164 1 114938517.832 1        65.518          41.000  
G 1  20381264.644 1 107104177.794 1       941.115          20.000                                                                  
G 7  20327671.346 1 106822668.551 1       -26.866          27.000                                                                  
G21  20537495.488 1 107925314.680 1     -1687.558          24.000                                                                  
G30  22710567.201 1 119344925.949 1      1868.279          27.000                                                                  
> 2021  5 18  3  8 20.9980895  0  7                     
C 7  36696958.324 1 191090588.731 1      -630.715          31.000  
C28  22174660.602 1                     -2577.655          38.000  
C37  22072574.375 1 114937674.259 1        60.817          41.000  
G 1  20380936.971 1 107102448.720 1       943.191          24.000                                                                  
G 7  20327527.446 1 106821909.079 1       -30.112          26.000                                                                  
