$GNRMC,030657.00,A,2218.64959,N,11410.15565,E,3.918,314.09,180521,,,A*7D
$GNVTG,314.09,T,,M,3.918,N,7.257,K,A*28
$GNGGA,030657.00,2218.64959,N,11410.15565,E,1,07,0.86,16.1,M,-1.7,M,,*68
$GNGSA,A,3,30,16,21,01,08,07,09,,,,,,1.53,0.86,1.27*11
$GPGSV,3,1,09,01,60,159,37,04,09,186,09,07,71,296,36,08,41,025,18*7D
$GPGSV,3,2,09,09,19,218,11,16,10,092,10,21,68,089,31,27,12,045,*7E
$GPGSV,3,3,09,30,32,317,19*4F
$GNGLL,2218.64959,N,11410.15565,E,030657.00,A,A*79
$GNZDA,030657.00,18,05,2021,00,00*72
$GNVTG,314.15,T,,M,3.886,N,7.196,K,A*2D
$GNGGA,030658.00,2218.64963,N,11410.15548,E,1,05,1.25,16.3,M,-1.7,M,,*69
$GNGSA,A,3,30,21,01,08,07,,,,,,,,2.46,1.25,2.11*16
$GPGSV,3,1,09,01,60,159,39,04,09,186,08,07,71,296,38,08,41,025,18*7C
$GPGSV,3,2,09,09,19,218,11,16,10,092,08,21,68,089,32,27,12,045,*74
$GPGSV,3,3,09,30,32,317,18*4E
$GNGLL,2218.64963,N,11410.15548,E,030658.00,A,A*70
$GNZDA,030658.00,18,05,2021,00,00*7D
$GNVTG,314.20,T,,M,3.870,N,7.166,K,A*2D
$GNGGA,030659.00,2218.65002,N,11410.15492,E,1,07,0.86,16.6,M,-1.7,M,,*6E
$GNGSA,A,3,30,16,21,01,08,07,09,,,,,,1.53,0.86,1.27*11
$GPGSV,3,1,09,01,60,159,37,04,09,186,08,07,71,296,36,08,41,025,19*7D
$GPGSV,3,2,09,09,19,218,13,16,10,092,12,21,68,089,33,27,12,045,*7C
$GPGSV,3,3,09,30,32,317,19*4F
$GNGLL,2218.65002,N,11410.15492,E,030659.00,A,A*78
$GNZDA,030659.00,18,05,2021,00,00*7C
$GNVTG,314.24,T,,M,3.855,N,7.140,K,A*2A
$GNGGA,030700.00,2218.65045,N,11410.15434,E,1,07,0.86,16.7,M,-1.7,M,,*6D
$GNGSA,A,3,30,16,21,01,08,07,09,,,,,,1.53,0.86,1.27*11
$GPGSV,3,1,09,01,60,159,36,04,09,186,09,07,71,296,36,08,41,025,18*7C
$GPGSV,3,2,09,09,19,218,14,16,10,092,10,21,68,089,32,27,12,045,14*7D
$GPGSV,3,3,09,30,32,317,18*4E
$GNGLL,2218.65045,N,11410.15434,E,030700.00,A,A*7A
$GNZDA,030700.00,18,05,2021,00,00*71
$GNVTG,314.26,T,,M,3.848,N,7.126,K,A*24
$GNGGA,030701.00,2218.65103,N,11410.15362,E,1,07,0.88,16.9,M,-1.7,M,,*6B
$GNGSA,A,3,30,16,21,01,08,07,09,,,,,,1.59,0.88,1.32*11
$GPGSV,3,1,09,01,60,159,32,04,09,186,09,07,71,296,31,08,41,025,17*70
$GPGSV,3,2,09,09,19,218,14,16,10,092,11,21,68,089,25,27,12,045,13*7D
$GPGSV,3,3,09,30,32,317,17*41
$GNGLL,2218.65103,N,11410.15362,E,030701.00,A,A*7C
$GNZDA,030701.00,18,05,2021,00,00*70
$GNVTG,314.28,T,,M,3.836,N,7.105,K,A*22
$GNGGA,030702.00,2218.65151,N,11410.15298,E,1,07,0.86,17.0,M,-1.7,M,,*6D
$GNGSA,A,3,30,16,21,01,08,07,09,,,,,,1.53,0.86,1.27*11
$GPGSV,3,1,09,01,60,159,35,04,09,186,08,07,71,296,35,08,41,025,16*73
$GPGSV,3,2,09,09,19,218,14,16,10,092,10,21,68,089,31,27,12,045,12*78
$GPGSV,3,3,09,30,32,317,15*43
$GNGLL,2218.65151,N,11410.15298,E,030702.00,A,A*7C
$GNZDA,030702.00,18,05,2021,00,00*73
$GNVTG,314.31,T,,M,3.825,N,7.084,K,A*20
$GNGGA,030703.00,2218.65200,N,11410.15236,E,1,06,0.86,17.1,M,-1.7,M,,*6F
$GNGSA,A,3,30,21,01,08,07,09,,,,,,,1.53,0.86,1.27*16
$GPGSV,3,1,09,01,60,159,35,04,09,186,08,07,71,296,35,08,41,025,17*72
$GPGSV,3,2,09,09,19,218,12,16,10,092,08,21,68,089,31,27,12,045,08*7C
$GPGSV,3,3,09,30,32,317,11*47
$GNGLL,2218.65200,N,11410.15236,E,030703.00,A,A*7E
$GNZDA,030703.00,18,05,2021,00,00*72
$GNVTG,314.38,T,,M,3.778,N,6.997,K,A*24
$GNGGA,030704.00,2218.65176,N,11410.15259,E,1,07,0.76,17.4,M,-1.7,M,,*68
$GNGSA,A,3,30,16,21,01,08,07,09,,,,,,1.26,0.76,1.00*19
$GPGSV,3,1,09,01,60,159,39,04,09,186,09,07,71,296,39,08,41,025,19*7D
$GPGSV,3,2,09,09,19,218,16,16,10,092,09,21,68,089,34,27,12,045,08*7C
$GPGSV,3,3,09,30,32,317,13*45
$GNGLL,2218.65176,N,11410.15259,E,030704.00,A,A*72
$GNZDA,030704.00,18,05,2021,00,00*75
$GNVTG,314.49,T,,M,3.724,N,6.897,K,A*2A
$GNGGA,030705.00,2218.65132,N,11410.15295,E,1,07,0.88,17.5,M,-1.7,M,,*69
$GNGSA,A,3,30,16,21,01,08,07,09,,,,,,1.59,0.88,1.32*11
$GPGSV,3,1,09,01,60,159,41,04,09,186,10,07,71,296,40,08,41,025,20*7E
$GPGSV,3,2,09,09,19,218,17,16,10,092,10,21,68,089,37,27,12,045,09*77
$GPGSV,3,3,09,30,32,317,15*43
$GNGLL,2218.65132,N,11410.15295,E,030705.00,A,A*73
$GNZDA,030705.00,18,05,2021,00,00*74
$GNVTG,314.60,T,,M,3.672,N,6.800,K,A*2D
$GNGGA,030706.00,2218.65092,N,11410.15328,E,1,07,0.88,17.7,M,-1.7,M,,*64
$GNGSA,A,3,30,16,21,01,08,07,09,,,,,,1.59,0.88,1.32*11
$GPGSV,3,1,09,01,60,159,41,04,09,186,11,07,71,296,40,08,41,025,21*7E
$GPGSV,3,2,09,09,19,218,19,16,10,092,10,21,68,089,37,27,12,045,13*72
$GPGSV,3,3,09,30,32,317,16*40
$GNGLL,2218.65092,N,11410.15328,E,030706.00,A,A*7C
$GNZDA,030706.00,18,05,2021,00,00*77
$GNVTG,314.68,T,,M,3.656,N,6.770,K,A*2B
$GNGGA,030707.00,2218.65125,N,11410.15278,E,1,08,0.88,17.9,M,-1.7,M,,*6D
$GNGSA,A,3,04,30,16,21,01,08,07,09,,,,,1.59,0.88,1.32*15
$GPGSV,3,1,09,01,60,159,36,04,09,186,11,07,71,296,37,08,41,025,20*7F
$GPGSV,3,2,09,09,19,218,18,16,10,092,10,21,68,089,33,27,12,045,12*76
$GPGSV,3,3,09,30,32,317,14*42
$GNGLL,2218.65125,N,11410.15278,E,030707.00,A,A*74
$GNZDA,030707.00,18,05,2021,00,00*76
$GNVTG,314.73,T,,M,3.644,N,6.748,K,A*29
$GNGGA,030708.00,2218.65167,N,11410.15219,E,1,07,0.88,18.1,M,-1.7,M,,*6B
$GNGSA,A,3,30,16,21,01,08,07,09,,,,,,1.59,0.88,1.32*11
$GPGSV,3,1,09,01,60,159,36,04,09,186,09,07,71,296,35,08,41,025,18*7F
$GPGSV,3,2,09,09,19,218,17,16,10,092,10,21,68,089,32,27,12,045,09*72
$GPGSV,3,3,09,30,32,317,11*47
$GNGLL,2218.65167,N,11410.15219,E,030708.00,A,A*7A
$GNZDA,030708.00,18,05,2021,00,00*79
$GNVTG,314.76,T,,M,3.630,N,6.723,K,A*22
$GNGGA,030709.00,2218.65203,N,11410.15164,E,1,06,0.88,18.3,M,-1.7,M,,*61
$GNGSA,A,3,30,21,01,08,07,09,,,,,,,1.59,0.88,1.32*16
$GPGSV,3,1,09,01,60,159,37,04,09,186,08,07,71,296,35,08,41,025,18*7F
$GPGSV,3,2,09,09,19,218,16,16,10,092,08,21,68,089,33,27,12,045,08*7A
$GPGSV,3,3,09,30,32,317,11*47
$GNGLL,2218.65203,N,11410.15164,E,030709.00,A,A*73
$GNZDA,030709.00,18,05,2021,00,00*78
$GNVTG,314.78,T,,M,3.612,N,6.689,K,A*2D
$GNGGA,030710.00,2218.65229,N,11410.15120,E,1,06,0.94,18.4,M,-1.7,M,,*6B
$GNGSA,A,3,16,21,01,08,07,09,,,,,,,1.59,0.94,1.28*14
$GPGSV,3,1,09,01,61,159,38,04,09,186,10,07,71,296,36,08,41,025,18*7B
$GPGSV,3,2,09,09,19,218,16,16,10,092,11,21,68,089,34,27,12,045,09*74
$GPGSV,3,3,09,30,32,317,09*4E
$GNGLL,2218.65229,N,11410.15120,E,030710.00,A,A*73
$GNZDA,030710.00,18,05,2021,00,00*70
$GNVTG,314.81,T,,M,3.593,N,6.654,K,A*21
$GNGGA,030711.00,2218.65252,N,11410.15078,E,1,08,0.88,18.6,M,-1.7,M,,*6B
$GNGSA,A,3,04,30,16,21,01,08,07,09,,,,,1.59,0.88,1.32*15
$GPGSV,3,1,09,01,61,159,38,04,09,186,11,07,71,296,36,08,41,025,18*7A
$GPGSV,3,2,09,09,19,218,17,16,10,092,09,21,68,089,34,27,12,045,09*7C
$GPGSV,3,3,09,30,32,317,12*44
$GNGLL,2218.65252,N,11410.15078,E,030711.00,A,A*72
$GNZDA,030711.00,18,05,2021,00,00*71
$GNVTG,314.83,T,,M,3.574,N,6.618,K,A*22
$GNGGA,030712.00,2218.65275,N,11410.15038,E,1,07,0.86,18.7,M,-1.7,M,,*69
$GNGSA,A,3,30,16,21,01,08,07,09,,,,,,1.53,0.86,1.27*11
$GPGSV,3,1,09,01,61,159,38,04,09,186,09,07,71,295,36,08,41,025,17*7F
$GPGSV,3,2,09,09,19,218,18,16,10,092,09,21,68,089,34,27,12,045,08*72
$GPGSV,3,3,09,30,32,317,14*42
$GNGLL,2218.65275,N,11410.15038,E,030712.00,A,A*70
$GNZDA,030712.00,18,05,2021,00,00*72
$GNVTG,314.86,T,,M,3.554,N,6.583,K,A*24
$GNGGA,030713.00,2218.65297,N,11410.14997,E,1,07,0.88,18.9,M,-1.7,M,,*69
$GNGSA,A,3,30,16,21,01,08,07,09,,,,,,1.59,0.88,1.32*11
$GPGSV,3,1,09,01,61,159,38,04,09,186,08,07,71,295,36,08,40,025,17*7F
$GPGSV,3,2,09,09,19,218,17,16,10,092,10,21,68,089,34,27,12,045,08*75
$GPGSV,3,3,09,30,32,317,13*45
$GNGLL,2218.65297,N,11410.14997,E,030713.00,A,A*70
$GNZDA,030713.00,18,05,2021,00,00*73
$GNVTG,314.88,T,,M,3.535,N,6.546,K,A*24
$GNGGA,030714.00,2218.65318,N,11410.14959,E,1,08,0.86,19.0,M,-1.7,M,,*63
$GNGSA,A,3,30,16,21,01,08,07,09,27,,,,,1.53,0.86,1.27*14
$GPGSV,3,1,09,01,61,159,38,04,09,186,08,07,71,295,36,08,40,025,18*70
$GPGSV,3,2,09,09,19,218,17,16,10,092,09,21,68,089,34,27,12,045,11*75
$GPGSV,3,3,09,30,32,317,15*43
$GNGLL,2218.65318,N,11410.14959,E,030714.00,A,A*73
$GNZDA,030714.00,18,05,2021,00,00*74
$GNVTG,314.90,T,,M,3.520,N,6.518,K,A*22
$GNGGA,030715.00,2218.65349,N,11410.14910,E,1,07,0.94,19.1,M,-1.7,M,,*66
$GNGSA,A,3,30,21,01,08,07,09,27,,,,,,1.59,0.94,1.28*15
$GPGSV,3,1,09,01,61,159,37,04,09,186,09,07,71,295,36,08,40,025,16*70
$GPGSV,3,2,09,09,19,218,17,16,10,093,08,21,68,089,35,27,12,045,12*77
$GPGSV,3,3,09,30,32,317,16*40
$GNGLL,2218.65349,N,11410.14910,E,030715.00,A,A*7B
$GNZDA,030715.00,18,05,2021,00,00*75
$GNVTG,314.92,T,,M,3.505,N,6.492,K,A*24
$GNGGA,030716.00,2218.65383,N,11410.14861,E,1,08,0.90,19.0,M,-1.7,M,,*6E
$GNGSA,A,3,30,16,21,01,08,07,09,27,,,,,1.32,0.90,0.97*1E
$GPGSV,3,1,09,01,61,159,37,04,09,186,08,07,71,295,36,08,40,025,15*72
$GPGSV,3,2,09,09,19,218,17,16,10,093,10,21,67,088,35,27,12,045,09*7A
$GPGSV,3,3,09,30,32,317,16*40
$GNGLL,2218.65383,N,11410.14861,E,030716.00,A,A*79
$GNZDA,030716.00,18,05,2021,00,00*76
$GNVTG,314.94,T,,M,3.490,N,6.464,K,A*26
$GNGGA,030717.00,2218.65414,N,11410.14814,E,1,08,1.21,19.1,M,-1.7,M,,*6E
$GNGSA,A,3,30,16,21,01,08,07,09,27,,,,,2.20,1.21,1.84*16
$GPGSV,3,1,09,01,61,159,37,04,09,186,08,07,71,295,36,08,40,025,13*74
$GPGSV,3,2,09,09,19,218,18,16,10,093,10,21,67,088,35,27,12,045,11*7C
$GPGSV,3,3,09,30,32,317,18*4E
$GNGLL,2218.65414,N,11410.14814,E,030717.00,A,A*73
$GNZDA,030717.00,18,05,2021,00,00*77
$GNVTG,314.96,T,,M,3.474,N,6.434,K,A*2B
$GNGGA,030718.00,2218.65444,N,11410.14771,E,1,08,0.88,19.1,M,-1.7,M,,*6A
$GNGSA,A,3,30,16,21,01,08,07,09,27,,,,,1.59,0.88,1.32*14
$GPGSV,3,1,09,01,61,159,37,04,09,186,08,07,71,295,36,08,40,025,11*76
$GPGSV,3,2,09,09,19,218,17,16,10,093,10,21,67,088,35,27,12,045,11*73
$GPGSV,3,3,09,30,32,317,16*40
$GNGLL,2218.65444,N,11410.14771,E,030718.00,A,A*75
$GNZDA,030718.00,18,05,2021,00,00*78
$GNVTG,314.98,T,,M,3.459,N,6.406,K,A*2B
$GNGGA,030719.00,2218.65475,N,11410.14726,E,1,08,0.97,19.0,M,-1.7,M,,*64
$GNGSA,A,3,30,16,21,01,08,07,09,27,,,,,1.66,0.97,1.35*11
$GPGSV,3,1,10,01,61,159,37,04,09,186,08,07,71,295,36,08,40,025,13*7C
$GPGSV,3,2,10,09,19,218,17,16,10,093,12,21,67,088,35,27,12,045,11*79
$GPGSV,3,3,10,29,,,11,30,32,317,18*4D
$GNGLL,2218.65475,N,11410.14726,E,030719.00,A,A*74
$GNZDA,030719.00,18,05,2021,00,00*79
$GNVTG,315.00,T,,M,3.447,N,6.383,K,A*2E
$GNGGA,030720.00,2218.65513,N,11410.14676,E,1,06,0.86,19.1,M,-1.7,M,,*64
$GNGSA,A,3,30,21,01,08,07,09,,,,,,,1.53,0.86,1.27*16
$GPGSV,3,1,10,01,61,159,36,04,09,186,09,07,71,295,35,08,40,025,13*7F
$GPGSV,3,2,10,09,19,218,16,16,10,093,07,21,67,088,34,27,12,045,07*7A
$GPGSV,3,3,10,29,,,08,30,32,317,17*4A
$GNGLL,2218.65513,N,11410.14676,E,030720.00,A,A*7B
$GNZDA,030720.00,18,05,2021,00,00*73
$GNVTG,315.03,T,,M,3.424,N,6.341,K,A*26
$GNGGA,030721.00,2218.65526,N,11410.14650,E,1,08,1.30,19.0,M,-1.7,M,,*64
$GNGSA,A,3,30,16,21,01,08,07,09,27,,,,,2.25,1.30,1.84*13
$GPGSV,3,1,10,01,61,159,38,04,09,186,10,07,71,295,37,08,40,025,13*7B
$GPGSV,3,2,10,09,19,218,16,16,10,093,09,21,67,088,36,27,12,045,09*78
$GPGSV,3,3,10,29,,,09,30,32,317,18*44
$GNGLL,2218.65526,N,11410.14650,E,030721.00,A,A*78
$GNZDA,030721.00,18,05,2021,00,00*72
$GNVTG,315.06,T,,M,3.402,N,6.301,K,A*23
$GNGGA,030722.00,2218.65543,N,11410.14622,E,1,08,1.86,18.7,M,-1.7,M,,*6A
$GNGSA,A,3,04,30,16,21,01,08,07,09,,,,,2.79,1.86,2.08*11
$GPGSV,3,1,10,01,61,159,38,04,09,186,10,07,71,295,37,08,40,025,13*7B
$GPGSV,3,2,10,09,19,218,16,16,10,093,10,21,67,088,36,27,12,045,07*7E
$GPGSV,3,3,10,29,,,09,30,32,317,20*4F
$GNGLL,2218.65543,N,11410.14622,E,030722.00,A,A*7D
$GNZDA,030722.00,18,05,2021,00,00*71
$GNVTG,315.11,T,,M,3.371,N,6.243,K,A*21
$GNGGA,030723.00,2218.65541,N,11410.14622,E,1,08,1.22,18.6,M,-1.7,M,,*66
$GNGSA,A,3,30,16,21,01,08,07,09,27,,,,,2.27,1.22,1.92*15
$GPGSV,3,2,10,09,19,218,18,16,10,093,09,21,67,088,36,27,12,045,11*7F
$GPGSV,3,3,10,29,,,08,30,32,317,21*4F
$GNGLL,2218.65541,N,11410.14622,E,030723.00,A,A*7E
$GNZDA,030723.00,18,05,2021,00,00*70
$GNVTG,315.15,T,,M,3.360,N,6.223,K,A*23
$GNGGA,030724.00,2218.65583,N,11410.14573,E,1,09,1.86,18.2,M,-1.7,M,,*63
$GNGSA,A,3,04,30,16,21,01,08,07,09,27,,,,2.79,1.86,2.08*14
$GPGSV,3,1,10,01,61,159,35,04,09,186,12,07,71,295,36,08,40,025,13*75
$GPGSV,3,2,10,09,19,218,18,16,10,093,13,21,67,088,34,27,12,045,13*74
$GPGSV,3,3,10,29,,,08,30,32,317,19*44
$GNGLL,2218.65583,N,11410.14573,E,030724.00,A,A*70
$GNZDA,030724.00,18,05,2021,00,00*77
$GNVTG,315.21,T,,M,3.334,N,6.175,K,A*25
$GNGGA,030725.00,2218.65595,N,11410.14562,E,1,08,1.69,17.9,M,-1.7,M,,*61
$GNGSA,A,3,30,16,21,01,08,07,09,27,,,,,2.50,1.69,1.85*1C
$GPGSV,3,1,10,01,61,159,37,04,09,186,10,07,71,295,38,08,40,025,13*7B
$GPGSV,3,2,10,09,19,218,19,16,10,093,10,21,67,088,36,27,12,045,11*76
$GPGSV,3,3,10,29,,,08,30,32,317,19*44
$GNGLL,2218.65595,N,11410.14562,E,030725.00,A,A*76
$GNZDA,030725.00,18,05,2021,00,00*76
$GNVTG,315.28,T,,M,3.309,N,6.128,K,A*2A
$GNGGA,030726.00,2218.65609,N,11410.14554,E,1,09,1.67,17.4,M,-1.7,M,,*63
$GNGSA,A,3,04,30,16,21,01,08,07,09,27,,,,2.56,1.67,1.95*11
$GPGSV,3,1,10,01,61,159,37,04,09,186,12,07,71,295,38,08,40,025,14*7E
$GPGSV,3,2,10,09,19,218,19,16,10,093,11,21,67,088,35,27,12,045,12*77
$GPGSV,3,3,10,29,,,11,30,32,317,20*46
$GNGLL,2218.65609,N,11410.14554,E,030726.00,A,A*76
$GNZDA,030726.00,18,05,2021,00,00*75
$GNVTG,315.33,T,,M,3.286,N,6.086,K,A*23
$GNGGA,030727.00,2218.65620,N,11410.14534,E,1,09,1.77,17.2,M,-1.7,M,,*68
$GNGSA,A,3,04,30,16,21,01,08,07,09,27,,,,2.61,1.77,1.92*13
$GPGSV,3,1,10,01,61,159,38,04,09,186,12,07,71,295,37,08,40,025,22*7B
$GPGSV,3,2,10,09,19,218,17,16,10,093,09,21,67,088,31,27,12,045,11*77
$GPGSV,3,3,10,29,,,11,30,32,317,20*46
$GNGLL,2218.65620,N,11410.14534,E,030727.00,A,A*7A
$GNZDA,030727.00,18,05,2021,00,00*74
$GNVTG,315.36,T,,M,3.276,N,6.066,K,A*27
$GNGGA,030728.00,2218.65654,N,11410.14483,E,1,09,1.21,17.4,M,-1.7,M,,*6C
$GNGSA,A,3,04,30,16,21,01,08,07,09,27,,,,2.20,1.21,1.84*12
$GPGSV,3,1,10,01,61,159,36,04,09,186,11,07,71,295,34,08,40,025,21*76
$GPGSV,3,2,10,09,19,218,15,16,10,093,14,21,67,088,31,27,12,045,11*79
$GPGSV,3,3,10,29,,,10,30,32,317,20*47
$GNGLL,2218.65654,N,11410.14483,E,030728.00,A,A*7B
$GNZDA,030728.00,18,05,2021,00,00*7B
$GNVTG,315.42,T,,M,3.253,N,6.024,K,A*25
$GNGGA,030729.00,2218.65674,N,11410.14473,E,1,07,1.27,17.1,M,-1.7,M,,*6D
$GNGSA,A,3,30,21,01,08,07,09,27,,,,,,1.95,1.27,1.47*15
$GPGSV,3,1,10,01,61,159,36,04,09,186,10,07,71,295,38,08,40,025,22*78
$GPGSV,3,2,10,09,19,218,16,16,10,093,08,21,67,088,29,27,12,045,10*7F
$GPGSV,3,3,10,29,,,09,30,32,317,20*4F
$GNGLL,2218.65674,N,11410.14473,E,030729.00,A,A*77
$GNZDA,030729.00,18,05,2021,00,00*7A
$GNVTG,315.46,T,,M,3.245,N,6.009,K,A*29
$GNGGA,030730.00,2218.65719,N,11410.14423,E,1,09,0.94,17.0,M,-1.7,M,,*6C
$GNGSA,A,3,04,30,16,21,01,08,07,09,27,,,,1.66,0.94,1.37*14
$GPGSV,3,1,10,01,61,159,35,04,09,186,11,07,71,295,34,08,40,025,25*71
$GPGSV,3,2,10,09,19,218,16,16,10,093,11,21,67,088,26,27,12,045,10*78
$GPGSV,3,3,10,29,,,08,30,32,317,19*44
$GNGLL,2218.65719,N,11410.14423,E,030730.00,A,A*70
$GNZDA,030730.00,18,05,2021,00,00*72
$GNVTG,315.58,T,,M,3.197,N,5.922,K,A*29
$GNGGA,030731.00,2218.65692,N,11410.14487,E,1,09,1.21,16.6,M,-1.7,M,,*69
$GNGSA,A,3,04,30,16,21,01,08,07,09,27,,,,2.27,1.21,1.91*11
$GPGSV,3,1,10,01,61,159,38,04,09,186,12,07,71,295,40,08,40,025,25*7C
$GPGSV,3,2,10,09,19,218,18,16,10,093,09,21,67,088,26,27,12,045,12*7D
$GPGSV,3,3,10,29,,,09,30,32,317,19*45
$GNGLL,2218.65692,N,11410.14487,E,030731.00,A,A*7D
$GNZDA,030731.00,18,05,2021,00,00*73
$GNVTG,315.67,T,,M,3.184,N,5.897,K,A*28
$GNGGA,030732.00,2218.65725,N,11410.14454,E,1,09,1.34,16.6,M,-1.7,M,,*6D
$GNGSA,A,3,04,30,16,21,01,08,07,09,27,,,,2.28,1.34,1.84*1E
$GPGSV,3,1,10,01,61,159,35,04,09,186,14,07,71,295,37,08,40,025,25*77
$GPGSV,3,2,10,09,19,218,18,16,10,093,13,21,67,088,25,27,12,045,12*75
$GPGSV,3,3,10,29,,,12,30,32,317,20*45
$GNGLL,2218.65725,N,11410.14454,E,030732.00,A,A*7D
$GNZDA,030732.00,18,05,2021,00,00*70
$GNVTG,315.80,T,,M,3.148,N,5.830,K,A*2C
$GNGGA,030733.00,2218.65723,N,11410.14492,E,1,08,1.30,16.1,M,-1.7,M,,*62
$GNGSA,A,3,30,16,21,01,08,07,09,27,,,,,2.32,1.30,1.92*12
$GPGSV,3,1,10,01,61,159,36,04,09,186,13,07,71,295,41,08,40,025,24*73
$GPGSV,3,2,10,09,19,218,17,16,10,093,10,21,67,088,29,27,12,045,09*7F
$GPGSV,3,3,10,29,,,12,30,32,317,22*47
$GNGLL,2218.65723,N,11410.14492,E,030733.00,A,A*70
$GNZDA,030733.00,18,05,2021,00,00*71
$GNVTG,315.96,T,,M,3.106,N,5.753,K,A*2B
$GNGGA,030734.00,2218.65700,N,11410.14540,E,1,09,1.21,15.8,M,-1.7,M,,*61
$GNGSA,A,3,04,30,16,21,01,08,07,09,27,,,,2.26,1.21,1.91*10
$GPGSV,3,1,10,01,61,159,38,04,09,186,13,07,71,295,46,08,40,025,22*7C
$GPGSV,3,2,10,09,19,218,17,16,10,093,11,21,67,088,23,27,12,045,09*74
$GPGSV,3,3,10,29,,,11,30,32,317,22*44
$GNGLL,2218.65700,N,11410.14540,E,030734.00,A,A*78
$GNZDA,030734.00,18,05,2021,00,00*76
$GNVTG,316.11,T,,M,3.076,N,5.696,K,A*29
$GNGGA,030735.00,2218.65701,N,11410.14562,E,1,09,1.22,15.8,M,-1.7,M,,*62
$GNGSA,A,3,04,30,16,21,01,08,07,09,27,,,,2.20,1.22,1.83*16
$GPGSV,3,1,10,01,61,159,35,04,09,186,13,07,71,295,41,08,40,025,23*77
$GPGSV,3,2,10,09,19,218,16,16,10,093,14,21,67,088,23,27,12,045,10*78
$GPGSV,3,3,10,29,,,11,30,32,317,22*44
$GNGLL,2218.65701,N,11410.14562,E,030735.00,A,A*78
$GNZDA,030735.00,18,05,2021,00,00*77
$GNVTG,316.20,T,,M,3.067,N,5.679,K,A*2A
$GNGGA,030736.00,2218.65742,N,11410.14521,E,1,09,1.36,15.7,M,-1.7,M,,*6B
$GNGSA,A,3,04,30,16,21,01,08,07,09,27,,,,2.35,1.36,1.91*14
$GPGSV,3,1,10,01,61,159,31,04,09,186,13,07,71,295,37,08,40,025,22*73
$GPGSV,3,2,10,09,19,218,18,16,10,093,15,21,67,088,23,27,12,045,11*76
$GPGSV,3,3,10,29,,,12,30,32,317,21*44
$GNGLL,2218.65742,N,11410.14521,E,030736.00,A,A*7B
$GNZDA,030736.00,18,05,2021,00,00*74
$GNVTG,316.26,T,,M,3.057,N,5.661,K,A*26
$GNGGA,030737.00,2218.65783,N,11410.14483,E,1,08,1.31,15.5,M,-1.7,M,,*6A
$GNGSA,A,3,30,16,21,01,08,07,09,27,,,,,2.32,1.31,1.92*13
$GPGSV,3,1,10,01,61,159,31,04,09,186,12,07,71,295,37,08,40,025,21*71
$GPGSV,3,2,10,09,19,218,19,16,10,093,10,21,67,088,23,27,12,045,09*7B
$GPGSV,3,3,10,29,,,09,30,32,317,18*44
$GNGLL,2218.65783,N,11410.14483,E,030737.00,A,A*7E
$GNZDA,030737.00,18,05,2021,00,00*75
$GNVTG,316.38,T,,M,3.020,N,5.593,K,A*27
$GNGGA,030738.00,2218.65773,N,11410.14520,E,1,08,1.22,15.2,M,-1.7,M,,*67
$GNGSA,A,3,30,16,21,01,08,07,09,27,,,,,2.20,1.22,1.83*12
$GPGSV,3,1,10,01,61,159,37,04,09,186,12,07,71,295,42,08,40,025,22*76
$GPGSV,3,2,10,09,19,218,21,16,10,093,10,21,67,088,25,27,12,045,09*76
$GPGSV,3,3,10,29,,,08,30,32,317,16*4B
$GNGLL,2218.65773,N,11410.14520,E,030738.00,A,A*76
$GNZDA,030738.00,18,05,2021,00,00*7A
$GNVTG,316.54,T,,M,2.972,N,5.504,K,A*2C
$GNGGA,030739.00,2218.65736,N,11410.14590,E,1,08,1.65,14.4,M,-1.7,M,,*68
$GNGSA,A,3,30,16,21,01,08,07,09,27,,,,,2.92,1.65,2.41*15
$GPGSV,3,1,10,01,61,159,39,04,09,186,11,07,71,295,42,08,40,025,31*79
$GPGSV,3,2,10,09,19,218,24,16,10,093,11,21,67,088,25,27,12,045,10*7A
$GPGSV,3,3,10,29,,,10,30,32,317,29*4E
$GNGLL,2218.65736,N,11410.14590,E,030739.00,A,A*7D
$GNZDA,030739.00,18,05,2021,00,00*7B
$GNVTG,316.69,T,,M,2.948,N,5.459,K,A*22
$GNGGA,030740.00,2218.65754,N,11410.14600,E,1,09,1.81,13.9,M,-1.7,M,,*69
$GNGSA,A,3,04,30,16,21,01,08,07,09,27,,,,2.65,1.81,1.93*1F
$GPGSV,3,1,10,01,61,159,35,04,09,186,12,07,71,295,40,08,40,025,25*71
$GPGSV,3,2,10,09,19,218,25,16,10,093,13,21,67,088,25,27,12,045,11*78
$GPGSV,3,3,10,29,,,11,30,32,317,20*46
$GNGLL,2218.65754,N,11410.14600,E,030740.00,A,A*7D
$GNZDA,030740.00,18,05,2021,00,00*75
$GNVTG,316.86,T,,M,2.906,N,5.381,K,A*2B
$GNGGA,030741.00,2218.65728,N,11410.14656,E,1,09,1.64,13.2,M,-1.7,M,,*60
$GNGSA,A,3,04,30,16,21,01,08,07,09,27,,,,2.86,1.64,2.35*16
$GPGSV,3,1,10,01,61,159,39,04,09,186,13,07,71,295,45,08,40,025,24*78
$GPGSV,3,2,10,09,19,218,23,16,10,093,13,21,67,088,25,27,12,045,14*7B
$GPGSV,3,3,10,29,,,11,30,32,317,21*47
$GNGLL,2218.65728,N,11410.14656,E,030741.00,A,A*74
$GNZDA,030741.00,18,05,2021,00,00*74
$GNVTG,317.03,T,,M,2.863,N,5.302,K,A*2E
$GNGGA,030742.00,2218.65692,N,11410.14712,E,1,09,1.21,12.6,M,-1.7,M,,*66
$GNGSA,A,3,04,30,16,21,01,08,07,09,27,,,,2.26,1.21,1.91*10
$GPGSV,3,1,10,01,61,159,40,04,09,186,13,07,71,295,41,08,40,025,24*72
$GPGSV,3,2,10,09,19,218,22,16,10,093,10,21,67,088,24,27,12,045,10*7C
$GPGSV,3,3,10,29,,,10,30,32,317,21*46
$GNGLL,2218.65692,N,11410.14712,E,030742.00,A,A*76
$GNZDA,030742.00,18,05,2021,00,00*77
$GNVTG,317.14,T,,M,2.841,N,5.262,K,A*2F
$GNGGA,030743.00,2218.65693,N,11410.14704,E,1,08,1.34,12.5,M,-1.7,M,,*67
$GNGSA,A,3,04,30,21,01,08,07,09,27,,,,,2.27,1.34,1.84*16
$GPGSV,3,1,10,01,61,159,39,04,09,186,12,07,71,295,33,08,40,025,23*7F
$GPGSV,3,2,10,09,19,218,21,16,10,093,08,21,67,088,25,27,12,045,12*75
$GPGSV,3,3,10,29,,,09,30,32,317,22*4D
$GNGLL,2218.65693,N,11410.14704,E,030743.00,A,A*71
$GNZDA,030743.00,18,05,2021,00,00*76
$GNVTG,317.24,T,,M,2.816,N,5.216,K,A*2D
$GNGGA,030744.00,2218.65692,N,11410.14711,E,1,09,1.70,12.1,M,-1.7,M,,*60
$GNGSA,A,3,04,30,16,21,01,08,07,09,27,,,,2.50,1.70,1.84*11
$GPGSV,3,1,10,01,61,159,38,04,09,186,12,07,71,295,39,08,40,025,25*72
$GPGSV,3,2,10,09,19,218,19,16,10,093,11,21,67,088,25,27,12,045,12*76
$GPGSV,3,3,10,29,,,10,30,32,317,22*45
$GNGLL,2218.65692,N,11410.14711,E,030744.00,A,A*73
$GNZDA,030744.00,18,05,2021,00,00*71
$GNVTG,317.30,T,,M,2.796,N,5.179,K,A*25
$GNGGA,030745.00,2218.65690,N,11410.14698,E,1,08,1.77,11.9,M,-1.7,M,,*6E
$GNGSA,A,3,04,30,21,01,08,07,09,27,,,,,2.61,1.77,1.91*17
$GPGSV,3,1,10,01,61,159,40,04,09,186,12,07,71,295,30,08,40,025,25*74
$GPGSV,3,2,10,09,19,218,21,16,10,093,08,21,67,088,23,27,12,045,09*79
$GPGSV,3,3,10,29,,,12,30,32,317,22*47
$GNGLL,2218.65690,N,11410.14698,E,030745.00,A,A*70
$GNZDA,030745.00,18,05,2021,00,00*70
$GNVTG,317.34,T,,M,2.778,N,5.144,K,A*2F
$GNGGA,030746.00,2218.65692,N,11410.14685,E,1,09,1.21,11.8,M,-1.7,M,,*60
$GNGSA,A,3,04,30,16,21,01,08,07,09,27,,,,2.26,1.21,1.91*10
$GPGSV,3,1,10,01,61,159,42,04,09,186,13,07,71,295,30,08,40,025,25*77
$GPGSV,3,2,10,09,19,218,19,16,10,093,11,21,67,088,23,27,12,045,09*7A
$GPGSV,3,3,10,29,,,10,30,32,317,22*45
$GNGLL,2218.65692,N,11410.14685,E,030746.00,A,A*7D
$GNZDA,030746.00,18,05,2021,00,00*73
$GNVTG,317.37,T,,M,2.763,N,5.118,K,A*2F
$GNGGA,030747.00,2218.65703,N,11410.14661,E,1,09,1.70,11.6,M,-1.7,M,,*68
$GNGSA,A,3,04,30,16,21,01,08,07,09,27,,,,2.50,1.70,1.84*11
$GPGSV,3,1,10,01,61,159,43,04,09,186,12,07,71,295,26,08,40,025,26*73
$GPGSV,3,2,10,09,19,218,19,16,10,093,10,21,67,088,25,27,12,045,10*75
$GPGSV,3,3,10,29,,,09,30,32,317,21*4E
$GNGLL,2218.65703,N,11410.14661,E,030747.00,A,A*7F
$GNZDA,030747.00,18,05,2021,00,00*72
$GNVTG,317.37,T,,M,2.761,N,5.113,K,A*26
$GNGGA,030748.00,2218.65738,N,11410.14604,E,1,08,1.21,11.9,M,-1.7,M,,*66
$GNGSA,A,3,30,16,21,01,08,07,09,27,,,,,2.19,1.21,1.83*1B
$GPGSV,3,1,10,01,61,159,36,04,09,186,10,07,71,295,25,08,40,025,24*72
$GPGSV,3,2,10,09,19,218,16,16,10,093,12,21,67,088,23,27,12,045,11*7F
$GPGSV,3,3,10,29,,,08,30,32,317,20*4E
$GNGLL,2218.65738,N,11410.14604,E,030748.00,A,A*7B
$GNZDA,030748.00,18,05,2021,00,00*7D
$GNVTG,317.38,T,,M,2.757,N,5.106,K,A*28
$GNGGA,030749.00,2218.65781,N,11410.14558,E,1,06,1.21,11.9,M,-1.7,M,,*61
$GNGSA,A,3,30,21,01,08,07,09,,,,,,,2.26,1.21,1.91*16
$GPGSV,3,1,10,01,61,159,36,04,09,186,08,07,71,295,31,08,40,025,22*78
$GPGSV,3,2,10,09,19,218,11,16,10,093,08,21,67,088,21,27,12,045,08*79
$GPGSV,3,3,10,29,,,08,30,32,317,17*4A
$GNGLL,2218.65781,N,11410.14558,E,030749.00,A,A*72
$GNZDA,030749.00,18,05,2021,00,00*7C
$GNVTG,317.40,T,,M,2.753,N,5.099,K,A*24
$GNGGA,030750.00,2218.65827,N,11410.14517,E,1,06,1.25,11.9,M,-1.7,M,,*65
$GNGSA,A,3,30,21,01,08,07,27,,,,,,,2.45,1.25,2.11*10
$GPGSV,3,1,09,01,61,158,36,04,09,186,06,07,71,295,35,08,40,025,20*79
$GPGSV,3,2,09,09,19,218,08,16,10,093,06,21,67,088,30,27,12,045,10*7E
$GPGSV,3,3,09,30,32,317,17*41
$GNGLL,2218.65827,N,11410.14517,E,030750.00,A,A*72
$GNZDA,030750.00,18,05,2021,00,00*74
$GNVTG,317.44,T,,M,2.749,N,5.092,K,A*20
$GNGGA,030751.00,2218.65873,N,11410.14477,E,1,07,1.83,12.0,M,-1.7,M,,*65
$GNGSA,A,3,30,16,21,01,08,07,27,,,,,,4.41,1.83,4.01*1E
$GPGSV,3,1,09,01,61,158,36,04,09,185,07,07,71,295,30,08,40,025,21*7F
$GPGSV,3,2,09,09,19,218,07,16,10,093,10,21,67,088,36,27,12,045,09*78
$GPGSV,3,3,09,30,32,317,19*4F
$GNGLL,2218.65873,N,11410.14477,E,030751.00,A,A*75
$GNZDA,030751.00,18,05,2021,00,00*75
$GNVTG,317.49,T,,M,2.745,N,5.084,K,A*26
$GNGGA,030752.00,2218.65923,N,11410.14440,E,1,07,1.83,12.0,M,-1.7,M,,*66
$GNGSA,A,3,30,16,21,01,08,07,27,,,,,,4.41,1.83,4.01*1E
$GPGSV,3,1,09,01,61,158,35,04,09,185,08,07,71,294,25,08,40,025,21*76
$GPGSV,3,2,09,09,19,218,07,16,10,093,11,21,67,088,34,27,12,045,09*7B
$GPGSV,3,3,09,30,32,317,21*44
$GNGLL,2218.65923,N,11410.14440,E,030752.00,A,A*76
$GNZDA,030752.00,18,05,2021,00,00*76
$GNVTG,317.52,T,,M,2.743,N,5.081,K,A*2F
$GNGGA,030753.00,2218.65971,N,11410.14389,E,1,05,1.83,12.1,M,-1.7,M,,*61
$GNGSA,A,3,30,21,01,08,07,,,,,,,,4.41,1.83,4.01*1C
$GPGSV,3,1,09,01,61,158,32,04,09,185,08,07,71,294,25,08,40,026,20*73
$GPGSV,3,2,09,09,19,218,08,16,10,093,,21,67,088,26,27,12,045,08*76
$GPGSV,3,3,09,30,32,317,21*44
$GNGLL,2218.65971,N,11410.14389,E,030753.00,A,A*72
$GNZDA,030753.00,18,05,2021,00,00*77
$GNVTG,317.55,T,,M,2.732,N,5.060,K,A*21
$GNGGA,030754.00,2218.65996,N,11410.14364,E,1,06,1.90,11.7,M,-1.7,M,,*68
$GNGSA,A,3,30,21,01,08,07,27,,,,,,,4.66,1.90,4.26*1B
$GPGSV,3,1,09,01,61,158,40,04,09,185,08,07,71,294,35,08,40,026,21*76
$GPGSV,3,2,09,09,18,217,08,16,10,093,,21,67,088,35,27,12,045,10*73
$GPGSV,3,3,09,30,32,317,29*4C
$GNGLL,2218.65996,N,11410.14364,E,030754.00,A,A*7F
$GNZDA,030754.00,18,05,2021,00,00*70
$GNVTG,317.62,T,,M,2.713,N,5.025,K,A*27
$GNGGA,030755.00,2218.66015,N,11410.14368,E,1,06,1.90,11.2,M,-1.7,M,,*61
$GNGSA,A,3,30,21,01,08,07,27,,,,,,,4.66,1.90,4.26*1B
$GPGSV,3,1,09,01,61,158,38,04,09,185,07,07,71,294,41,08,40,026,22*76
$GPGSV,3,2,09,09,18,217,08,16,10,093,,21,67,088,30,27,12,045,09*7E
$GPGSV,3,3,09,30,32,317,25*40
$GNGLL,2218.66015,N,11410.14368,E,030755.00,A,A*73
$GNZDA,030755.00,18,05,2021,00,00*71
$GNVTG,317.66,T,,M,2.711,N,5.021,K,A*25
$GNGGA,030756.00,2218.66062,N,11410.14317,E,1,06,1.42,11.1,M,-1.7,M,,*66
$GNGSA,A,3,30,21,01,08,07,27,,,,,,,2.48,1.42,2.03*1F
$GPGSV,3,1,09,01,61,158,33,04,09,185,07,07,71,294,32,08,40,026,22*79
$GPGSV,3,2,09,09,18,217,08,16,10,093,,21,67,088,23,27,12,045,09*7C
$GPGSV,3,3,09,30,32,317,24*41
$GNGLL,2218.66062,N,11410.14317,E,030756.00,A,A*78
$GNZDA,030756.00,18,05,2021,00,00*72
$GNVTG,317.68,T,,M,2.708,N,5.015,K,A*24
$GNGGA,030757.00,2218.66106,N,11410.14270,E,1,06,1.90,10.9,M,-1.7,M,,*62
$GNGSA,A,3,30,21,01,08,07,27,,,,,,,4.66,1.90,4.26*1B
$GPGSV,3,1,09,01,61,158,37,04,09,185,08,07,71,294,32,08,40,026,21*71
$GPGSV,3,2,09,09,18,217,11,16,10,093,18,21,67,088,25,27,12,045,12*71
$GPGSV,3,3,09,30,32,317,24*41
$GNGLL,2218.66106,N,11410.14270,E,030757.00,A,A*7A
$GNZDA,030757.00,18,05,2021,00,00*73
$GNVTG,317.68,T,,M,2.705,N,5.010,K,A*2C
$GNGGA,030758.00,2218.66148,N,11410.14219,E,1,05,1.90,10.9,M,-1.7,M,,*6B
$GNGSA,A,3,30,21,01,08,07,,,,,,,,4.67,1.90,4.26*1F
$GPGSV,3,1,09,01,61,158,37,04,09,185,07,07,71,294,31,08,40,026,28*74
$GPGSV,3,2,09,09,18,217,08,16,10,093,13,21,67,088,24,27,12,045,08*78
$GPGSV,3,3,09,30,33,317,22*46
$GNGLL,2218.66148,N,11410.14219,E,030758.00,A,A*70
$GNZDA,030758.00,18,05,2021,00,00*7C
$GNVTG,317.69,T,,M,2.698,N,4.997,K,A*2F
$GNGGA,030759.00,2218.66179,N,11410.14185,E,1,06,1.84,10.8,M,-1.7,M,,*69
$GNGSA,A,3,30,21,01,08,07,27,,,,,,,4.42,1.84,4.02*1E
$GPGSV,3,1,09,01,61,158,44,04,09,185,08,07,71,294,31,08,40,026,28*7F
$GPGSV,3,2,09,09,18,217,08,16,10,093,11,21,67,088,24,27,12,045,10*73
$GPGSV,3,3,09,30,33,317,23*47
$GNGLL,2218.66179,N,11410.14185,E,030759.00,A,A*75
$GNZDA,030759.00,18,05,2021,00,00*7D
$GNVTG,317.71,T,,M,2.693,N,4.988,K,A*23
$GNGGA,030800.00,2218.66220,N,11410.14149,E,1,07,1.81,10.5,M,-1.7,M,,*6C
$GNGSA,A,3,04,30,21,01,08,07,27,,,,,,2.81,1.81,2.15*16
$GPGSV,3,1,09,01,61,158,42,04,09,185,10,07,71,294,31,08,40,026,28*70
$GPGSV,3,2,09,09,18,217,08,16,10,093,13,21,67,088,30,27,12,045,12*76
$GPGSV,3,3,09,30,33,317,24*40
$GNGLL,2218.66220,N,11410.14149,E,030800.00,A,A*79
$GNZDA,030800.00,18,05,2021,00,00*7E
$GNVTG,317.74,T,,M,2.694,N,4.988,K,A*21
$GNGGA,030801.00,2218.66277,N,11410.14098,E,1,07,2.24,10.1,M,-1.7,M,,*6A
$GNGSA,A,3,04,30,21,01,08,07,27,,,,,,5.94,2.24,5.50*1F
$GPGSV,3,1,09,01,61,158,31,04,09,185,11,07,71,294,33,08,40,026,26*79
$GPGSV,3,2,09,09,18,217,09,16,10,093,13,21,67,088,28,27,12,045,12*7E
$GPGSV,3,3,09,30,33,317,22*46
$GNGLL,2218.66277,N,11410.14098,E,030801.00,A,A*77
$GNZDA,030801.00,18,05,2021,00,00*7F
$GNVTG,317.76,T,,M,2.695,N,4.991,K,A*2A
$GNGGA,030802.00,2218.66333,N,11410.14046,E,1,08,1.20,10.0,M,-1.7,M,,*62
$GNGSA,A,3,30,16,21,01,08,07,09,27,,,,,2.18,1.20,1.82*1A
$GPGSV,3,1,09,01,61,158,35,04,09,185,10,07,71,294,30,08,40,026,25*7C
$GPGSV,3,2,09,09,18,217,12,16,10,093,12,21,67,088,21,27,12,045,11*7F
$GPGSV,3,3,09,30,33,317,21*45
$GNGLL,2218.66333,N,11410.14046,E,030802.00,A,A*76
$GNZDA,030802.00,18,05,2021,00,00*7C
$GNVTG,317.79,T,,M,2.693,N,4.987,K,A*24
$GNGGA,030803.00,2218.66381,N,11410.14001,E,1,05,1.22,9.8,M,-1.7,M,,*56
$GNGSA,A,3,30,21,01,08,07,,,,,,,,2.25,1.22,1.89*16
$GPGSV,3,1,09,01,61,158,38,04,09,185,08,07,71,294,31,08,40,026,25*79
$GPGSV,3,2,09,09,18,217,07,16,10,093,09,21,67,088,22,27,12,045,08*7A
$GPGSV,3,3,09,30,33,317,28*4C
$GNGLL,2218.66381,N,11410.14001,E,030803.00,A,A*7D
$GNZDA,030803.00,18,05,2021,00,00*7D
$GNVTG,317.83,T,,M,2.685,N,4.973,K,A*2D
$GNGGA,030804.00,2218.66416,N,11410.13972,E,1,07,1.25,10.5,M,-1.7,M,,*62
$GNGSA,A,3,30,21,01,08,07,09,27,,,,,,2.45,1.25,2.11*19
$GPGSV,3,1,09,01,61,158,36,04,09,185,08,07,71,294,31,08,40,026,25*77
$GPGSV,3,2,09,09,18,217,09,16,10,093,08,21,67,088,26,27,12,045,09*70
$GPGSV,3,3,09,30,33,317,36*43
$GNGLL,2218.66416,N,11410.13972,E,030804.00,A,A*79
$GNZDA,030804.00,18,05,2021,00,00*7A
$GNVTG,317.87,T,,M,2.677,N,4.958,K,A*2D
$GNGGA,030805.00,2218.66460,N,11410.13940,E,1,07,1.20,10.6,M,-1.7,M,,*65
$GNGSA,A,3,30,21,01,08,07,09,27,,,,,,2.18,1.20,1.82*1D
$GPGSV,3,1,09,01,61,158,33,04,09,185,07,07,71,294,31,08,40,026,25*7D
$GPGSV,3,2,09,09,18,217,09,16,10,093,07,21,67,088,27,27,12,045,10*76
$GPGSV,3,3,09,30,33,317,32*47
$GNGLL,2218.66460,N,11410.13940,E,030805.00,A,A*78
$GNZDA,030805.00,18,05,2021,00,00*7B
$GNVTG,317.93,T,,M,2.664,N,4.934,K,A*20
$GNGGA,030806.00,2218.66491,N,11410.13924,E,1,07,1.26,11.0,M,-1.7,M,,*6B
$GNGSA,A,3,30,21,01,08,07,09,27,,,,,,2.39,1.26,2.03*12
$GPGSV,3,1,09,01,61,158,37,04,09,185,08,07,71,294,33,08,40,026,26*77
$GPGSV,3,2,09,09,18,217,10,16,10,093,08,21,67,088,28,27,12,045,09*76
$GPGSV,3,3,09,30,33,317,35*40
$GNGLL,2218.66491,N,11410.13924,E,030806.00,A,A*77
$GNZDA,030806.00,18,05,2021,00,00*78
$GNVTG,318.00,T,,M,2.647,N,4.901,K,A*22
$GNGGA,030807.00,2218.66513,N,11410.13920,E,1,06,1.30,11.9,M,-1.7,M,,*6A
$GNGSA,A,3,30,21,01,08,07,27,,,,,,,2.20,1.30,1.77*14
$GPGSV,3,1,09,01,61,158,37,04,09,185,08,07,71,294,33,08,40,026,27*76
$GPGSV,3,2,09,09,18,217,07,16,10,093,09,21,67,088,28,27,12,045,11*78
$GPGSV,3,3,09,30,33,317,36*43
$GNGLL,2218.66513,N,11410.13920,E,030807.00,A,A*79
$GNZDA,030807.00,18,05,2021,00,00*79
$‹Ìl?Aj°óD
$GNVTG,318.08,T,,M,2.630,N,4.871,K,A*2C
$GNGGA,030808.00,2218.66537,N,11410.13913,E,1,07,0.88,12.6,M,-1.7,M,,*6C
$GNGSA,A,3,04,30,21,01,08,07,27,,,,,,1.56,0.88,1.29*1B
$GPGSV,3,1,09,01,61,158,37,04,09,185,09,07,71,294,33,08,40,026,27*77
$GPGSV,3,2,09,09,18,217,,16,10,093,09,21,67,088,28,27,12,045,10*7E
$GPGSV,3,3,09,30,33,317,36*43
$GNGLL,2218.66537,N,11410.13913,E,030808.00,A,A*70
$GNZDA,030808.00,18,05,2021,00,00*76
$GNVTG,318.16,T,,M,2.615,N,4.843,K,A*25
$GNGGA,030809.00,2218.66563,N,11410.13904,E,1,07,0.94,13.1,M,-1.7,M,,*61
$GNGSA,A,3,04,30,21,01,08,07,27,,,,,,1.70,0.94,1.41*1C
$GPGSV,3,1,09,01,61,158,37,04,09,185,12,07,71,294,33,08,40,026,27*7D
$GPGSV,3,2,09,09,18,217,,16,10,093,09,21,67,088,28,27,12,045,09*76
$GPGSV,3,3,09,30,33,317,36*43
$GNGLL,2218.66563,N,11410.13904,E,030809.00,A,A*76
$GNZDA,030809.00,18,05,2021,00,00*77
$GNVTG,318.24,T,,M,2.601,N,4.817,K,A*20
$GNGGA,030810.00,2218.66592,N,11410.13891,E,1,07,1.25,13.4,M,-1.7,M,,*64
$GNGSA,A,3,04,30,21,01,08,07,27,,,,,,2.45,1.25,2.11*14
$GPGSV,3,1,09,01,61,158,37,04,09,185,09,07,71,294,33,08,40,026,27*77
$GPGSV,3,2,09,09,18,217,,16,10,093,08,21,67,088,28,27,12,045,11*7E
$GPGSV,3,3,09,30,33,317,35*40
$GNGLL,2218.66592,N,11410.13891,E,030810.00,A,A*7D
$GNZDA,030810.00,18,05,2021,00,00*7F
$GNVTG,318.31,T,,M,2.589,N,4.795,K,A*22
$GNGGA,030811.00,2218.66623,N,11410.13873,E,1,07,0.88,13.7,M,-1.7,M,,*65
$GNGSA,A,3,04,30,21,01,08,07,27,,,,,,1.56,0.88,1.29*1B
$GPGSV,3,1,09,01,61,158,37,04,09,185,11,07,71,294,33,08,40,026,27*7E
$GPGSV,3,2,09,09,18,217,17,16,10,093,09,21,67,088,28,27,12,045,09*70
$GPGSV,3,3,09,30,33,317,35*40
$GNGLL,2218.66623,N,11410.13873,E,030811.00,A,A*79
$GNZDA,030811.00,18,05,2021,00,00*7E
$GNVTG,318.38,T,,M,2.574,N,4.768,K,A*2B
$GNGGA,030812.00,2218.66650,N,11410.13863,E,1,06,1.25,14.1,M,-1.7,M,,*65
$GNGSA,A,3,30,21,01,08,07,27,,,,,,,2.45,1.25,2.11*10
$GPGSV,3,1,09,01,61,158,38,04,09,185,06,07,71,294,33,08,40,026,27*77
$GPGSV,3,2,09,09,18,217,15,16,10,093,09,21,67,088,27,27,12,045,10*75
$GPGSV,3,3,09,30,33,317,35*40
$GNGLL,2218.66650,N,11410.13863,E,030812.00,A,A*7F
$GNZDA,030812.00,18,05,2021,00,00*7D
$GNVTG,318.51,T,,M,2.542,N,4.707,K,A*28
$GNGGA,030813.00,2218.66636,N,11410.13911,E,1,07,0.88,15.7,M,-1.7,M,,*60
$GNGSA,A,3,04,30,21,01,08,07,27,,,,,,1.56,0.88,1.29*1B
$GPGSV,3,1,09,01,61,158,41,04,09,185,12,07,71,294,36,08,40,026,28*76
$GPGSV,3,2,09,09,18,217,16,16,10,093,17,21,67,088,29,27,12,045,12*75
$GPGSV,3,3,09,30,33,317,39*4C
$GNGLL,2218.66636,N,11410.13911,E,030813.00,A,A*7A
$GNZDA,030813.00,18,05,2021,00,00*7C
$GNVTG,318.60,T,,M,2.535,N,4.696,K,A*23
$GNGGA,030814.00,2218.66679,N,11410.13879,E,1,06,0.88,15.6,M,-1.7,M,,*63
$GNGSA,A,3,04,30,21,01,08,07,,,,,,,1.56,0.88,1.29*1E
$GPGSV,3,1,09,01,61,158,36,04,09,185,12,07,71,294,31,08,40,026,27*7E
$GPGSV,3,2,09,09,18,217,14,16,10,093,14,21,67,088,27,27,12,045,07*7E
$GPGSV,3,3,09,30,33,317,31*44
$GNGLL,2218.66679,N,11410.13879,E,030814.00,A,A*79
$GNZDA,030814.00,18,05,2021,00,00*7B
$GNVTG,318.67,T,,M,2.524,N,4.675,K,A*29
$GNGGA,030815.00,2218.66711,N,11410.13861,E,1,08,0.88,15.7,M,-1.7,M,,*6B
$GNGSA,A,3,04,30,21,01,08,07,09,27,,,,,1.56,0.88,1.29*12
$GPGSV,3,1,09,01,61,158,38,04,09,185,11,07,71,294,30,08,40,026,28*7D
$GPGSV,3,2,09,09,18,217,14,16,10,093,13,21,67,088,27,27,12,045,10*7F
$GPGSV,3,3,09,30,33,317,35*40
$GNGLL,2218.66711,N,11410.13861,E,030815.00,A,A*7E
$GNZDA,030815.00,18,05,2021,00,00*7A
$GNVTG,318.73,T,,M,2.515,N,4.658,K,A*21
$GNGGA,030816.00,2218.66747,N,11410.13839,E,1,07,1.20,16.0,M,-1.7,M,,*6E
$GNGSA,A,3,04,30,21,01,08,07,09,,,,,,2.18,1.20,1.82*1C
$GPGSV,3,1,09,01,61,158,37,04,09,185,11,07,71,294,31,08,40,026,26*7D
$GPGSV,3,2,09,09,18,217,13,16,10,093,,21,67,088,25,27,12,045,08*71
$GPGSV,3,3,09,30,33,317,35*40
$GNGLL,2218.66747,N,11410.13839,E,030816.00,A,A*73
$GNZDA,030816.00,18,05,2021,00,00*79
$GNVTG,318.79,T,,M,2.503,N,4.636,K,A*24
$GNGGA,030817.00,2218.66776,N,11410.13821,E,1,07,0.97,16.2,M,-1.7,M,,*6B
$GNGSA,A,3,04,30,21,01,08,07,09,,,,,,1.76,0.97,1.47*13
$GPGSV,3,1,09,01,61,158,38,04,09,185,12,07,71,294,32,08,40,026,27*73
$GPGSV,3,2,09,09,18,217,10,16,10,093,,21,67,088,25,27,12,045,07*7D
$GPGSV,3,3,09,30,33,317,35*40
$GNGLL,2218.66776,N,11410.13821,E,030817.00,A,A*79
$GNZDA,030817.00,18,05,2021,00,00*78
$GNVTG,318.84,T,,M,2.489,N,4.610,K,A*21
$GNGGA,030818.00,2218.66798,N,11410.13811,E,1,08,0.97,16.7,M,-1.7,M,,*6D
$GNGSA,A,3,04,30,21,01,08,07,09,27,,,,,1.76,0.97,1.47*16
$GPGSV,3,1,09,01,61,158,38,04,09,185,11,07,71,294,32,08,40,026,27*70
$GPGSV,3,2,09,09,18,217,10,16,10,093,,21,67,088,24,27,12,045,11*7B
$GPGSV,3,3,09,30,33,317,36*43
$GNGLL,2218.66798,N,11410.13811,E,030818.00,A,A*75
$GNZDA,030818.00,18,05,2021,00,00*77
$GNVTG,318.90,T,,M,2.475,N,4.584,K,A*29
$GNGGA,030819.00,2218.66820,N,11410.13801,E,1,06,0.97,17.1,M,-1.7,M,,*68
$GNGSA,A,3,30,21,01,08,07,27,,,,,,,1.76,0.97,1.47*1B
$GPGSV,3,1,09,01,61,158,38,04,09,185,07,07,71,294,32,08,40,026,27*77
$GPGSV,3,2,09,09,18,217,09,16,10,093,,21,67,088,23,27,12,045,09*7D
$GPGSV,3,3,09,30,33,317,36*43
$GNGLL,2218.66820,N,11410.13801,E,030819.00,A,A*79
$GNZDA,030819.00,18,05,2021,00,00*76
$GNVTG,318.96,T,,M,2.458,N,4.553,K,A*2A
$GNGGA,030820.00,2218.66835,N,11410.13797,E,1,07,1.29,17.5,M,-1.7,M,,*67
$GNGSA,A,3,04,30,21,01,08,07,27,,,,,,2.30,1.29,1.91*11
$GPGSV,3,1,09,01,61,158,39,04,09,185,11,07,71,294,33,08,40,026,27*70
$GPGSV,3,2,09,09,18,217,09,16,10,093,,21,67,088,24,27,12,045,10*72
$GPGSV,3,3,09,30,33,317,36*43
$GNGLL,2218.66835,N,11410.13797,E,030820.00,A,A*77
$GNZDA,030820.00,18,05,2021,00,00*7C
$GNVTG,319.01,T,,M,2.452,N,4.540,K,A*2D
$GNGGA,030821.00,2218.66874,N,11410.13768,E,1,07,1.29,17.6,M,-1.7,M,,*60
$GNGSA,A,3,04,30,21,01,08,07,27,,,,,,2.48,1.29,2.12*16
$GPGSV,3,1,09,01,61,158,34,04,09,185,09,07,71,294,29,08,40,026,26*7E
$GPGSV,3,2,09,09,18,217,09,16,10,093,,21,67,088,23,27,12,045,10*75
$GPGSV,3,3,09,30,33,317,34*41
$GNGLL,2218.66874,N,11410.13768,E,030821.00,A,A*73
$GNZDA,030821.00,18,05,2021,00,00*7D
$GNVTG,319.06,T,,M,2.435,N,4.510,K,A*2E
$GNGGA,030822.00,2218.66888,N,11410.13765,E,1,08,1.29,18.0,M,-1.7,M,,*6B
$GNGSA,A,3,04,30,21,01,08,07,09,27,,,,,2.48,1.29,2.11*1C
$GPGSV,3,1,09,01,61,158,39,04,09,185,09,07,71,294,33,08,40,026,27*79
$GPGSV,3,2,09,09,18,217,11,16,10,093,15,21,67,088,23,27,12,045,10*78
$GPGSV,3,3,09,30,33,317,36*43
$GNGLL,2218.66888,N,11410.13765,E,030822.00,A,A*7E
$GNZDA,030822.00,18,05,2021,00,00*7E
$GNVTG,319.11,T,,M,2.419,N,4.480,K,A*2E
$GNGGA,030823.00,2218.66902,N,11410.13763,E,1,08,0.90,18.4,M,-1.7,M,,*68
$GNGSA,A,3,04,30,21,01,08,07,09,27,,,,,1.57,0.90,1.29*1A
$GPGSV,3,1,09,01,61,158,39,04,09,185,13,07,71,294,32,08,40,026,27*73
$GPGSV,3,2,09,09,18,217,11,16,10,093,13,21,67,088,23,27,12,045,12*7C
$GPGSV,3,3,09,30,33,317,36*43
$GNGLL,2218.66902,N,11410.13763,E,030823.00,A,A*7A
$GNZDA,030823.00,18,05,2021,00,00*7F
$GNVTG,319.21,T,,M,2.389,N,4.425,K,A*2C
$GNGGA,030824.00,2218.66884,N,11410.13805,E,1,08,1.26,20.2,M,-1.7,M,,*6E
$GNGSA,A,3,04,30,21,01,08,07,09,27,,,,,2.28,1.26,1.90*1F
$GPGSV,3,1,09,01,61,158,42,04,09,185,11,07,71,294,35,08,40,026,32*7E
$GPGSV,3,2,09,09,18,217,12,16,10,093,12,21,67,088,24,27,12,045,09*73
$GPGSV,3,3,09,30,33,317,40*42
$GNGLL,2218.66884,N,11410.13805,E,030824.00,A,A*7D
$GNZDA,030824.00,18,05,2021,00,00*78
$GNVTG,319.28,T,,M,2.387,N,4.420,K,A*2E
$GNGGA,030825.00,2218.66930,N,11410.13766,E,1,07,1.24,20.1,M,-1.7,M,,*65
$GNGSA,A,3,30,21,01,08,07,09,27,,,,,,2.45,1.24,2.11*18
$GPGSV,3,1,09,01,61,158,27,04,09,185,08,07,71,294,26,08,40,026,24*70
$GPGSV,3,2,09,09,18,217,14,16,10,093,14,21,67,088,22,27,12,045,10*7D
$GPGSV,3,3,09,30,33,317,28*4C
$GNGLL,2218.66930,N,11410.13766,E,030825.00,A,A*78
$GNZDA,030825.00,18,05,2021,00,00*79
$GNVTG,319.31,T,,M,2.385,N,4.417,K,A*20
$GNGGA,030826.00,2218.66976,N,11410.13725,E,1,08,0.88,20.0,M,-1.7,M,,*6A
$GNGSA,A,3,04,30,21,01,08,07,09,27,,,,,1.56,0.88,1.29*12
$GPGSV,3,1,09,01,61,158,32,04,09,185,09,07,71,294,25,08,40,026,22*70
$GPGSV,3,2,09,09,18,217,14,16,10,093,12,21,67,088,20,27,12,045,11*78
$GPGSV,3,3,09,30,33,317,29*4D
$GNGLL,2218.66976,N,11410.13725,E,030826.00,A,A*7E
$GNZDA,030826.00,18,05,2021,00,00*7A
$GNVTG,319.37,T,,M,2.365,N,4.379,K,A*27
$GNGGA,030827.00,2218.66977,N,11410.13738,E,1,09,1.26,20.9,M,-1.7,M,,*6B
$GNGSA,A,3,04,30,16,21,01,08,07,09,27,,,,2.28,1.26,1.90*18
$GPGSV,3,1,09,01,61,158,42,04,09,185,10,07,71,294,34,08,40,026,29*74
$GPGSV,3,2,09,09,18,217,14,16,10,093,11,21,67,088,22,27,12,045,09*70
$GPGSV,3,3,09,30,33,317,38*4D
$GNGLL,2218.66977,N,11410.13738,E,030827.00,A,A*72
$GNZDA,030827.00,18,05,2021,00,00*7B
$GNVTG,319.45,T,,M,2.340,N,4.333,K,A*2B
$GNGGA,030828.00,2218.66968,N,11410.13768,E,1,08,1.85,22.1,M,-1.7,M,,*6D
$GNGSA,A,3,04,30,21,01,08,07,09,27,,,,,4.45,1.85,4.05*12
$GPGSV,3,1,09,01,61,158,41,04,09,185,10,07,71,294,34,08,40,026,29*77
$GPGSV,3,2,09,09,18,217,12,16,10,093,,21,67,088,22,27,12,045,10*7E
$GPGSV,3,3,09,30,33,317,39*4C
$GNGLL,2218.66968,N,11410.13768,E,030828.00,A,A*76
$GNZDA,030828.00,18,05,2021,00,00*74
$GNVTG,319.56,T,,M,2.316,N,4.290,K,A*22
$GNGGA,030829.00,2218.66964,N,11410.13796,E,1,08,0.88,23.4,M,-1.7,M,,*69
$GNGSA,A,3,04,30,21,01,08,07,09,27,,,,,1.56,0.88,1.28*13
$GPGSV,3,1,09,01,61,158,41,04,09,185,11,07,71,294,34,08,40,026,29*76
$GPGSV,3,2,09,09,18,217,12,16,10,093,,21,67,088,23,27,12,045,11*7E
$GPGSV,3,3,09,30,33,317,39*4C
$GNGLL,2218.66964,N,11410.13796,E,030829.00,A,A*7A
$GNZDA,030829.00,18,05,2021,00,00*75
$GNVTG,319.68,T,,M,2.292,N,4.246,K,A*29
$GNGGA,030830.00,2218.66960,N,11410.13825,E,1,07,0.94,24.3,M,-1.7,M,,*60
$GNGSA,A,3,04,30,21,01,08,07,27,,,,,,1.70,0.94,1.41*1C
$GPGSV,3,1,09,01,61,158,41,04,09,185,09,07,71,294,34,08,40,026,29*7F
$GPGSV,3,2,09,09,18,217,09,16,10,093,,21,67,088,22,27,12,045,10*74
$GPGSV,3,3,09,30,33,317,39*4C
$GNGLL,2218.66960,N,11410.13825,E,030830.00,A,A*71
$GNZDA,030830.00,18,05,2021,00,00*7D
$GNVTG,319.76,T,,M,2.287,N,4.235,K,A*26
$GNGGA,030831.00,2218.66995,N,11410.13798,E,1,06,1.16,24.2,M,-1.7,M,,*69
$GNGSA,A,3,04,30,21,01,08,07,,,,,,,1.87,1.16,1.46*1D
$GPGSV,3,1,09,01,61,158,37,04,08,185,11,07,71,294,31,08,40,026,21*7B
$GPGSV,3,2,09,09,18,217,07,16,10,093,,21,67,088,20,27,12,045,05*7C
$GPGSV,3,3,09,30,33,317,34*41
$GNGLL,2218.66995,N,11410.13798,E,030831.00,A,A*73
$GNZDA,030831.00,18,05,2021,00,00*7C
$GNVTG,319.81,T,,M,2.278,N,4.220,K,A*2A
$GNGGA,030832.00,2218.67027,N,11410.13777,E,1,06,1.85,24.2,M,-1.7,M,,*60
$GNGSA,A,3,04,30,21,01,08,07,,,,,,,4.46,1.85,4.06*1E
$GPGSV,3,1,09,01,61,158,37,04,08,185,11,07,71,293,31,08,40,026,23*7E
$GPGSV,3,2,09,09,18,217,07,16,10,093,,21,67,088,20,27,12,045,06*7F
$GPGSV,3,3,09,30,33,317,35*40
$GNGLL,2218.67027,N,11410.13777,E,030832.00,A,A*70
$GNZDA,030832.00,18,05,2021,00,00*7F
$GNVTG,319.86,T,,M,2.268,N,4.200,K,A*2E
$GNGGA,030833.00,2218.67052,N,11410.13764,E,1,06,1.24,24.4,M,-1.7,M,,*6C
$GNGSA,A,3,04,30,21,01,08,07,,,,,,,2.45,1.24,2.11*10
$GPGSV,3,1,09,01,61,158,38,04,08,185,12,07,71,293,32,08,40,026,26*74
$GPGSV,3,2,09,09,18,217,08,16,10,093,,21,67,088,20,27,12,045,06*70
$GPGSV,3,3,09,30,33,317,36*43
$GNGLL,2218.67052,N,11410.13764,E,030833.00,A,A*71
$GNZDA,030833.00,18,05,2021,00,00*7E
$GNVTG,319.91,T,,M,2.257,N,4.179,K,A*29
$GNGGA,030834.00,2218.67077,N,11410.13753,E,1,05,1.86,24.5,M,-1.7,M,,*62
$GNGSA,A,3,30,21,01,08,07,,,,,,,,4.46,1.86,4.06*19
$GPGSV,3,1,09,01,61,158,38,04,08,185,12,07,71,293,32,08,40,026,26*74
$GPGSV,3,2,09,09,18,217,08,16,10,093,,21,67,088,20,27,12,045,06*70
$GPGSV,3,3,09,30,33,317,36*43
$GNGLL,2218.67077,N,11410.13753,E,030834.00,A,A*75
$GNZDA,030834.00,18,05,2021,00,00*79
$GNVTG,319.96,T,,M,2.246,N,4.159,K,A*2C
$GNGGA,030835.00,2218.67102,N,11410.13744,E,1,05,0.94,24.6,M,-1.7,M,,*67
$GNGSA,A,3,30,21,01,08,07,,,,,,,,1.70,0.94,1.41*1D
$GPGSV,3,1,09,01,61,158,38,04,08,185,12,07,71,293,31,08,40,026,25*74
$GPGSV,3,2,09,09,18,217,10,16,10,093,,21,67,088,20,27,12,045,06*79
$GPGSV,3,3,09,30,33,317,36*43
$GNGLL,2218.67102,N,11410.13744,E,030835.00,A,A*71
$GNZDA,030835.00,18,05,2021,00,00*78
$GNVTG,320.01,T,,M,2.240,N,4.148,K,A*2E
$GNGGA,030836.00,2218.67138,N,11410.13722,E,1,05,0.88,24.6,M,-1.7,M,,*60
$GNGSA,A,3,30,21,01,08,07,,,,,,,,1.56,0.88,1.28*1B
$GPGSV,3,1,09,01,61,158,37,04,08,185,12,07,71,293,31,08,40,026,24*7A
$GPGSV,3,2,09,09,18,217,09,16,10,093,,21,67,087,29,27,12,045,06*77
$GPGSV,3,3,09,30,33,317,34*41
$GNGLL,2218.67138,N,11410.13722,E,030836.00,A,A*7B
$GNZDA,030836.00,18,05,2021,00,00*7B
$GNVTG,320.10,T,,M,2.233,N,4.135,K,A*20
$GNGGA,030837.00,2218.67174,N,11410.13719,E,1,07,1.24,24.9,M,-1.7,M,,*6B
$GNGSA,A,3,04,30,21,01,08,07,27,,,,,,2.45,1.24,2.11*15
$GPGSV,3,1,10,01,61,158,39,04,08,185,10,07,71,293,30,08,40,026,22*79
$GPGSV,3,2,10,09,18,217,08,15,,,25,16,10,093,,21,67,087,31*45
$GPGSV,3,3,10,27,11,046,11,30,33,317,37*7D
$GNGLL,2218.67174,N,11410.13719,E,030837.00,A,A*7A
$GNZDA,030837.00,18,05,2021,00,00*7A
$GNVTG,320.21,T,,M,2.232,N,4.133,K,A*25
$GNGGA,030838.00,2218.67230,N,11410.13709,E,1,07,0.88,25.0,M,-1.7,M,,*69
$GNGSA,A,3,04,30,21,01,08,07,27,,,,,,1.56,0.88,1.28*1A
$GPGSV,3,1,10,01,61,158,37,04,08,185,09,07,71,293,35,08,40,026,21*79
$GPGSV,3,2,10,09,18,217,,15,,,20,16,10,093,,21,67,087,31*48
$GPGSV,3,3,10,27,11,046,12,30,33,317,37*7E
$GNGLL,2218.67230,N,11410.13709,E,030838.00,A,A*77
$GNZDA,030838.00,18,05,2021,00,00*75
$GNVTG,320.36,T,,M,2.230,N,4.130,K,A*22
$GNGGA,030839.00,2218.67287,N,11410.13698,E,1,07,0.89,24.9,M,-1.7,M,,*64
$GNGSA,A,3,04,30,21,01,08,07,27,,,,,,1.57,0.89,1.30*13
$GPGSV,3,1,10,01,61,158,37,04,08,185,12,07,71,293,36,08,40,026,19*7B
$GPGSV,3,2,10,09,18,217,,15,,,17,16,10,093,13,21,67,087,35*4A
$GPGSV,3,3,10,27,11,046,10,30,33,317,31*7A
$GNGLL,2218.67287,N,11410.13698,E,030839.00,A,A*73
$GNZDA,030839.00,18,05,2021,00,00*74
$GNVTG,320.46,T,,M,2.230,N,4.130,K,A*25
$GNGGA,030840.00,2218.67337,N,11410.13663,E,1,07,0.88,24.6,M,-1.7,M,,*6A
$GNGSA,A,3,04,30,21,01,08,07,27,,,,,,1.45,0.88,1.15*16
$GPGSV,3,1,10,01,61,158,37,04,08,185,13,07,71,293,35,08,40,026,17*77
$GPGSV,3,2,10,09,18,217,14,15,,,14,16,10,093,11,21,67,087,30*4B
$GPGSV,3,3,10,27,11,046,14,30,33,317,24*7A
$GNGLL,2218.67337,N,11410.13663,E,030840.00,A,A*73
$GNZDA,030840.00,18,05,2021,00,00*7A
$GNVTG,320.51,T,,M,2.232,N,4.133,K,A*22
$GNGGA,030841.00,2218.67389,N,11410.13620,E,1,07,0.88,24.6,M,-1.7,M,,*69
$GNGSA,A,3,04,30,21,01,08,07,27,,,,,,1.56,0.88,1.28*1A
$GPGSV,3,1,10,01,61,158,35,04,08,185,11,07,71,293,34,08,40,026,15*74
$GPGSV,3,2,10,09,18,217,11,15,,,13,16,10,093,09,21,67,087,23*42
$GPGSV,3,3,10,27,11,046,09,30,33,317,22*70
$GNGLL,2218.67389,N,11410.13620,E,030841.00,A,A*70
$GNZDA,030841.00,18,05,2021,00,00*7B
$GNRMC,030842.00,A,2218.67442,N,11410.13576,E,2.234,320.55,180521,,,A*7D
$GNVTG,320.55,T,,M,2.234,N,4.137,K,A*24
$GNGGA,030842.00,2218.67442,N,11410.13576,E,1,07,0.88,24.6,M,-1.7,M,,*6A
$GNGSA,A,3,04,30,21,01,08,07,27,,,,,,1.56,0.88,1.28*1A
$GPGSV,3,1,10,01,61,158,34,04,08,185,09,07,71,293,33,08,40,026,14*7A
$GPGSV,3,2,10,09,18,217,09,15,,,11,16,10,093,08,21,67,087,26*4D
$GPGSV,3,3,10,27,11,046,11,30,33,317,20*7B
$GNGLL,2218.67442,N,11410.13576,E,030842.00,A,A*73
$GNZDA,030842.00,18,05,2021,00,00*78
$GNVTG,320.57,T,,M,2.238,N,4.145,K,A*2F
$GNGGA,030843.00,2218.67499,N,11410.13528,E,1,06,1.24,24.6,M,-1.7,M,,*60
$GNGSA,A,3,04,30,21,01,08,07,,,,,,,2.45,1.24,2.11*10
$GPGSV,3,1,10,01,61,158,35,04,08,185,10,07,71,293,33,08,40,026,10*77
$GPGSV,3,2,10,09,18,217,08,15,,,09,16,10,093,08,21,67,087,25*46
$GPGSV,3,3,10,27,11,046,08,30,33,317,29*7A
$GNGLL,2218.67499,N,11410.13528,E,030843.00,A,A*7F
$GNZDA,030843.00,18,05,2021,00,00*79
$GNVTG,320.59,T,,M,2.241,N,4.150,K,A*2B
$GNGGA,030844.00,2218.67554,N,11410.13482,E,1,07,1.22,24.6,M,-1.7,M,,*61
$GNGSA,A,3,04,30,21,01,08,07,27,,,,,,1.83,1.22,1.37*1D
$GPGSV,3,1,10,01,61,158,35,04,08,185,13,07,71,293,33,08,40,026,11*75
$GPGSV,3,2,10,09,18,217,11,15,,,11,16,10,093,09,21,67,087,25*46
$GPGSV,3,3,10,27,11,046,10,30,33,317,36*7D
$GNGLL,2218.67554,N,11410.13482,E,030844.00,A,A*79
$GNZDA,030844.00,18,05,2021,00,00*7E
$GNVTG,320.59,T,,M,2.245,N,4.158,K,A*27
$GNGGA,030845.00,2218.67610,N,11410.13430,E,1,08,1.82,24.8,M,-1.7,M,,*61
$GNGSA,A,3,04,30,21,01,08,07,09,27,,,,,2.81,1.82,2.14*1D
$GPGSV,3,1,10,01,61,158,36,04,08,185,11,07,71,293,35,08,40,026,14*77
$GPGSV,3,2,10,09,18,217,11,15,,,12,16,10,093,10,21,67,087,24*4C
$GPGSV,3,3,10,27,11,046,09,30,33,317,38*7B
$GNGLL,2218.67610,N,11410.13430,E,030845.00,A,A*72
$GNZDA,030845.00,18,05,2021,00,00*7F
$GNRMC,030846.00,A,2218.67705,N,11410.13431,E,2.249,320.72,180521,,,A*74
$GNVTG,320.72,T,,M,2.249,N,4.164,K,A*2D
$GNGGA,030846.00,2218.67705,N,11410.13431,E,1,08,1.79,25.1,M,-1.7,M,,*6A
$GNGSA,A,3,04,30,21,01,08,07,09,27,,,,,2.61,1.79,1.89*10
$GPGSV,3,1,10,01,61,158,37,04,08,185,10,07,71,293,36,08,40,026,14*74
$GPGSV,3,2,10,09,18,217,13,15,,,10,16,10,093,11,21,67,087,25*4C
$GPGSV,3,3,10,27,11,046,10,30,33,317,38*73
$GNGLL,2218.67705,N,11410.13431,E,030846.00,A,A*75
$GNZDA,030846.00,18,05,2021,00,00*7C
$GNVTG,321.06,T,,M,2.245,N,4.159,K,A*2D
$GNGGA,030847.00,2218.67812,N,11410.13485,E,1,08,1.47,25.0,M,-1.7,M,,*61
$GNGSA,A,3,04,30,21,01,08,07,09,27,,,,,2.32,1.47,1.80*12
$GPGSV,3,1,10,01,61,158,38,04,08,185,09,07,71,293,35,08,40,026,13*77
$GPGSV,3,2,10,09,18,217,12,15,,,08,16,10,093,10,21,67,087,35*44
$GPGSV,3,3,10,27,11,046,11,30,33,317,36*7C
$GNGLL,2218.67812,N,11410.13485,E,030847.00,A,A*72
$GNZDA,030847.00,18,05,2021,00,00*7D
$GNVTG,321.28,T,,M,2.250,N,4.168,K,A*27
$GNGGA,030848.00,2218.67885,N,11410.13448,E,1,07,0.93,24.8,M,-1.7,M,,*6F
$GNGSA,A,3,30,21,01,08,07,09,27,,,,,,1.50,0.93,1.17*17
$GPGSV,3,1,10,01,61,158,35,04,08,185,08,07,71,293,32,08,40,026,10*7F
$GPGSV,3,2,10,09,18,217,13,15,,,08,16,10,093,12,21,67,087,33*41
$GPGSV,3,3,10,27,11,046,11,30,33,317,36*7C
$GNGLL,2218.67885,N,11410.13448,E,030848.00,A,A*72
$GNZDA,030848.00,18,05,2021,00,00*72
$GNVTG,321.37,T,,M,2.262,N,4.189,K,A*27
$GNGGA,030849.00,2218.67959,N,11410.13375,E,1,06,1.44,24.6,M,-1.7,M,,*63
$GNGSA,A,3,04,30,21,01,07,09,,,,,,,2.85,1.44,2.45*1A
$GPGSV,3,1,10,01,61,158,35,04,08,185,11,07,71,293,36,08,40,026,08*7A
$GPGSV,3,2,10,09,18,217,10,15,,,07,16,10,093,09,21,67,087,20*45
$GPGSV,3,3,10,27,11,046,06,30,33,317,35*79
$GNGLL,2218.67959,N,11410.13375,E,030849.00,A,A*7A
$GNZDA,030849.00,18,05,2021,00,00*73
$GNVTG,321.39,T,,M,2.275,N,4.213,K,A*2F
$GNGGA,030850.00,2218.68037,N,11410.13292,E,1,05,2.10,25.5,M,-1.7,M,,*6E
$GNGSA,A,3,04,30,21,01,07,,,,,,,,3.61,2.10,2.94*16
$GPGSV,3,1,10,01,61,158,38,04,08,185,09,07,71,293,38,08,40,026,09*71
$GPGSV,3,2,10,09,18,217,09,15,,,07,16,10,093,08,21,67,087,16*49
$GPGSV,3,3,10,27,11,046,08,30,33,317,38*7A
$GNGLL,2218.68037,N,11410.13292,E,030850.00,A,A*74
$GNZDA,030850.00,18,05,2021,00,00*7B
$GNVTG,321.33,T,,M,2.289,N,4.240,K,A*20
$GNGGA,030851.00,2218.68111,N,11410.13194,E,1,06,1.46,26.7,M,-1.7,M,,*6D
$GNGSA,A,3,04,30,01,08,07,27,,,,,,,2.02,1.46,1.39*18
$GPGSV,3,1,10,01,61,158,38,04,08,185,10,07,71,293,38,08,40,026,29*7B
$GPGSV,3,2,10,09,18,217,08,15,,,07,16,10,093,07,21,67,087,12*43
$GPGSV,3,3,10,27,11,046,11,30,33,317,37*7D
$GNGLL,2218.68111,N,11410.13194,E,030851.00,A,A*75
$GNZDA,030851.00,18,05,2021,00,00*7A
$GNVTG,321.50,T,,M,2.290,N,4.240,K,A*2D
$GNGGA,030852.00,2218.68215,N,11410.13219,E,1,06,2.31,27.0,M,-1.7,M,,*6A
$GNGSA,A,3,04,30,21,01,08,07,,,,,,,3.42,2.31,2.53*17
$GPGSV,3,1,10,01,61,158,40,04,08,185,09,07,71,293,37,08,40,026,36*7D
$GPGSV,3,2,10,09,18,217,08,15,,,07,16,10,093,,21,67,087,36*42
$GPGSV,3,3,10,27,11,046,08,30,33,317,37*75
$GNGLL,2218.68215,N,11410.13219,E,030852.00,A,A*77
$GNZDA,030852.00,18,05,2021,00,00*79
$GNVTG,321.84,T,,M,2.292,N,4.244,K,A*22
$GNGGA,030853.00,2218.68342,N,11410.13264,E,1,06,1.60,26.3,M,-1.7,M,,*67
$GNGSA,A,3,04,30,21,01,08,07,,,,,,,2.45,1.60,1.86*1D
$GPGSV,3,1,10,01,61,158,39,04,08,185,09,07,71,293,37,08,40,026,37*72
$GPGSV,3,2,10,09,18,217,08,15,,,07,16,10,093,,21,67,087,35*41
$GPGSV,3,3,10,27,11,046,11,30,33,317,37*7D
$GNGLL,2218.68342,N,11410.13264,E,030853.00,A,A*7F
$GNZDA,030853.00,18,05,2021,00,00*78
$GNVTG,322.31,T,,M,2.297,N,4.254,K,A*2B
$GNGGA,030854.00,2218.68497,N,11410.13325,E,1,06,3.23,24.0,M,-1.7,M,,*6F
$GNGSA,A,3,04,30,21,01,08,07,,,,,,,7.13,3.23,6.36*12
$GPGSV,3,1,10,01,61,158,39,04,08,185,10,07,71,293,37,08,40,026,37*7A
$GPGSV,3,2,10,09,18,217,,15,,,07,16,10,093,,21,67,087,35*49
$GPGSV,3,3,10,27,11,046,10,30,33,317,39*72
$GNGLL,2218.68497,N,11410.13325,E,030854.00,A,A*73
$GNZDA,030854.00,18,05,2021,00,00*7F
$GNRMC,030855.00,A,2218.68665,N,11410.13457,E,2.294,323.02,180521,,,A*7A
$GNVTG,323.02,T,,M,2.294,N,4.249,K,A*25
$GNGGA,030855.00,2218.68665,N,11410.13457,E,1,07,1.90,23.6,M,-1.7,M,,*69
$GNGSA,A,3,04,30,21,01,08,07,27,,,,,,2.74,1.90,1.97*15
$GPGSV,3,1,10,01,61,158,40,04,08,185,10,07,71,293,38,08,40,026,38*74
$GPGSV,3,2,10,09,18,217,,15,,,08,16,10,093,,21,67,087,37*44
$GPGSV,3,3,10,27,11,046,10,30,33,317,38*73
$GNGLL,2218.68665,N,11410.13457,E,030855.00,A,A*7F
$GNZDA,030855.00,18,05,2021,00,00*7E
$GNVTG,323.72,T,,M,2.294,N,4.249,K,A*22
$GNGGA,030856.00,2218.68806,N,11410.13541,E,1,07,1.23,23.2,M,-1.7,M,,*6B
$GNGSA,A,3,04,30,21,01,08,07,27,,,,,,1.90,1.23,1.45*1B
$GPGSV,3,1,10,01,61,158,40,04,08,185,09,07,71,293,38,08,40,026,38*7C
$GPGSV,3,2,10,09,18,217,14,15,,,08,16,10,093,,21,67,087,35*43
$GPGSV,3,3,10,27,11,046,12,30,33,317,40*7E
$GNGLL,2218.68806,N,11410.13541,E,030856.00,A,A*71
$GNZDA,030856.00,18,05,2021,00,00*7D
$GNVTG,324.09,T,,M,2.305,N,4.269,K,A*22
$GNGGA,030857.00,2218.68904,N,11410.13496,E,1,07,1.04,21.3,M,-1.7,M,,*64
$GNGSA,A,3,04,30,21,01,08,07,27,,,,,,1.57,1.04,1.18*1D
$GPGSV,3,1,09,01,61,158,37,04,08,185,10,07,71,293,35,08,40,026,35*7C
$GPGSV,3,2,09,09,18,217,20,16,10,093,,21,67,087,32,27,11,046,10*71
$GPGSV,3,3,09,30,33,317,36*43
$GNGLL,2218.68904,N,11410.13496,E,030857.00,A,A*78
$GNZDA,030857.00,18,05,2021,00,00*7C
$GNVTG,324.31,T,,M,2.314,N,4.286,K,A*28
$GNGGA,030858.00,2218.68995,N,11410.13447,E,1,04,1.56,19.5,M,-1.7,M,,*66
$GNGSA,A,3,30,21,01,07,,,,,,,,,2.43,1.56,1.86*12
$GPGSV,3,1,09,01,61,158,36,04,08,185,07,07,71,293,35,08,40,026,31*7F
$GPGSV,3,2,09,09,18,217,19,16,10,093,,21,67,087,33,27,11,046,08*73
$GPGSV,3,3,09,30,33,317,36*43
$GNGLL,2218.68995,N,11410.13447,E,030858.00,A,A*73
$GNZDA,030858.00,18,05,2021,00,00*73
$GNVTG,324.49,T,,M,2.322,N,4.300,K,A*2D
$GNGGA,030859.00,2218.69094,N,11410.13417,E,1,07,1.07,17.7,M,-1.7,M,,*60
$GNGSA,A,3,04,30,21,01,08,07,27,,,,,,1.75,1.07,1.39*1D
$GPGSV,3,1,09,01,61,158,37,04,08,185,09,07,71,293,35,08,40,026,38*79
$GPGSV,3,2,09,09,18,217,20,16,10,093,,21,67,087,33,27,11,046,10*70
$GPGSV,3,3,09,30,33,317,36*43
$GNGLL,2218.69094,N,11410.13417,E,030859.00,A,A*7E
$GNZDA,030859.00,18,05,2021,00,00*72
$GNVTG,,,,,,,,,N*2E
$GNGGA,030900.00,,,,,0,08,1.13,,,,,,*49
$GNGSA,A,1,04,30,21,01,08,07,09,27,,,,,1.53,1.13,1.02*1F
$GPGSV,3,1,09,01,61,158,37,04,08,185,10,07,71,293,35,08,40,026,36*7F
$GPGSV,3,2,09,09,18,217,22,16,10,093,,21,67,087,34,27,11,046,10*75
$GPGSV,3,3,09,30,33,317,31*44
$GNGLL,,,,,030900.00,V,N*5E
$GNZDA,030900.00,18,05,2021,00,00*7F
$GNVTG,324.64,T,,M,2.322,N,4.300,K,A*22
$GNGGA,030901.00,2218.75105,N,11410.13999,E,1,08,1.11,12.0,M,-1.7,M,,*69
$GNGSA,A,3,04,30,21,01,08,07,09,27,,,,,1.82,1.11,1.44*11
$GPGSV,3,1,09,01,61,158,37,04,08,185,11,07,71,293,36,08,40,026,35*7E
$GPGSV,3,2,09,09,18,217,23,16,10,093,,21,67,087,34,27,11,046,12*76
$GPGSV,3,3,09,30,33,317,29*4D
$GNGLL,2218.75105,N,11410.13999,E,030901.00,A,A*7D
$GNZDA,030901.00,18,05,2021,00,00*7E
$GNVTG,324.68,T,,M,2.321,N,4.299,K,A*2C
$GNGGA,030902.00,2218.75130,N,11410.13905,E,1,08,0.86,13.1,M,-1.7,M,,*66
$GNGSA,A,3,04,30,21,01,08,07,09,27,,,,,1.52,0.86,1.25*14
$GPGSV,3,1,09,01,61,158,37,04,08,185,12,07,71,293,35,08,40,026,35*7E
$GPGSV,3,2,09,09,18,217,20,16,10,093,,21,67,087,33,27,11,046,09*78
$GPGSV,3,3,09,30,33,317,28*4C
$GNGLL,2218.75130,N,11410.13905,E,030902.00,A,A*7D
$GNZDA,030902.00,18,05,2021,00,00*7D
$GNVTG,324.70,T,,M,2.319,N,4.295,K,A*22
$GNGGA,030903.00,2218.75177,N,11410.13900,E,1,08,0.86,10.5,M,-1.7,M,,*66
$GNGSA,A,3,04,30,21,01,08,07,09,27,,,,,1.52,0.86,1.25*14
$GPGSV,3,1,09,01,61,158,37,04,08,185,10,07,71,293,35,08,40,026,35*7C
$GPGSV,3,2,09,09,18,217,20,16,10,093,,21,67,087,34,27,11,046,12*75
$GPGSV,3,3,09,30,33,317,28*4C
$GNGLL,2218.75177,N,11410.13900,E,030903.00,A,A*7A
$GNZDA,030903.00,18,05,2021,00,00*7C
$GNVTG,324.72,T,,M,2.316,N,4.289,K,A*22
$GNGGA,030904.00,2218.75238,N,11410.13903,E,1,08,1.20,10.3,M,-1.7,M,,*61
$GNGSA,A,3,04,30,21,01,08,07,09,27,,,,,2.16,1.20,1.80*15
$GPGSV,3,1,09,01,61,158,37,04,08,185,09,07,71,293,35,08,40,026,35*74
$GPGSV,3,2,09,09,18,217,21,16,10,093,,21,67,087,33,27,11,046,10*71
$GPGSV,3,3,09,30,33,317,28*4C
$GNGLL,2218.75238,N,11410.13903,E,030904.00,A,A*76
$GNZDA,030904.00,18,05,2021,00,00*7B
$GNVTG,324.72,T,,M,2.313,N,4.283,K,A*2D
$GNGGA,030905.00,2218.75276,N,11410.13876,E,1,07,1.31,9.7,M,-1.7,M,,*5A
$GNGSA,A,3,04,30,21,01,08,07,09,,,,,,2.20,1.31,1.77*1D
$GPGSV,3,1,09,01,61,158,37,04,08,185,12,07,71,293,35,08,40,026,36*7D
$GPGSV,3,2,09,09,18,217,21,16,10,093,,21,67,087,33,27,11,046,06*76
$GPGSV,3,3,09,30,33,317,28*4C
$GNGLL,2218.75276,N,11410.13876,E,030905.00,A,A*7E
$GNZDA,030905.00,18,05,2021,00,00*7A
$GNVTG,324.73,T,,M,2.309,N,4.277,K,A*2C
$GNGGA,030906.00,2218.75305,N,11410.13865,E,1,07,1.28,9.6,M,-1.7,M,,*57
$GNGSA,A,3,30,21,01,08,07,09,27,,,,,,2.37,1.28,1.99*12
$GPGSV,3,1,09,01,61,158,37,04,08,185,08,07,71,293,34,08,40,026,36*77
$GPGSV,3,2,09,09,18,217,23,16,10,093,,21,67,087,33,27,11,046,12*71
$GPGSV,3,3,09,30,33,317,28*4C
$GNGLL,2218.75305,N,11410.13865,E,030906.00,A,A*7A
$GNZDA,030906.00,18,05,2021,00,00*79
$GNVTG,324.74,T,,M,2.306,N,4.271,K,A*22
$GNGGA,030907.00,2218.75325,N,11410.13840,E,1,07,1.28,9.7,M,-1.7,M,,*52
$GNGSA,A,3,30,21,01,08,07,09,27,,,,,,2.37,1.28,1.99*12
$GPGSV,3,1,09,01,61,158,38,04,08,185,08,07,71,293,35,08,40,026,37*78
$GPGSV,3,2,09,09,18,217,24,16,10,093,,21,67,087,34,27,11,046,11*72
$GPGSV,3,3,09,30,33,317,29*4D
$GNGLL,2218.75325,N,11410.13840,E,030907.00,A,A*7E
$GNZDA,030907.00,18,05,2021,00,00*78
$GNRMC,030908.00,A,2218.75354,N,11410.13810,E,2.302,324.74,180521,,,A*7F
$GNVTG,324.74,T,,M,2.302,N,4.264,K,A*22
$GNGGA,030908.00,2218.75354,N,11410.13810,E,1,07,1.28,10.3,M,-1.7,M,,*62
$GNGSA,A,3,04,30,21,01,08,07,09,,,,,,2.37,1.28,1.99*13
$GPGSV,3,1,09,01,61,158,37,04,08,185,09,07,71,293,35,08,40,026,38*79
$GPGSV,3,2,09,09,18,217,25,16,10,093,,21,67,087,34,27,11,046,08*7B
$GPGSV,3,3,09,30,33,317,29*4D
$GNGLL,2218.75354,N,11410.13810,E,030908.00,A,A*72
$GNZDA,030908.00,18,05,2021,00,00*77
$GNVTG,324.74,T,,M,2.299,N,4.257,K,A*21
$GNGGA,030909.00,2218.75369,N,11410.13784,E,1,07,0.95,10.4,M,-1.7,M,,*6F
$GNGSA,A,3,30,21,01,08,07,09,27,,,,,,1.62,0.95,1.30*15
$GPGSV,3,1,09,01,61,158,38,04,08,185,06,07,71,293,35,08,40,026,38*79
$GPGSV,3,2,09,09,18,217,25,16,10,093,,21,67,087,34,27,11,046,10*72
$GPGSV,3,3,09,30,33,317,29*4D
$GNGLL,2218.75369,N,11410.13784,E,030909.00,A,A*7F
$GNZDA,030909.00,18,05,2021,00,00*76
$GNVTG,324.75,T,,M,2.295,N,4.251,K,A*2A
$GNGGA,030910.00,2218.75363,N,11410.13755,E,1,08,1.21,8.6,M,-1.7,M,,*5B
$GNGSA,A,3,04,30,21,01,08,07,09,27,,,,,2.23,1.21,1.87*15
$GPGSV,3,1,09,01,62,158,37,04,08,185,10,07,71,293,35,08,40,026,38*72
$GPGSV,3,2,09,09,18,217,25,16,10,093,,21,67,087,34,27,11,046,11*73
$GPGSV,3,3,09,30,33,317,29*4D
$GNGLL,2218.75363,N,11410.13755,E,030910.00,A,A*71
$GNZDA,030910.00,18,05,2021,00,00*7E
$GNVTG,324.74,T,,M,2.292,N,4.244,K,A*28
$GNGGA,030911.00,2218.75365,N,11410.13726,E,1,08,0.88,7.2,M,-1.7,M,,*51
$GNGSA,A,3,04,30,21,01,08,07,09,27,,,,,1.56,0.88,1.28*13
$GPGSV,3,1,09,01,62,158,37,04,08,185,11,07,71,293,35,08,40,026,38*73
$GPGSV,3,2,09,09,18,217,25,16,10,093,14,21,67,087,34,27,11,046,10*77
$GPGSV,3,3,09,30,33,317,29*4D
$GNGLL,2218.75365,N,11410.13726,E,030911.00,A,A*72
$GNZDA,030911.00,18,05,2021,00,00*7F
$GNVTG,324.75,T,,M,2.288,N,4.238,K,A*29
$GNGGA,030912.00,2218.75403,N,11410.13699,E,1,08,1.28,8.1,M,-1.7,M,,*57
$GNGSA,A,3,04,30,21,01,08,07,09,27,,,,,2.36,1.28,1.99*17
$GPGSV,3,1,09,01,62,158,37,04,08,185,11,07,72,292,35,08,40,026,38*71
$GPGSV,3,2,09,09,18,217,26,16,10,093,12,21,67,087,34,27,11,046,10*72
$GPGSV,3,3,09,30,33,317,29*4D
$GNGLL,2218.75403,N,11410.13699,E,030912.00,A,A*73
$GNZDA,030912.00,18,05,2021,00,00*7C
$GNVTG,324.75,T,,M,2.285,N,4.231,K,A*2D
$GNGGA,030913.00,2218.75403,N,11410.13674,E,1,08,1.21,7.1,M,-1.7,M,,*53
$GNGSA,A,3,04,30,21,01,08,07,09,27,,,,,2.23,1.21,1.87*15
$GPGSV,3,1,09,01,62,158,38,04,08,185,10,07,72,292,35,08,40,026,38*7F
$GPGSV,3,2,09,09,18,217,26,16,10,093,10,21,67,087,34,27,11,046,12*72
$GPGSV,3,3,09,30,33,317,29*4D
$GNGLL,2218.75403,N,11410.13674,E,030913.00,A,A*71
$GNZDA,030913.00,18,05,2021,00,00*7D
$GNVTG,324.74,T,,M,2.281,N,4.224,K,A*2C
$GNGGA,030914.00,2218.75417,N,11410.13653,E,1,08,0.94,6.4,M,-1.7,M,,*5F
$GNGSA,A,3,04,30,21,01,08,07,09,27,,,,,1.70,0.94,1.41*15
$GPGSV,3,1,09,01,62,158,37,04,08,185,10,07,72,292,35,08,40,026,38*70
$GPGSV,3,2,09,09,18,217,25,16,10,093,09,21,67,087,34,27,11,046,09*73
$GPGSV,3,3,09,30,33,317,29*4D
$GNGLL,2218.75417,N,11410.13653,E,030914.00,A,A*76
$GNZDA,030914.00,18,05,2021,00,00*7A
$GNVTG,324.74,T,,M,2.277,N,4.218,K,A*2A
$GNGGA,030915.00,2218.75434,N,11410.13632,E,1,08,0.88,5.8,M,-1.7,M,,*5A
$GNGSA,A,3,04,30,21,01,08,07,09,27,,,,,1.56,0.88,1.28*13
$GPGSV,3,1,09,01,62,158,37,04,08,185,09,07,72,292,35,08,40,026,38*78
$GPGSV,3,2,09,09,18,217,24,16,09,093,08,21,67,087,34,27,11,046,12*71
$GPGSV,3,3,09,30,33,317,29*4D
$GNGLL,2218.75434,N,11410.13632,E,030915.00,A,A*71
$GNZDA,030915.00,18,05,2021,00,00*7B
$GNVTG,324.73,T,,M,2.274,N,4.211,K,A*27
$GNGGA,030916.00,2218.75451,N,11410.13612,E,1,08,0.88,5.4,M,-1.7,M,,*54
$GNGSA,A,3,04,30,21,01,08,07,09,27,,,,,1.56,0.88,1.28*13
$GPGSV,3,1,09,01,62,158,37,04,08,185,10,07,72,292,36,08,40,026,38*73
$GPGSV,3,2,09,09,18,217,25,16,09,093,08,21,67,086,34,27,11,046,10*73
$GPGSV,3,3,09,30,33,317,29*4D
$GNGLL,2218.75451,N,11410.13612,E,030916.00,A,A*73
$GNZDA,030916.00,18,05,2021,00,00*78
$GNVTG,324.73,T,,M,2.270,N,4.204,K,A*27
