$GNRMC,030657.00,A,2218.65614,N,11410.15425,E,3.746,318.84,180521,,,A*73
$GNVTG,318.84,T,,M,3.746,N,6.938,K,A*27
$GNGGA,030657.00,2218.65614,N,11410.15425,E,1,11,1.20,-47.5,M,-1.7,M,,*4D
$GNGSA,A,3,08,21,09,07,04,01,30,,,,,,2.47,1.20,2.16*18
$GNGSA,A,3,84,73,74,85,,,,,,,,,2.47,1.20,2.16*1D
$GPGSV,4,1,14,01,61,159,39,03,06,163,,04,09,186,11,07,71,295,37*70
$GPGSV,4,2,14,08,40,025,25,09,19,218,14,14,11,304,,16,10,092,15*72
$GPGSV,4,3,14,17,16,247,,21,68,090,25,22,15,137,09,27,12,045,*77
$GPGSV,4,4,14,28,01,296,,30,32,317,14*78
$GLGSV,2,1,08,73,47,104,28,74,57,012,17,75,12,331,,80,05,132,*6F
$GLGSV,2,2,08,83,02,027,,84,59,013,16,85,53,226,13,86,06,213,*63
$GNGLL,2218.65614,N,11410.15425,E,030657.00,A,A*7B
$GNZDA,030657.00,18,05,2021,00,00*72
$GNVTG,318.82,T,,M,3.734,N,6.916,K,A*28
$GNGGA,030658.00,2218.65650,N,11410.15371,E,1,11,1.09,-48.1,M,-1.7,M,,*44
$GNGSA,A,3,08,21,09,07,04,01,30,,,,,,2.21,1.09,1.92*1C
$GNGSA,A,3,84,73,74,85,,,,,,,,,2.21,1.09,1.92*19
$GPGSV,4,1,14,01,61,159,37,03,06,163,,04,09,186,10,07,71,295,37*7F
$GPGSV,4,2,14,08,40,025,25,09,19,218,14,14,11,304,,16,10,092,11*76
$GPGSV,4,3,14,17,16,247,16,21,68,090,25,22,15,137,08,27,12,045,12*72
$GPGSV,4,4,14,28,01,296,,30,32,317,14*78
$GLGSV,2,1,08,73,47,104,28,74,57,012,18,75,12,331,,80,05,132,*60
$GLGSV,2,2,08,83,02,027,,84,59,013,15,85,53,226,14,86,06,213,*67
$GNGLL,2218.65650,N,11410.15371,E,030658.00,A,A*72
$GNZDA,030658.00,18,05,2021,00,00*7D
$GNVTG,318.81,T,,M,3.723,N,6.896,K,A*24
$GNGGA,030659.00,2218.65690,N,11410.15318,E,1,11,1.20,-48.9,M,-1.7,M,,*45
$GNGSA,A,3,08,21,09,07,04,01,30,,,,,,2.47,1.20,2.16*18
$GNGSA,A,3,84,73,74,85,,,,,,,,,2.47,1.20,2.16*1D
$GPGSV,4,1,14,01,61,159,37,03,06,163,,04,09,186,11,07,71,295,37*7E
$GPGSV,4,2,14,08,40,025,25,09,19,218,13,14,11,305,,16,10,092,09*79
$GPGSV,4,3,14,17,16,247,15,21,68,090,26,22,15,137,08,27,12,045,12*72
$GPGSV,4,4,14,28,01,296,,30,32,317,12*7E
$GLGSV,2,1,08,73,47,104,28,74,57,012,17,75,12,331,,80,05,132,*6F
$GLGSV,2,2,08,83,02,027,,84,59,013,14,85,53,226,15,86,06,213,*67
$GNGLL,2218.65690,N,11410.15318,E,030659.00,A,A*70
$GNZDA,030659.00,18,05,2021,00,00*7C
$GNVTG,318.80,T,,M,3.718,N,6.886,K,A*2C
$GNGGA,030700.00,2218.65746,N,11410.15250,E,1,11,1.09,-49.4,M,-1.7,M,,*48
$GNGSA,A,3,08,21,09,07,04,01,30,,,,,,2.21,1.09,1.92*1C
$GNGSA,A,3,84,73,74,85,,,,,,,,,2.21,1.09,1.92*19
$GPGSV,4,1,14,01,61,159,34,03,06,163,,04,09,186,11,07,71,295,33*79
$GPGSV,4,2,14,08,40,025,25,09,19,218,14,14,11,305,,16,10,092,11*77
$GPGSV,4,3,14,17,16,247,15,21,68,090,25,22,15,137,12,27,12,045,10*78
$GPGSV,4,4,14,28,01,296,,30,32,317,13*7F
$GLGSV,2,1,08,73,47,104,28,74,57,012,18,75,12,331,,80,05,132,*60
$GLGSV,2,2,08,83,02,027,,84,59,013,12,85,53,226,15,86,06,213,*61
$GNGLL,2218.65746,N,11410.15250,E,030700.00,A,A*7A
$GNZDA,030700.00,18,05,2021,00,00*71
$GNVTG,318.78,T,,M,3.711,N,6.872,K,A*29
$GNGGA,030701.00,2218.65794,N,11410.15185,E,1,10,1.09,-49.9,M,-1.7,M,,*41
$GNGSA,A,3,08,21,09,07,01,30,,,,,,,2.21,1.09,1.92*18
$GNGSA,A,3,84,73,74,85,,,,,,,,,2.21,1.09,1.92*19
$GPGSV,4,1,14,01,61,159,36,03,06,163,,04,09,186,12,07,71,295,34*7F
$GPGSV,4,2,14,08,40,025,24,09,19,218,13,14,11,305,,16,10,093,13*72
$GPGSV,4,3,14,17,16,247,15,21,68,090,24,22,15,137,13,27,12,045,11*79
$GPGSV,4,4,14,28,01,296,,30,32,317,14*78
$GLGSV,2,1,08,73,47,104,26,74,57,012,17,75,12,331,,80,05,132,*61
$GLGSV,2,2,08,83,02,027,,84,59,013,11,85,53,226,15,86,06,213,*62
$GNGLL,2218.65794,N,11410.15185,E,030701.00,A,A*7F
$GNZDA,030701.00,18,05,2021,00,00*70
$GNVTG,318.77,T,,M,3.702,N,6.857,K,A*23
$GNGGA,030702.00,2218.65842,N,11410.15127,E,1,11,1.21,-50.6,M,-1.7,M,,*42
$GNGSA,A,3,08,21,09,07,04,01,30,17,,,,,2.48,1.21,2.16*10
$GNGSA,A,3,73,74,85,,,,,,,,,,2.48,1.21,2.16*1F
$GPGSV,4,1,14,01,61,159,36,03,06,163,,04,09,186,12,07,71,295,36*7D
$GPGSV,4,2,14,08,40,025,24,09,19,218,13,14,11,305,,16,10,093,12*73
$GPGSV,4,3,14,17,16,248,15,21,68,090,25,22,15,137,12,27,12,045,10*77
$GPGSV,4,4,14,28,01,296,,30,32,317,14*78
$GLGSV,2,1,08,73,47,104,26,74,57,012,16,75,12,331,,80,05,132,*60
$GLGSV,2,2,08,83,02,027,,84,59,013,10,85,53,226,13,86,06,213,*65
$GNGLL,2218.65842,N,11410.15127,E,030702.00,A,A*70
$GNZDA,030702.00,18,05,2021,00,00*73
$GNVTG,318.75,T,,M,3.692,N,6.837,K,A*2F
$GNGGA,030703.00,2218.65880,N,11410.15070,E,1,10,1.09,-51.1,M,-1.7,M,,*43
$GNGSA,A,3,08,21,09,07,01,30,17,,,,,,2.21,1.09,1.92*1E
$GNGSA,A,3,73,74,85,,,,,,,,,,2.21,1.09,1.92*15
$GPGSV,4,1,14,01,61,159,37,03,06,163,,04,09,186,09,07,71,295,36*76
$GPGSV,4,2,14,08,40,025,25,09,19,218,13,14,11,305,,16,10,093,09*78
$GPGSV,4,3,14,17,16,248,12,21,68,090,25,22,15,137,12,27,12,045,08*79
$GPGSV,4,4,14,28,01,296,,30,32,317,14*78
$GLGSV,2,1,08,73,47,104,25,74,57,012,14,75,12,331,,80,05,132,*61
$GLGSV,2,2,08,83,02,027,,84,59,013,09,85,53,226,13,86,06,213,*6D
$GNGLL,2218.65880,N,11410.15070,E,030703.00,A,A*7C
$GNZDA,030703.00,18,05,2021,00,00*72
$GNVTG,318.73,T,,M,3.681,N,6.818,K,A*26
$GNGGA,030704.00,2218.65916,N,11410.15015,E,1,10,1.09,-51.5,M,-1.7,M,,*4D
$GNGSA,A,3,08,21,09,07,01,30,17,,,,,,2.21,1.09,1.92*1E
$GNGSA,A,3,73,74,85,,,,,,,,,,2.21,1.09,1.92*15
$GPGSV,4,1,14,01,61,159,37,03,06,163,,04,09,186,08,07,71,295,36*77
$GPGSV,4,2,14,08,40,025,24,09,19,218,13,14,11,305,,16,10,093,09*79
$GPGSV,4,3,14,17,16,248,11,21,68,090,26,22,15,137,,27,12,045,08*7A
$GPGSV,4,4,14,28,01,296,,30,32,317,13*7F
$GLGSV,2,1,08,73,47,104,25,74,57,012,14,75,12,331,,80,05,132,*61
$GLGSV,2,2,08,83,02,027,,84,59,013,09,85,53,226,14,86,06,213,*6A
$GNGLL,2218.65916,N,11410.15015,E,030704.00,A,A*76
$GNZDA,030704.00,18,05,2021,00,00*75
$GNVTG,318.72,T,,M,3.671,N,6.799,K,A*2E
$GNGGA,030705.00,2218.65956,N,11410.14961,E,1,09,1.23,-52.2,M,-1.7,M,,*47
$GNGSA,A,3,08,21,09,07,01,30,,,,,,,2.49,1.23,2.16*11
$GNGSA,A,3,73,74,85,,,,,,,,,,2.49,1.23,2.16*1C
$GPGSV,4,1,14,01,61,159,37,03,06,163,,04,09,186,07,07,71,295,36*78
$GPGSV,4,2,14,08,40,025,25,09,19,218,12,14,11,305,,16,10,093,08*78
$GPGSV,4,3,14,17,16,248,08,21,68,090,26,22,15,137,,27,12,045,10*7B
$GPGSV,4,4,14,28,01,296,,30,32,317,13*7F
$GLGSV,2,1,08,73,47,104,26,74,57,012,15,75,12,331,,80,05,132,*63
$GLGSV,2,2,08,83,02,027,,84,59,013,09,85,53,226,15,86,06,213,*6B
$GNGLL,2218.65956,N,11410.14961,E,030705.00,A,A*78
$GNZDA,030705.00,18,05,2021,00,00*74
$GNVTG,318.70,T,,M,3.657,N,6.773,K,A*2C
$GNGGA,030706.00,2218.65979,N,11410.14912,E,1,08,1.32,-52.7,M,-1.7,M,,*49
$GNGSA,A,3,08,21,09,07,01,,,,,,,,2.42,1.32,2.03*1D
$GNGSA,A,3,73,74,85,,,,,,,,,,2.42,1.32,2.03*13
$GPGSV,4,1,14,01,61,159,38,03,06,163,,04,09,186,07,07,71,295,36*77
$GPGSV,4,2,14,08,40,025,25,09,19,218,12,14,11,305,,16,10,093,08*78
$GPGSV,4,3,14,17,16,248,,21,67,089,26,22,15,137,,27,12,045,11*75
$GPGSV,4,4,14,28,01,296,,30,32,317,10*7C
$GLGSV,2,1,08,73,47,104,27,74,57,012,16,75,12,331,,80,05,132,*61
$GLGSV,2,2,08,83,02,027,,84,59,013,08,85,53,226,16,86,06,213,*69
$GNGLL,2218.65979,N,11410.14912,E,030706.00,A,A*72
$GNZDA,030706.00,18,05,2021,00,00*77
$GNVTG,318.68,T,,M,3.644,N,6.749,K,A*2E
$GNGGA,030707.00,2218.66007,N,11410.14864,E,1,08,1.57,-53.4,M,-1.7,M,,*4A
$GNGSA,A,3,08,21,09,07,01,,,,,,,,3.02,1.57,2.57*1A
$GNGSA,A,3,73,74,85,,,,,,,,,,3.02,1.57,2.57*14
$GPGSV,4,1,14,01,61,159,38,03,06,163,,04,09,186,07,07,71,295,36*77
$GPGSV,4,2,14,08,40,025,25,09,19,218,12,14,11,305,,16,10,093,08*78
$GPGSV,4,3,14,17,16,248,,21,67,089,26,22,15,137,,27,12,045,09*7C
$GPGSV,4,4,14,28,01,296,,30,32,317,08*75
$GLGSV,2,1,08,73,47,104,27,74,57,012,17,75,12,331,,80,05,132,*60
$GLGSV,2,2,08,83,02,027,,84,59,013,11,85,53,226,16,86,06,213,*61
$GNGLL,2218.66007,N,11410.14864,E,030707.00,A,A*70
$GNZDA,030707.00,18,05,2021,00,00*76
$GNVTG,318.67,T,,M,3.634,N,6.729,K,A*20
$GNGGA,030708.00,2218.66044,N,11410.14812,E,1,09,1.28,-54.1,M,-1.7,M,,*48
$GNGSA,A,3,08,21,09,07,01,,,,,,,,2.40,1.28,2.03*14
$GNGSA,A,3,84,73,74,85,,,,,,,,,2.40,1.28,2.03*16
$GPGSV,4,1,14,01,61,159,37,03,06,163,,04,09,186,07,07,71,295,36*78
$GPGSV,4,2,14,08,40,025,25,09,19,218,13,14,11,305,,16,10,093,08*79
$GPGSV,4,3,14,17,16,248,,21,67,089,26,22,15,137,,27,12,045,07*72
$GPGSV,4,4,14,28,01,296,,30,32,317,10*7C
$GLGSV,2,1,08,73,47,104,28,74,57,012,17,75,12,331,,80,05,132,*6F
$GLGSV,2,2,08,83,02,027,,84,59,013,14,85,53,226,17,86,06,213,*65
$GNGLL,2218.66044,N,11410.14812,E,030708.00,A,A*79
$GNZDA,030708.00,18,05,2021,00,00*79
$GNVTG,318.66,T,,M,3.620,N,6.704,K,A*2B
$GNGGA,030709.00,2218.66071,N,11410.14766,E,1,10,1.44,-54.7,M,-1.7,M,,*47
$GNGSA,A,3,08,21,27,09,07,01,,,,,,,2.89,1.44,2.51*19
$GNGSA,A,3,84,73,74,85,,,,,,,,,2.89,1.44,2.51*1E
$GPGSV,4,1,14,01,61,159,38,03,06,163,,04,09,186,09,07,71,295,36*79
$GPGSV,4,2,14,08,40,025,26,09,19,218,13,14,11,305,,16,10,093,08*7A
$GPGSV,4,3,14,17,16,248,,21,67,089,26,22,15,137,,27,12,045,10*74
$GPGSV,4,4,14,28,01,296,,30,32,317,14*78
$GLGSV,2,1,08,73,47,104,29,74,57,012,17,75,12,331,,80,05,132,*6E
$GLGSV,2,2,08,83,02,027,,84,59,013,15,85,53,226,16,86,06,213,*65
$GNGLL,2218.66071,N,11410.14766,E,030709.00,A,A*72
$GNZDA,030709.00,18,05,2021,00,00*78
$GNVTG,318.65,T,,M,3.604,N,6.674,K,A*28
$GNGGA,030710.00,2218.66090,N,11410.14729,E,1,11,1.20,-55.4,M,-1.7,M,,*4A
$GNGSA,A,3,08,21,27,09,07,01,30,,,,,,2.47,1.20,2.16*19
$GNGSA,A,3,84,73,74,85,,,,,,,,,2.47,1.20,2.16*1D
$GPGSV,4,1,14,01,61,159,38,03,06,163,,04,09,186,09,07,71,295,37*78
$GPGSV,4,2,14,08,40,025,26,09,19,218,12,14,11,305,,16,10,093,07*74
$GPGSV,4,3,14,17,16,248,,21,67,089,26,22,15,137,,27,12,045,09*7C
$GPGSV,4,4,14,28,01,296,,30,32,317,15*79
$GLGSV,2,1,08,73,47,104,27,74,57,012,15,75,12,331,,80,05,132,*62
$GLGSV,2,2,08,83,02,027,,84,59,013,13,85,53,226,15,86,06,213,*60
$GNGLL,2218.66090,N,11410.14729,E,030710.00,A,A*7E
$GNZDA,030710.00,18,05,2021,00,00*70
$GNVTG,318.63,T,,M,3.583,N,6.636,K,A*24
$GNGGA,030711.00,2218.66085,N,11410.14698,E,1,09,1.21,-55.6,M,-1.7,M,,*4E
$GNGSA,A,3,08,21,27,09,07,01,30,,,,,,2.40,1.21,2.07*1F
$GNGSA,A,3,73,74,,,,,,,,,,,2.40,1.21,2.07*1A
$GPGSV,4,1,14,01,61,159,39,03,06,163,,04,09,186,10,07,71,295,37*71
$GPGSV,4,2,14,08,40,025,25,09,19,218,12,14,11,305,,16,10,093,08*78
$GPGSV,4,3,14,17,16,248,,21,67,089,26,22,15,137,,27,12,045,11*75
$GPGSV,4,4,14,28,01,296,,30,32,317,15*79
$GLGSV,2,1,08,73,47,104,27,74,57,012,13,75,12,331,,80,05,132,*64
$GLGSV,2,2,08,83,02,027,,84,59,013,13,85,53,226,11,86,06,213,*64
$GNGLL,2218.66085,N,11410.14698,E,030711.00,A,A*70
$GNZDA,030711.00,18,05,2021,00,00*71
$GNVTG,318.61,T,,M,3.567,N,6.607,K,A*2E
$GNGGA,030712.00,2218.66106,N,11410.14662,E,1,08,1.42,-56.3,M,-1.7,M,,*40
$GNGSA,A,3,08,21,09,07,01,30,,,,,,,2.82,1.42,2.43*11
$GNGSA,A,3,73,74,,,,,,,,,,,2.82,1.42,2.43*11
$GPGSV,4,1,14,01,61,159,38,03,06,163,,04,09,186,10,07,71,295,37*70
$GPGSV,4,2,14,08,40,025,25,09,19,218,12,14,11,305,,16,10,093,09*79
$GPGSV,4,3,14,17,16,248,14,21,67,089,26,22,15,137,,27,12,045,*70
$GPGSV,4,4,14,28,01,296,,30,32,317,15*79
$GLGSV,2,1,08,73,47,104,27,74,57,012,10,75,12,331,,80,05,132,*67
$GLGSV,2,2,08,83,02,027,,84,59,013,14,85,53,226,09,86,06,213,*6A
$GNGLL,2218.66106,N,11410.14662,E,030712.00,A,A*7C
$GNZDA,030712.00,18,05,2021,00,00*72
$GNVTG,318.60,T,,M,3.547,N,6.569,K,A*26
$GNGGA,030713.00,2218.66109,N,11410.14634,E,1,09,1.68,-57.0,M,-1.7,M,,*46
$GNGSA,A,3,08,21,07,04,01,30,,,,,,,3.53,1.68,3.11*1F
$GNGSA,A,3,84,73,74,,,,,,,,,,3.53,1.68,3.11*1E
$GPGSV,4,1,14,01,61,159,39,03,06,163,,04,09,186,14,07,71,295,37*75
$GPGSV,4,2,14,08,40,025,25,09,19,218,13,14,11,305,,16,10,093,11*71
$GPGSV,4,3,14,17,16,248,,21,67,089,27,22,15,137,,27,12,045,*74
$GPGSV,4,4,14,28,01,297,,30,32,317,15*78
$GLGSV,2,1,08,73,47,104,27,74,57,012,10,75,12,331,,80,05,132,*67
$GLGSV,2,2,08,83,02,027,,84,59,013,14,85,53,226,08,86,06,213,*6B
$GNGLL,2218.66109,N,11410.14634,E,030713.00,A,A*71
$GNZDA,030713.00,18,05,2021,00,00*73
$GNVTG,318.59,T,,M,3.534,N,6.545,K,A*26
$GNGGA,030714.00,2218.66138,N,11410.14590,E,1,08,1.54,-57.7,M,-1.7,M,,*47
$GNGSA,A,3,08,21,07,04,01,30,,,,,,,2.51,1.54,1.98*10
$GNGSA,A,3,84,73,,,,,,,,,,,2.51,1.54,1.98*12
$GPGSV,4,1,14,01,61,159,38,03,06,163,,04,09,186,11,07,71,295,36*70
$GPGSV,4,2,14,08,40,025,25,09,19,218,13,14,11,305,,16,10,093,10*70
$GPGSV,4,3,14,17,16,248,16,21,67,089,27,22,15,137,,27,12,045,14*76
$GPGSV,4,4,14,28,01,297,,30,32,317,14*79
$GLGSV,2,1,08,73,47,104,27,74,57,012,08,75,12,331,,80,05,132,*6E
$GLGSV,2,2,08,83,02,027,,84,59,013,13,85,53,226,09,86,06,213,*6D
$GNGLL,2218.66138,N,11410.14590,E,030714.00,A,A*79
$GNZDA,030714.00,18,05,2021,00,00*74
$GNVTG,318.58,T,,M,3.518,N,6.515,K,A*2C
$GNGGA,030715.00,2218.66155,N,11410.14555,E,1,07,1.28,-58.4,M,-1.7,M,,*4C
$GNGSA,A,3,08,21,07,04,01,30,,,,,,,2.09,1.28,1.66*17
$GNGSA,A,3,73,,,,,,,,,,,,2.09,1.28,1.66*19
$GPGSV,4,1,14,01,61,159,38,03,06,163,,04,09,186,10,07,71,295,37*70
$GPGSV,4,2,14,08,40,025,24,09,19,218,12,14,11,305,19,16,10,093,12*7A
$GPGSV,4,3,14,17,16,248,,21,67,089,26,22,15,137,,27,12,045,13*77
$GPGSV,4,4,14,28,01,297,,30,32,317,14*79
$GLGSV,2,1,08,73,47,104,27,74,57,012,08,75,12,331,,80,05,132,*6E
$GLGSV,2,2,08,83,02,027,,84,59,013,10,85,53,226,08,86,06,213,*6F
$GNGLL,2218.66155,N,11410.14555,E,030715.00,A,A*7A
$GNZDA,030715.00,18,05,2021,00,00*75
$GNVTG,318.58,T,,M,3.498,N,6.479,K,A*2E
$GNGGA,030716.00,2218.66159,N,11410.14529,E,1,08,1.15,-59.2,M,-1.7,M,,*4E
$GNGSA,A,3,08,21,07,04,16,01,30,,,,,,1.69,1.15,1.24*1D
$GNGSA,A,3,73,,,,,,,,,,,,1.69,1.15,1.24*14
$GPGSV,4,1,14,01,61,159,39,03,06,163,,04,09,186,10,07,71,295,37*71
$GPGSV,4,2,14,08,40,025,24,09,19,218,12,14,11,305,16,16,10,093,09*7F
$GPGSV,4,3,14,17,16,248,17,21,67,089,26,22,15,137,,27,12,045,11*73
$GPGSV,4,4,14,28,01,297,,30,32,317,16*7B
$GLGSV,2,1,08,73,47,104,27,74,57,012,08,75,12,331,,80,05,132,*6E
$GLGSV,2,2,08,83,02,027,,84,59,013,10,85,53,226,08,86,06,213,*6F
$GNGLL,2218.66159,N,11410.14529,E,030716.00,A,A*7E
$GNZDA,030716.00,18,05,2021,00,00*76
$GNVTG,318.57,T,,M,3.479,N,6.442,K,A*26
$GNGGA,030717.00,2218.66166,N,11410.14505,E,1,09,1.49,-59.9,M,-1.7,M,,*4E
$GNGSA,A,3,08,21,09,07,04,16,01,30,,,,,2.86,1.49,2.44*1A
$GNGSA,A,3,73,,,,,,,,,,,,2.86,1.49,2.44*1A
$GPGSV,4,1,14,01,61,159,39,03,06,163,,04,09,186,11,07,71,295,37*70
$GPGSV,4,2,14,08,40,025,23,09,19,218,12,14,11,305,13,16,10,093,10*75
$GPGSV,4,3,14,17,16,248,,21,67,089,26,22,15,137,,27,12,045,11*75
$GPGSV,4,4,14,28,01,297,,30,32,317,16*7B
$GLGSV,2,1,08,73,47,104,27,74,57,012,09,75,12,331,,80,05,132,*6F
$GLGSV,2,2,08,83,02,027,,84,59,013,09,85,53,226,08,86,06,213,*67
$GNGLL,2218.66166,N,11410.14505,E,030717.00,A,A*7D
$GNZDA,030717.00,18,05,2021,00,00*77
$GNVTG,318.57,T,,M,3.459,N,6.407,K,A*25
$GNGGA,030718.00,2218.66173,N,11410.14480,E,1,09,1.06,-60.6,M,-1.7,M,,*47
$GNGSA,A,3,08,21,07,04,16,01,30,,,,,,1.61,1.06,1.21*12
$GNGSA,A,3,73,85,,,,,,,,,,,1.61,1.06,1.21*16
$GPGSV,4,1,14,01,61,159,39,03,06,163,,04,09,186,11,07,71,295,37*70
$GPGSV,4,2,14,08,40,025,22,09,19,218,10,14,11,305,14,16,10,093,11*70
$GPGSV,4,3,14,17,16,248,,21,67,089,26,22,15,137,,27,12,045,12*76
$GPGSV,4,4,14,28,01,297,,30,32,317,16*7B
$GLGSV,2,1,08,73,47,104,27,74,57,012,09,75,12,331,,80,05,132,*6F
$GLGSV,2,2,08,83,02,027,,84,59,013,09,85,53,226,11,86,06,213,*6F
$GNGLL,2218.66173,N,11410.14480,E,030718.00,A,A*7A
$GNZDA,030718.00,18,05,2021,00,00*78
$GNRMC,030719.00,A,2218.66201,N,11410.14439,E,3.446,318.57,180521,,,A*7A
$GNVTG,318.57,T,,M,3.446,N,6.383,K,A*20
$GNGGA,030719.00,2218.66201,N,11410.14439,E,1,09,1.06,-61.4,M,-1.7,M,,*41
$GNGSA,A,3,08,21,07,04,16,01,30,,,,,,1.61,1.06,1.21*12
$GNGSA,A,3,73,85,,,,,,,,,,,1.61,1.06,1.21*16
$GPGSV,4,1,14,01,61,159,38,03,06,163,,04,09,186,10,07,71,295,36*71
$GPGSV,4,2,14,08,40,025,21,09,19,218,09,14,11,305,13,16,10,093,15*78
$GPGSV,4,3,14,17,16,248,,21,67,089,26,22,15,137,,27,12,045,12*76
$GPGSV,4,4,14,28,01,297,,30,32,317,17*7A
$GLGSV,2,1,08,73,47,104,27,74,57,012,09,75,12,331,,80,05,132,*6F
$GLGSV,2,2,08,83,02,027,,84,59,013,09,85,53,226,15,86,06,213,*6B
$GNGLL,2218.66201,N,11410.14439,E,030719.00,A,A*7F
$GNZDA,030719.00,18,05,2021,00,00*79
$GNVTG,318.56,T,,M,3.434,N,6.360,K,A*29
$GNGGA,030720.00,2218.66229,N,11410.14396,E,1,09,1.46,-62.3,M,-1.7,M,,*43
$GNGSA,A,3,08,21,07,04,01,30,,,,,,,4.24,1.46,3.98*15
$GNGSA,A,3,73,74,85,,,,,,,,,,4.24,1.46,3.98*15
$GPGSV,4,1,14,01,61,159,38,03,06,163,,04,09,186,12,07,71,295,36*73
$GPGSV,4,2,14,08,40,025,20,09,19,218,12,14,11,305,13,16,10,093,08*7F
$GPGSV,4,3,14,17,16,248,17,21,67,089,26,22,15,137,,27,12,045,11*73
$GPGSV,4,4,14,28,01,297,,30,32,317,17*7A
$GLGSV,2,1,08,73,47,104,27,74,57,012,10,75,12,331,,80,05,132,*67
$GLGSV,2,2,08,83,02,027,,84,59,013,09,85,53,226,16,86,06,213,*68
$GNGLL,2218.66229,N,11410.14396,E,030720.00,A,A*7D
$GNZDA,030720.00,18,05,2021,00,00*73
$GNVTG,,,,,,,,,N*2E
$GNGGA,030721.00,,,,,0,10,1.27,,,,,,*4A
$GNGSA,A,1,08,21,07,04,16,01,30,,,,,,3.24,1.27,2.98*11
$GNGSA,A,1,73,74,85,,,,,,,,,,3.24,1.27,2.98*16
$GPGSV,4,1,14,01,61,159,38,03,06,163,,04,09,186,12,07,71,295,37*72
$GPGSV,4,2,14,08,40,025,20,09,19,218,12,14,11,305,10,16,10,093,14*71
$GPGSV,4,3,14,17,16,248,,21,67,089,26,22,15,137,,27,12,045,09*7C
$GPGSV,4,4,14,28,01,297,,30,32,317,16*7B
$GLGSV,2,1,08,73,47,104,26,74,57,012,13,75,12,331,,80,05,132,*65
$GLGSV,2,2,08,83,02,027,,84,59,013,08,85,53,226,16,86,06,213,*69
$GNGLL,,,,,030721.00,V,N*53
$GNZDA,030721.00,18,05,2021,00,00*72
$GNVTG,,,,,,,,,N*2E
$GNGGA,030722.00,,,,,0,10,1.11,,,,,,*4C
$GNGSA,A,1,08,21,09,07,16,01,30,,,,,,2.22,1.11,1.92*17
$GNGSA,A,1,73,74,85,,,,,,,,,,2.22,1.11,1.92*1D
$GPGSV,4,1,14,01,61,159,38,03,06,163,,04,09,186,08,07,71,295,37*79
$GPGSV,4,2,14,08,40,025,21,09,19,218,11,14,11,305,10,16,10,093,10*77
$GPGSV,4,3,14,17,16,248,,21,67,089,27,22,15,137,,27,12,045,08*7C
$GPGSV,4,4,14,28,01,297,,30,32,317,16*7B
$GLGSV,2,1,08,73,47,104,26,74,57,012,12,75,12,331,,80,05,132,*64
$GLGSV,2,2,08,83,02,027,,84,59,013,10,85,53,226,15,86,06,213,*63
$GNGLL,,,,,030722.00,V,N*50
$GNZDA,030722.00,18,05,2021,00,00*71
$ɤAl??
$GNVTG,318.56,T,,M,3.427,N,6.346,K,A*2F
$GNGGA,030723.00,2218.61668,N,11410.15210,E,1,10,1.27,-12.7,M,-1.7,M,,*44
$GNGSA,A,3,08,21,07,04,16,01,30,,,,,,3.24,1.27,2.98*13
$GNGSA,A,3,73,74,85,,,,,,,,,,3.24,1.27,2.98*14
$GPGSV,4,1,14,01,61,159,38,03,06,163,,04,09,186,10,07,71,295,37*70
$GPGSV,4,2,14,08,40,025,20,09,19,218,09,14,11,305,09,16,10,093,12*75
$GPGSV,4,3,14,17,16,248,16,21,67,089,27,22,15,137,,27,12,045,09*7A
$GPGSV,4,4,14,28,01,297,,30,32,317,17*7A
$GLGSV,2,1,08,73,47,104,25,74,57,012,12,75,12,331,,80,05,132,*67
$GLGSV,2,2,08,83,02,027,,84,59,013,12,85,53,226,15,86,06,213,*61
$GNGLL,2218.61668,N,11410.15210,E,030723.00,A,A*76
$GNZDA,030723.00,18,05,2021,00,00*70
$GNRMC,030724.00,A,2218.61590,N,11410.15172,E,3.422,318.56,180521,,,A*74
$GNVTG,318.56,T,,M,3.422,N,6.337,K,A*2C
$GNGGA,030724.00,2218.61590,N,11410.15172,E,1,10,1.27,-12.8,M,-1.7,M,,*4F
$GNGSA,A,3,08,21,07,04,16,01,30,,,,,,3.24,1.27,2.98*13
$GNGSA,A,3,73,74,85,,,,,,,,,,3.24,1.27,2.98*14
$GPGSV,4,1,14,01,61,159,43,03,06,163,22,04,09,186,11,07,71,295,42*7F
$GPGSV,4,2,14,08,40,025,20,09,19,218,09,14,11,305,10,16,10,093,09*77
$GPGSV,4,3,14,17,16,248,,21,67,089,28,22,15,137,,27,12,045,10*7A
$GPGSV,4,4,14,28,01,297,,30,32,317,18*75
$GLGSV,2,1,08,73,47,104,24,74,57,012,12,75,12,331,,80,05,132,*66
$GLGSV,2,2,08,83,02,027,,84,59,013,11,85,53,226,14,86,06,213,*63
$GNGLL,2218.61590,N,11410.15172,E,030724.00,A,A*72
$GNZDA,030724.00,18,05,2021,00,00*77
$GNVTG,318.57,T,,M,3.418,N,6.330,K,A*23
$GNGGA,030725.00,2218.61680,N,11410.15405,E,1,12,1.11,5.4,M,-1.7,M,,*59
$GNGSA,A,3,08,21,09,07,04,16,01,30,,,,,2.22,1.11,1.92*11
$GNGSA,A,3,84,73,74,85,,,,,,,,,2.22,1.11,1.92*13
$GPGSV,4,1,14,01,61,159,41,03,06,163,,04,09,186,11,07,71,295,41*7E
$GPGSV,4,2,14,08,40,025,21,09,19,218,14,14,11,305,10,16,10,093,10*72
$GPGSV,4,3,14,17,16,248,,21,67,089,31,22,15,137,,27,12,045,12*70
$GPGSV,4,4,14,28,01,297,,30,32,317,19*74
$GLGSV,2,1,08,73,47,104,23,74,57,012,14,75,12,331,,80,05,132,*67
$GLGSV,2,2,08,83,02,027,,84,59,013,11,85,53,226,15,86,06,213,*62
$GNGLL,2218.61680,N,11410.15405,E,030725.00,A,A*74
$GNZDA,030725.00,18,05,2021,00,00*76
$GNVTG,318.58,T,,M,3.414,N,6.322,K,A*23
$GNGGA,030726.00,2218.61740,N,11410.15521,E,1,12,1.11,16.2,M,-1.7,M,,*64
$GNGSA,A,3,08,21,09,07,04,16,01,30,,,,,2.22,1.11,1.92*11
$GNGSA,A,3,84,73,74,85,,,,,,,,,2.22,1.11,1.92*13
$GPGSV,4,1,14,01,61,159,41,03,06,163,,04,09,186,10,07,71,295,41*7F
$GPGSV,4,2,14,08,40,025,20,09,19,218,15,14,11,305,,16,10,093,13*70
$GPGSV,4,3,14,17,16,248,,21,67,089,31,22,15,137,,27,12,045,13*71
$GPGSV,4,4,14,28,01,297,,30,32,317,20*7E
$GLGSV,2,1,08,73,47,104,22,74,57,012,12,75,12,331,,80,05,132,*60
$GLGSV,2,2,08,83,02,027,,84,59,013,12,85,53,226,13,86,06,213,*67
$GNGLL,2218.61740,N,11410.15521,E,030726.00,A,A*7D
$GNZDA,030726.00,18,05,2021,00,00*75
$GNRMC,030727.00,A,2218.61817,N,11410.15551,E,3.412,318.59,180521,,,A*7C
$GNVTG,318.59,T,,M,3.412,N,6.318,K,A*2D
$GNGGA,030727.00,2218.61817,N,11410.15551,E,1,12,1.11,24.7,M,-1.7,M,,*6B
$GNGSA,A,3,08,21,27,09,07,04,16,01,30,,,,2.22,1.11,1.92*14
$GNGSA,A,3,73,74,85,,,,,,,,,,2.22,1.11,1.92*1F
$GPGSV,4,1,14,01,61,159,37,03,06,163,,04,09,186,09,07,71,295,36*76
$GPGSV,4,2,14,08,40,025,23,09,19,218,14,14,11,305,,16,10,093,10*71
$GPGSV,4,3,14,17,16,248,,21,67,089,27,22,15,137,,27,12,045,11*74
$GPGSV,4,4,14,28,01,297,,30,32,317,20*7E
$GLGSV,2,1,08,73,47,104,25,74,57,012,19,75,12,331,,80,05,132,*6C
$GLGSV,2,2,08,83,02,027,,84,59,013,08,85,53,226,14,86,06,213,*6B
$GNGLL,2218.61817,N,11410.15551,E,030727.00,A,A*76
$GNZDA,030727.00,18,05,2021,00,00*74
$GNVTG,318.60,T,,M,3.410,N,6.315,K,A*28
$GNGGA,030728.00,2218.61897,N,11410.15560,E,1,12,1.09,30.8,M,-1.7,M,,*6D
$GNGSA,A,3,08,21,09,07,04,16,01,30,,,,,2.20,1.09,1.91*19
$GNGSA,A,3,84,73,74,85,,,,,,,,,2.20,1.09,1.91*1B
$GPGSV,4,1,14,01,61,159,36,03,06,163,,04,09,186,10,07,71,295,36*7F
$GPGSV,4,2,14,08,40,025,21,09,19,218,13,14,11,305,,16,10,093,11*75
$GPGSV,4,3,14,17,16,248,,21,67,089,27,22,15,137,,27,12,045,09*7D
$GPGSV,4,4,14,28,01,297,,30,32,317,18*75
$GLGSV,2,1,08,73,47,104,25,74,57,012,15,75,12,331,,80,05,132,*60
$GLGSV,2,2,08,83,02,027,,84,59,013,13,85,53,226,17,86,06,213,*62
$GNGLL,2218.61897,N,11410.15560,E,030728.00,A,A*73
$GNZDA,030728.00,18,05,2021,00,00*7B
$GNVTG,318.60,T,,M,3.407,N,6.310,K,A*2B
$GNGGA,030729.00,2218.61921,N,11410.15560,E,1,11,1.09,35.9,M,-1.7,M,,*67
$GNGSA,A,3,08,21,09,07,04,16,01,30,,,,,2.20,1.09,1.91*19
$GNGSA,A,3,73,74,85,,,,,,,,,,2.20,1.09,1.91*17
$GPGSV,4,1,14,01,61,159,40,03,06,163,,04,09,186,12,07,71,295,38*72
$GPGSV,4,2,14,08,40,025,28,09,19,218,15,14,11,305,,16,10,093,09*73
$GPGSV,4,3,14,17,16,248,,21,67,089,25,22,15,137,,27,12,045,09*7F
$GPGSV,4,4,14,28,01,297,,30,32,317,18*75
$GLGSV,2,1,08,73,47,104,24,74,57,012,19,75,12,331,,80,05,132,*6D
$GLGSV,2,2,08,83,02,027,,84,59,013,08,85,53,226,16,86,06,213,*69
$GNGLL,2218.61921,N,11410.15560,E,030729.00,A,A*7E
$GNZDA,030729.00,18,05,2021,00,00*7A
$GNVTG,318.60,T,,M,3.406,N,6.307,K,A*2C
$GNGGA,030730.00,2218.62000,N,11410.15625,E,1,12,1.09,43.0,M,-1.7,M,,*6F
$GNGSA,A,3,08,21,27,09,07,04,16,01,30,,,,2.20,1.09,1.91*1C
$GNGSA,A,3,84,73,74,85,,,,,,,,,2.20,1.09,1.91*1B
$GPGSV,4,1,14,01,61,159,38,03,06,163,,04,09,186,12,07,71,295,39*7C
$GPGSV,4,2,14,08,40,025,25,09,19,218,17,14,11,305,,16,10,093,13*77
$GPGSV,4,3,14,17,16,248,18,21,67,089,26,22,15,137,,27,12,045,11*7C
$GPGSV,4,4,14,28,01,297,,30,32,317,20*7E
$GLGSV,2,1,08,73,47,104,30,74,57,012,21,75,12,331,,80,05,132,*63
$GLGSV,2,2,08,83,02,027,,84,59,013,09,85,53,226,18,86,06,213,*66
$GNGLL,2218.62000,N,11410.15625,E,030730.00,A,A*7D
$GNZDA,030730.00,18,05,2021,00,00*72
$GNVTG,318.61,T,,M,3.404,N,6.304,K,A*2C
$GNGGA,030731.00,2218.62075,N,11410.15653,E,1,12,1.07,47.2,M,-1.7,M,,*65
$GNGSA,A,3,08,21,27,09,07,04,16,01,30,,,,2.18,1.07,1.90*18
$GNGSA,A,3,84,73,74,85,,,,,,,,,2.18,1.07,1.90*1F
$GPGSV,4,1,14,01,61,159,38,03,06,163,,04,09,186,10,07,71,295,39*7E
$GPGSV,4,2,14,08,40,025,26,09,19,218,17,14,11,305,,16,10,093,13*74
$GPGSV,4,3,14,17,16,248,,21,67,089,25,22,15,137,,27,12,045,12*75
$GPGSV,4,4,14,28,01,297,,30,32,317,20*7E
$GLGSV,2,1,08,73,47,104,23,74,57,012,21,75,12,331,,80,05,132,*61
$GLGSV,2,2,08,83,02,027,,84,59,013,12,85,53,226,19,86,06,213,*6D
$GNGLL,2218.62075,N,11410.15653,E,030731.00,A,A*7F
$GNZDA,030731.00,18,05,2021,00,00*73
$GNVTG,318.61,T,,M,3.403,N,6.303,K,A*2C
$GNGGA,030732.00,2218.62164,N,11410.15644,E,1,12,1.07,50.6,M,-1.7,M,,*63
$GNGSA,A,3,08,21,27,09,07,04,16,01,30,,,,2.18,1.07,1.90*18
$GNGSA,A,3,84,73,74,85,,,,,,,,,2.18,1.07,1.90*1F
$GPGSV,4,1,14,01,61,159,32,03,06,163,24,04,09,186,09,07,71,295,37*74
$GPGSV,4,2,14,08,40,025,24,09,19,218,16,14,11,305,,16,10,093,09*7C
$GPGSV,4,3,14,17,16,248,,21,67,089,23,22,15,137,,27,12,045,12*73
$GPGSV,4,4,14,28,01,297,,30,32,317,21*7F
$GLGSV,2,1,08,73,47,104,24,74,57,012,20,75,12,331,,80,05,132,*67
$GLGSV,2,2,08,83,02,027,,84,59,013,15,85,53,226,19,86,06,213,*6A
$GNGLL,2218.62164,N,11410.15644,E,030732.00,A,A*7B
$GNZDA,030732.00,18,05,2021,00,00*70
$GNVTG,318.61,T,,M,3.402,N,6.300,K,A*2E
$GNGGA,030733.00,2218.62247,N,11410.15625,E,1,10,1.07,52.9,M,-1.7,M,,*68
$GNGSA,A,3,08,21,09,07,01,30,,,,,,,2.18,1.07,1.90*1E
$GNGSA,A,3,84,73,74,85,,,,,,,,,2.18,1.07,1.90*1F
$GPGSV,4,1,14,01,61,159,35,03,06,163,20,04,09,186,08,07,71,295,37*76
$GPGSV,4,2,14,08,40,025,25,09,19,218,15,14,11,305,,16,10,093,07*70
$GPGSV,4,3,14,17,16,248,,21,67,089,24,22,15,137,,27,12,045,09*7E
$GPGSV,4,4,14,28,01,297,,30,32,317,21*7F
$GLGSV,2,1,08,73,47,104,23,74,57,012,20,75,12,331,,80,05,132,*60
$GLGSV,2,2,08,83,02,027,,84,59,013,10,85,53,226,19,86,06,213,*6F
$GNGLL,2218.62247,N,11410.15625,E,030733.00,A,A*7F
$GNZDA,030733.00,18,05,2021,00,00*71
$GNVTG,318.62,T,,M,3.400,N,6.298,K,A*2F
$GNGGA,030734.00,2218.62311,N,11410.15588,E,1,12,1.07,53.2,M,-1.7,M,,*61
$GNGSA,A,3,08,21,09,07,04,16,01,30,,,,,2.18,1.07,1.90*1D
$GNGSA,A,3,84,73,74,85,,,,,,,,,2.18,1.07,1.90*1F
$GPGSV,4,1,14,01,61,159,35,03,06,163,,04,09,186,12,07,71,295,41*7E
$GPGSV,4,2,14,08,40,025,23,09,19,218,15,14,11,305,,16,10,093,12*72
$GPGSV,4,3,14,17,16,248,,21,67,089,22,22,15,137,,27,12,045,10*70
$GPGSV,4,4,14,28,01,297,,30,32,317,20*7E
$GLGSV,2,1,08,73,47,104,24,74,57,012,19,75,12,331,,80,05,132,*6D
$GLGSV,2,2,08,83,02,027,,84,59,013,10,85,53,226,17,86,06,213,*61
$GNGLL,2218.62311,N,11410.15588,E,030734.00,A,A*7E
$GNZDA,030734.00,18,05,2021,00,00*76
$GNVTG,318.62,T,,M,3.399,N,6.296,K,A*26
$GNGGA,030735.00,2218.62373,N,11410.15550,E,1,11,1.30,54.4,M,-1.7,M,,*67
$GNGSA,A,3,08,21,27,09,07,04,16,01,,,,,2.38,1.30,2.00*17
$GNGSA,A,3,73,74,85,,,,,,,,,,2.38,1.30,2.00*1F
$GPGSV,4,1,15,01,61,159,36,03,06,163,,04,09,186,12,07,71,295,38*72
$GPGSV,4,2,15,08,40,025,23,09,19,218,15,11,,,29,14,11,305,*47
$GPGSV,4,3,15,16,10,093,09,17,16,248,,21,67,089,21,22,15,137,*71
$GPGSV,4,4,15,27,12,045,13,28,01,297,,30,32,317,*48
$GLGSV,2,1,08,73,47,104,24,74,57,012,19,75,12,331,,80,05,132,*6D
$GLGSV,2,2,08,83,02,027,,84,59,013,08,85,53,226,14,86,06,213,*6B
$GNGLL,2218.62373,N,11410.15550,E,030735.00,A,A*7E
$GNZDA,030735.00,18,05,2021,00,00*77
$GNVTG,318.62,T,,M,3.398,N,6.294,K,A*25
$GNGGA,030736.00,2218.62455,N,11410.15536,E,1,11,1.13,57.6,M,-1.7,M,,*67
$GNGSA,A,3,08,21,27,09,07,04,16,01,,,,,1.68,1.13,1.25*14
$GNGSA,A,3,73,74,85,,,,,,,,,,1.68,1.13,1.25*1C
$GPGSV,4,1,15,01,61,159,33,03,06,163,,04,09,186,10,07,71,295,33*7E
$GPGSV,4,2,15,08,40,025,21,09,19,218,15,11,,,18,14,11,305,*47
$GPGSV,4,3,15,16,10,093,10,17,16,248,16,21,67,089,20,22,15,137,*7F
$GPGSV,4,4,15,27,12,045,14,28,01,297,22,30,32,317,19*47
$GLGSV,2,1,08,73,47,105,21,74,57,012,18,75,12,331,,80,05,132,*68
$GLGSV,2,2,08,83,02,027,,84,59,013,08,85,53,226,10,86,06,213,*6F
$GNGLL,2218.62455,N,11410.15536,E,030736.00,A,A*7E
$GNZDA,030736.00,18,05,2021,00,00*74
$GNVTG,318.62,T,,M,3.396,N,6.289,K,A*27
$GNGGA,030737.00,2218.62517,N,11410.15534,E,1,11,1.35,60.0,M,-1.7,M,,*65
$GNGSA,A,3,08,21,27,09,07,04,16,01,,,,,2.50,1.35,2.11*1C
$GNGSA,A,3,84,73,74,,,,,,,,,,2.50,1.35,2.11*15
$GPGSV,4,1,15,01,61,159,36,03,06,163,,04,09,186,14,07,71,295,38*74
$GPGSV,4,2,15,08,40,025,19,09,19,218,17,11,,,16,14,11,305,*40
$GPGSV,4,3,15,16,10,093,09,17,16,248,,21,67,089,23,22,15,137,*73
$GPGSV,4,4,15,27,12,045,15,28,01,297,18,30,32,317,17*41
$GLGSV,2,1,08,73,47,105,20,74,57,012,15,75,12,331,,80,05,132,*64
$GLGSV,2,2,08,83,02,027,,84,59,013,11,85,53,226,09,86,06,213,*6F
$GNGLL,2218.62517,N,11410.15534,E,030737.00,A,A*7A
$GNZDA,030737.00,18,05,2021,00,00*75
$GNVTG,318.63,T,,M,3.393,N,6.285,K,A*2F
$GNGGA,030738.00,2218.62575,N,11410.15528,E,1,11,1.35,61.6,M,-1.7,M,,*64
$GNGSA,A,3,08,21,27,09,07,04,16,01,,,,,2.50,1.35,2.11*1C
$GNGSA,A,3,84,73,74,,,,,,,,,,2.50,1.35,2.11*15
$GPGSV,4,1,15,01,61,159,36,03,06,163,,04,09,186,09,07,71,295,39*79
$GPGSV,4,2,15,08,40,025,17,09,19,218,17,11,,,15,14,11,305,*4D
$GPGSV,4,3,15,16,10,093,09,17,16,248,,21,67,089,25,22,15,137,*75
$GPGSV,4,4,15,27,12,045,13,28,01,297,15,30,32,317,14*49
$GLGSV,2,1,08,73,47,105,21,74,57,012,16,75,13,331,,80,05,132,*67
$GLGSV,2,2,08,83,02,027,,84,59,013,10,85,53,226,08,86,06,213,*6F
$GNGLL,2218.62575,N,11410.15528,E,030738.00,A,A*7C
$GNZDA,030738.00,18,05,2021,00,00*7A
$GNVTG,318.63,T,,M,3.391,N,6.280,K,A*28
$GNGGA,030739.00,2218.62631,N,11410.15515,E,1,11,1.30,62.8,M,-1.7,M,,*60
$GNGSA,A,3,08,21,27,09,07,16,01,,,,,,2.38,1.30,2.00*13
$GNGSA,A,3,84,73,74,85,,,,,,,,,2.38,1.30,2.00*13
$GPGSV,4,1,15,01,61,159,36,03,06,163,,04,09,186,08,07,71,295,39*78
$GPGSV,4,2,15,08,40,025,17,09,19,218,18,11,,,12,14,11,305,*45
$GPGSV,4,3,15,16,10,093,09,17,16,248,,21,67,089,23,22,15,137,*73
$GPGSV,4,4,15,27,12,045,12,28,01,297,11,30,32,317,14*4C
$GLGSV,2,1,08,73,47,105,23,74,57,012,17,75,13,331,,80,05,132,*64
$GLGSV,2,2,08,83,02,027,,84,59,013,10,85,53,226,14,86,06,213,*62
$GNGLL,2218.62631,N,11410.15515,E,030739.00,A,A*70
$GNZDA,030739.00,18,05,2021,00,00*7B
$GNVTG,318.63,T,,M,3.389,N,6.276,K,A*28
$GNGGA,030740.00,2218.62705,N,11410.15484,E,1,12,1.09,61.6,M,-1.7,M,,*65
$GNGSA,A,3,08,21,09,07,04,16,01,30,,,,,2.19,1.09,1.90*12
$GNGSA,A,3,84,73,74,85,,,,,,,,,2.19,1.09,1.90*10
$GPGSV,4,1,15,01,61,159,37,03,06,163,,04,09,186,11,07,71,295,38*70
$GPGSV,4,2,15,08,40,025,28,09,19,218,20,11,,,11,14,11,305,*41
$GPGSV,4,3,15,16,10,093,11,17,16,248,,21,67,089,25,22,15,137,*7C
$GPGSV,4,4,15,27,12,045,09,28,01,297,12,30,32,317,16*47
$GLGSV,2,1,08,73,47,105,23,74,57,012,20,75,13,331,,80,05,132,*60
$GLGSV,2,2,08,83,02,027,,84,59,013,13,85,53,226,14,86,06,213,*61
$GNGLL,2218.62705,N,11410.15484,E,030740.00,A,A*71
$GNZDA,030740.00,18,05,2021,00,00*75
$GNVTG,318.64,T,,M,3.386,N,6.271,K,A*27
$GNGGA,030741.00,2218.62756,N,11410.15472,E,1,12,1.09,60.5,M,-1.7,M,,*69
$GNGSA,A,3,08,21,09,07,04,16,01,30,,,,,2.19,1.09,1.90*12
$GNGSA,A,3,84,73,74,85,,,,,,,,,2.19,1.09,1.90*10
$GPGSV,4,1,15,01,61,159,38,03,06,163,,04,09,186,13,07,71,295,40*72
$GPGSV,4,2,15,08,40,025,27,09,19,218,19,11,,,10,14,11,305,*45
$GPGSV,4,3,15,16,10,093,09,17,16,248,,21,67,089,23,22,15,137,*73
$GPGSV,4,4,15,27,12,045,08,28,01,297,12,30,32,317,17*47
$GLGSV,2,1,08,73,47,105,25,74,57,012,21,75,13,331,,80,05,132,*67
$GLGSV,2,2,08,83,02,027,,84,59,013,11,85,53,226,14,86,06,213,*63
$GNGLL,2218.62756,N,11410.15472,E,030741.00,A,A*7F
$GNZDA,030741.00,18,05,2021,00,00*74
$GNVTG,318.64,T,,M,3.384,N,6.268,K,A*2D
$GNGGA,030742.00,2218.62813,N,11410.15432,E,1,12,0.96,60.3,M,-1.7,M,,*61
$GNGSA,A,3,08,21,09,07,04,16,01,30,,,,,1.71,0.96,1.41*14
$GNGSA,A,3,84,73,74,85,,,,,,,,,1.71,0.96,1.41*16
$GPGSV,4,1,15,01,61,159,38,03,06,163,,04,09,186,09,07,71,295,35*7B
$GPGSV,4,2,15,08,40,025,25,09,19,218,19,11,,,09,14,11,305,*4F
$GPGSV,4,3,15,16,10,093,09,17,16,248,16,21,67,089,22,22,15,137,*75
$GPGSV,4,4,15,27,12,045,09,28,01,297,10,30,32,317,18*4B
$GLGSV,2,1,08,73,47,105,29,74,57,012,23,75,13,331,,80,05,132,*69
$GLGSV,2,2,08,83,02,027,,84,59,013,14,85,53,226,11,86,06,213,*63
$GNGLL,2218.62813,N,11410.15432,E,030742.00,A,A*76
$GNZDA,030742.00,18,05,2021,00,00*77
$GNVTG,318.64,T,,M,3.382,N,6.263,K,A*20
$GNGGA,030743.00,2218.62851,N,11410.15419,E,1,11,1.06,60.3,M,-1.7,M,,*64
$GNGSA,A,3,08,21,09,07,04,16,01,30,,,,,1.85,1.06,1.51*16
$GNGSA,A,3,84,73,74,,,,,,,,,,1.85,1.06,1.51*19
$GPGSV,4,1,15,01,61,159,39,03,06,163,,04,09,186,12,07,71,295,39*7C
$GPGSV,4,2,15,08,40,025,26,09,19,218,21,11,,,10,14,11,305,*4F
$GPGSV,4,3,15,16,10,093,09,17,16,248,,21,67,089,23,22,15,137,*73
$GPGSV,4,4,15,27,12,045,09,28,01,297,09,30,32,317,20*48
$GLGSV,2,1,08,73,47,105,21,74,57,012,22,75,13,331,,80,05,132,*60
$GLGSV,2,2,08,83,02,027,,84,59,013,11,85,53,226,08,86,06,213,*6E
$GNGLL,2218.62851,N,11410.15419,E,030743.00,A,A*78
$GNZDA,030743.00,18,05,2021,00,00*76
$GNVTG,318.65,T,,M,3.378,N,6.255,K,A*21
$GNGGA,030744.00,2218.62870,N,11410.15391,E,1,10,1.05,59.2,M,-1.7,M,,*6E
$GNGSA,A,3,08,21,09,07,04,01,30,,,,,,1.82,1.05,1.48*1D
$GNGSA,A,3,84,73,74,,,,,,,,,,1.82,1.05,1.48*15
$GPGSV,4,1,15,01,61,159,40,03,06,163,,04,09,186,10,07,71,295,42*7C
$GPGSV,4,2,15,08,40,025,30,09,19,218,19,11,,,09,14,11,305,*4B
$GPGSV,4,3,15,16,10,093,08,17,16,248,,21,67,089,22,22,15,137,*73
$GPGSV,4,4,15,27,12,045,11,28,01,297,09,30,32,317,20*41
$GLGSV,2,1,08,73,47,105,29,74,57,012,25,75,13,331,,80,05,132,*6F
$GLGSV,2,2,08,83,02,027,,84,59,013,18,85,53,226,09,86,06,213,*66
$GNGLL,2218.62870,N,11410.15391,E,030744.00,A,A*7B
$GNZDA,030744.00,18,05,2021,00,00*71
$GNVTG,318.66,T,,M,3.376,N,6.252,K,A*2B
$GNGGA,030745.00,2218.62905,N,11410.15357,E,1,12,0.95,59.3,M,-1.7,M,,*6D
$GNGSA,A,3,08,21,09,07,04,16,01,30,,,,,1.68,0.95,1.39*10
$GNGSA,A,3,84,73,74,85,,,,,,,,,1.68,0.95,1.39*12
$GPGSV,4,1,15,01,61,159,40,03,06,163,,04,09,186,11,07,71,295,37*7F
$GPGSV,4,2,15,08,40,025,25,09,19,218,19,11,,,08,14,11,305,*4E
$GPGSV,4,3,15,16,10,093,13,17,16,248,,21,67,089,23,22,15,137,*78
$GPGSV,4,4,15,27,12,045,11,28,01,297,10,30,32,317,21*48
$GLGSV,2,1,08,73,47,105,27,74,57,012,27,75,13,331,,80,05,132,*63
$GLGSV,2,2,08,83,02,027,,84,59,013,18,85,53,226,12,86,06,213,*6C
$GNGLL,2218.62905,N,11410.15357,E,030745.00,A,A*73
$GNZDA,030745.00,18,05,2021,00,00*70
$GNVTG,318.67,T,,M,3.376,N,6.253,K,A*2B
$GNGGA,030746.00,2218.62967,N,11410.15325,E,1,12,0.95,58.5,M,-1.7,M,,*68
$GNGSA,A,3,08,21,09,07,04,16,01,30,,,,,1.68,0.95,1.39*10
$GNGSA,A,3,84,73,74,85,,,,,,,,,1.68,0.95,1.39*12
$GPGSV,4,1,15,01,61,159,42,03,06,163,,04,09,186,09,07,71,295,30*73
$GPGSV,4,2,15,08,40,025,31,09,19,218,18,11,,,08,14,11,305,*4A
$GPGSV,4,3,15,16,10,093,10,17,16,248,,21,67,089,24,22,15,137,*7C
$GPGSV,4,4,15,27,12,045,11,28,01,297,09,30,32,317,21*40
$GLGSV,2,1,08,73,47,105,25,74,57,012,35,75,13,331,,80,05,132,*62
$GLGSV,2,2,08,83,02,027,,84,59,013,25,85,53,226,12,86,06,213,*62
$GNGLL,2218.62967,N,11410.15325,E,030746.00,A,A*71
$GNZDA,030746.00,18,05,2021,00,00*73
$GNVTG,318.70,T,,M,3.378,N,6.256,K,A*26
$GNGGA,030747.00,2218.63042,N,11410.15298,E,1,12,0.95,57.6,M,-1.7,M,,*6D
$GNGSA,A,3,08,21,09,07,04,16,01,30,,,,,1.68,0.95,1.39*10
$GNGSA,A,3,84,73,74,85,,,,,,,,,1.68,0.95,1.39*12
$GPGSV,4,1,14,01,61,159,43,03,06,163,,04,09,186,11,07,71,295,29*72
$GPGSV,4,2,14,08,40,025,26,09,19,218,17,14,11,305,,16,10,093,09*7F
$GPGSV,4,3,14,17,16,248,,21,67,089,24,22,15,137,,27,12,045,14*72
$GPGSV,4,4,14,28,01,297,09,30,32,317,21*76
$GLGSV,2,1,08,73,47,105,23,74,57,012,35,75,13,331,,80,05,132,*64
$GLGSV,2,2,08,83,02,027,,84,58,013,25,85,53,226,15,86,06,213,*64
$GNGLL,2218.63042,N,11410.15298,E,030747.00,A,A*78
$GNZDA,030747.00,18,05,2021,00,00*72
$GNVTG,318.73,T,,M,3.379,N,6.259,K,A*2B
$GNGGA,030748.00,2218.63131,N,11410.15278,E,1,12,0.95,57.2,M,-1.7,M,,*6D
$GNGSA,A,3,08,21,09,07,04,16,01,30,,,,,1.68,0.95,1.39*10
$GNGSA,A,3,84,73,74,85,,,,,,,,,1.68,0.95,1.39*12
$GPGSV,4,1,14,01,61,159,39,03,06,163,,04,09,186,11,07,71,295,28*7E
$GPGSV,4,2,14,08,40,025,26,09,19,218,17,14,11,305,,16,10,093,12*75
$GPGSV,4,3,14,17,16,248,18,21,67,089,24,22,15,137,,27,12,045,14*7B
$GPGSV,4,4,14,28,01,297,10,30,32,317,22*7D
$GLGSV,2,1,08,73,47,105,23,74,57,012,33,75,13,331,,80,05,132,*62
$GLGSV,2,2,08,83,02,027,,84,58,013,25,85,53,227,17,86,06,213,*67
$GNGLL,2218.63131,N,11410.15278,E,030748.00,A,A*7C
$GNZDA,030748.00,18,05,2021,00,00*7D
$GNVTG,318.77,T,,M,3.382,N,6.263,K,A*22
$GNGGA,030749.00,2218.63296,N,11410.15352,E,1,12,0.95,57.6,M,-1.7,M,,*6F
$GNGSA,A,3,08,21,09,07,04,16,01,30,,,,,1.68,0.95,1.39*10
$GNGSA,A,3,84,73,74,85,,,,,,,,,1.68,0.95,1.39*12
$GPGSV,4,1,14,01,61,159,38,03,06,163,,04,09,186,09,07,71,295,33*7C
$GPGSV,4,2,14,08,40,025,25,09,19,218,15,14,11,305,,16,10,093,11*77
$GPGSV,4,3,14,17,16,248,,21,67,089,21,22,15,137,,27,12,045,11*72
$GPGSV,4,4,14,28,01,297,09,30,32,317,20*77
$GLGSV,2,1,08,73,47,105,23,74,57,012,33,75,13,331,,80,05,132,*62
$GLGSV,2,2,08,83,02,027,,84,58,013,26,85,53,227,20,86,06,213,*60
$GNGLL,2218.63296,N,11410.15352,E,030749.00,A,A*7A
$GNZDA,030749.00,18,05,2021,00,00*7C
$GNVTG,318.82,T,,M,3.385,N,6.269,K,A*25
$GNGGA,030750.00,2218.63412,N,11410.15345,E,1,11,1.05,56.6,M,-1.7,M,,*61
$GNGSA,A,3,08,21,09,07,04,01,30,,,,,,1.80,1.05,1.47*10
$GNGSA,A,3,84,73,74,85,,,,,,,,,1.80,1.05,1.47*15
$GPGSV,4,1,14,01,61,159,37,03,06,163,,04,09,186,11,07,71,295,35*7C
$GPGSV,4,2,14,08,40,025,23,09,19,218,12,14,11,305,,16,10,093,*76
$GPGSV,4,3,14,17,16,248,,21,67,089,33,22,15,137,,27,12,045,09*78
$GPGSV,4,4,14,28,01,297,09,30,32,317,19*7D
$GLGSV,2,1,08,73,47,105,23,74,57,012,34,75,13,331,,80,05,132,*65
$GLGSV,2,2,08,83,02,027,,84,58,013,26,85,53,227,21,86,06,213,*61
$GNGLL,2218.63412,N,11410.15345,E,030750.00,A,A*7E
$GNZDA,030750.00,18,05,2021,00,00*74
$GNVTG,318.88,T,,M,3.388,N,6.275,K,A*2F
$GNGGA,030751.00,2218.63533,N,11410.15343,E,1,10,1.21,55.7,M,-1.7,M,,*61
$GNGSA,A,3,08,21,07,04,01,30,,,,,,,3.08,1.21,2.83*16
$GNGSA,A,3,84,73,74,85,,,,,,,,,3.08,1.21,2.83*1A
$GPGSV,4,1,14,01,61,159,37,03,06,163,,04,09,186,12,07,71,295,31*7B
$GPGSV,4,2,14,08,40,025,21,09,19,218,09,14,11,305,,16,10,093,*7E
$GPGSV,4,3,14,17,16,248,,21,67,089,33,22,15,137,,27,12,045,08*79
$GPGSV,4,4,14,28,01,297,08,30,32,317,19*7C
$GLGSV,2,1,08,73,47,105,24,74,57,012,34,75,13,331,,80,05,132,*62
$GLGSV,2,2,08,83,02,027,,84,58,013,26,85,53,227,22,86,06,213,*62
$GNGLL,2218.63533,N,11410.15343,E,030751.00,A,A*7B
$GNZDA,030751.00,18,05,2021,00,00*75
$GNVTG,318.94,T,,M,3.391,N,6.279,K,A*26
$GNGGA,030752.00,2218.63634,N,11410.15315,E,1,10,1.21,55.0,M,-1.7,M,,*62
$GNGSA,A,3,08,21,07,04,01,30,,,,,,,3.08,1.21,2.83*16
$GNGSA,A,3,84,73,74,85,,,,,,,,,3.08,1.21,2.83*1A
$GPGSV,4,1,14,01,61,158,37,03,06,163,,04,09,186,09,07,71,295,26*76
$GPGSV,4,2,14,08,40,025,20,09,19,218,08,14,11,305,,16,10,093,*7E
$GPGSV,4,3,14,17,16,248,,21,67,089,34,22,15,137,,27,12,045,09*7F
$GPGSV,4,4,14,28,01,297,08,30,32,317,20*76
$GLGSV,2,1,08,73,47,105,23,74,57,012,31,75,13,331,,80,05,132,*60
$GLGSV,2,2,08,83,02,027,,84,58,013,25,85,53,227,30,86,06,213,*62
$GNGLL,2218.63634,N,11410.15315,E,030752.00,A,A*7F
$GNZDA,030752.00,18,05,2021,00,00*76
$GNVTG,318.98,T,,M,3.393,N,6.283,K,A*2D
$GNGGA,030753.00,2218.63723,N,11410.15264,E,1,10,1.21,53.7,M,-1.7,M,,*62
$GNGSA,A,3,08,21,07,04,01,30,,,,,,,3.08,1.21,2.83*16
$GNGSA,A,3,84,73,74,85,,,,,,,,,3.08,1.21,2.83*1A
$GPGSV,4,1,14,01,61,158,34,03,06,163,,04,09,186,10,07,71,295,24*7F
$GPGSV,4,2,14,08,40,025,19,09,19,218,10,14,11,305,,16,10,093,*7D
$GPGSV,4,3,14,17,16,248,16,21,67,089,24,22,15,137,,27,12,045,11*70
$GPGSV,4,4,14,28,01,297,09,30,32,317,20*77
$GLGSV,2,1,08,73,47,105,24,74,57,012,32,75,13,331,,80,05,132,*64
$GLGSV,2,2,08,83,02,027,,84,58,013,23,85,53,227,17,86,06,213,*61
$GNGLL,2218.63723,N,11410.15264,E,030753.00,A,A*7E
$GNZDA,030753.00,18,05,2021,00,00*77
$GNVTG,319.02,T,,M,3.395,N,6.288,K,A*22
$GNGGA,030754.00,2218.63820,N,11410.15216,E,1,11,1.07,52.6,M,-1.7,M,,*69
$GNGSA,A,3,08,21,09,07,04,01,30,,,,,,2.17,1.07,1.89*1D
$GNGSA,A,3,84,73,74,85,,,,,,,,,2.17,1.07,1.89*18
$GPGSV,4,1,14,01,61,158,37,03,06,162,,04,09,186,09,07,71,295,30*70
$GPGSV,4,2,14,08,40,025,20,09,19,218,11,14,11,305,,16,10,093,*76
$GPGSV,4,3,14,17,16,248,,21,67,089,25,22,15,137,,27,12,045,10*77
$GPGSV,4,4,14,28,01,297,08,30,32,317,27*71
$GLGSV,2,1,08,73,47,105,24,74,57,012,33,75,13,331,,80,05,132,*65
$GLGSV,2,2,08,83,02,027,,84,58,013,23,85,53,227,18,86,06,213,*6E
$GNGLL,2218.63820,N,11410.15216,E,030754.00,A,A*70
$GNZDA,030754.00,18,05,2021,00,00*70
$GNVTG,319.05,T,,M,3.395,N,6.288,K,A*25
$GNGGA,030755.00,2218.63909,N,11410.15174,E,1,10,1.21,51.1,M,-1.7,M,,*64
$GNGSA,A,3,08,21,07,04,01,30,,,,,,,3.08,1.21,2.83*16
$GNGSA,A,3,84,73,74,85,,,,,,,,,3.08,1.21,2.83*1A
$GPGSV,4,1,14,01,61,158,38,03,06,162,,04,09,185,09,07,71,295,38*74
$GPGSV,4,2,14,08,40,025,19,09,19,218,09,14,11,305,,16,10,093,*75
$GPGSV,4,3,14,17,16,248,,21,67,089,25,22,15,137,,27,12,045,08*7E
$GPGSV,4,4,14,28,01,297,08,30,32,317,22*74
$GLGSV,2,1,08,73,47,105,24,74,57,012,32,75,13,331,,80,05,132,*64
$GLGSV,2,2,08,83,02,027,,84,58,013,25,85,53,227,21,86,06,213,*62
$GNGLL,2218.63909,N,11410.15174,E,030755.00,A,A*7C
$GNZDA,030755.00,18,05,2021,00,00*71
$GNVTG,319.07,T,,M,3.394,N,6.286,K,A*28
$GNGGA,030756.00,2218.63995,N,11410.15129,E,1,09,1.21,50.2,M,-1.7,M,,*60
$GNGSA,A,3,08,21,07,01,30,,,,,,,,3.08,1.21,2.83*12
$GNGSA,A,3,84,73,74,85,,,,,,,,,3.08,1.21,2.83*1A
$GPGSV,4,1,14,01,61,158,37,03,06,162,,04,09,185,05,07,71,295,35*7A
$GPGSV,4,2,14,08,40,025,20,09,19,218,08,14,11,305,,16,10,093,*7E
$GPGSV,4,3,14,17,16,248,,21,67,089,27,22,15,137,,27,12,045,09*7D
$GPGSV,4,4,14,28,01,297,07,30,32,317,24*7D
$GLGSV,2,1,08,73,47,105,27,74,57,012,28,75,13,331,,80,05,132,*6C
$GLGSV,2,2,08,83,02,027,,84,58,013,23,85,53,227,29,86,06,213,*6C
$GNGLL,2218.63995,N,11410.15129,E,030756.00,A,A*72
$GNZDA,030756.00,18,05,2021,00,00*72
$GNVTG,319.08,T,,M,3.395,N,6.287,K,A*27
$GNGGA,030757.00,2218.64078,N,11410.15069,E,1,11,1.15,49.2,M,-1.7,M,,*6F
$GNGSA,A,3,08,21,27,07,04,01,30,,,,,,2.03,1.15,1.68*18
$GNGSA,A,3,84,73,74,85,,,,,,,,,2.03,1.15,1.68*11
$GPGSV,4,1,14,01,61,158,40,03,06,162,,04,09,185,10,07,71,295,31*7A
$GPGSV,4,2,14,08,40,025,19,09,19,218,09,14,11,305,,16,10,093,*75
$GPGSV,4,3,14,17,16,248,,21,67,089,24,22,15,137,,27,12,045,11*77
$GPGSV,4,4,14,28,01,297,,30,32,317,22*7C
$GLGSV,2,1,08,73,47,105,25,74,57,012,26,75,13,331,,80,05,132,*60
$GLGSV,2,2,08,83,02,027,,84,58,013,21,85,53,227,20,86,06,213,*67
$GNGLL,2218.64078,N,11410.15069,E,030757.00,A,A*7B
$GNZDA,030757.00,18,05,2021,00,00*73
$GNVTG,319.12,T,,M,3.398,N,6.292,K,A*25
$GNGGA,030758.00,2218.64169,N,11410.15015,E,1,11,1.15,48.3,M,-1.7,M,,*6A
$GNGSA,A,3,08,21,27,07,04,01,30,,,,,,2.03,1.15,1.68*18
$GNGSA,A,3,84,73,74,85,,,,,,,,,2.03,1.15,1.68*11
$GPGSV,4,1,14,01,61,158,43,03,06,162,,04,09,185,09,07,71,294,29*79
$GPGSV,4,2,14,08,40,025,29,09,19,218,09,14,11,305,,16,10,093,*76
$GPGSV,4,3,14,17,16,248,,21,67,089,29,22,15,137,,27,12,045,12*79
$GPGSV,4,4,14,28,01,297,,30,32,317,22*7C
$GLGSV,2,1,08,73,47,105,25,74,57,012,25,75,13,331,,80,05,132,*63
$GLGSV,2,2,08,83,02,027,,84,58,013,17,85,53,227,20,86,06,213,*62
$GNGLL,2218.64169,N,11410.15015,E,030758.00,A,A*7E
$GNZDA,030758.00,18,05,2021,00,00*7C
$GNVTG,319.15,T,,M,3.400,N,6.297,K,A*21
$GNGGA,030759.00,2218.64268,N,11410.14969,E,1,10,1.21,47.1,M,-1.7,M,,*61
$GNGSA,A,3,08,21,07,04,01,30,,,,,,,3.08,1.21,2.83*16
$GNGSA,A,3,84,73,74,85,,,,,,,,,3.08,1.21,2.83*1A
$GPGSV,4,1,14,01,61,158,39,03,06,162,,04,09,185,11,07,71,294,28*7C
$GPGSV,4,2,14,08,40,026,24,09,19,218,10,14,11,305,,16,10,093,*70
$GPGSV,4,3,14,17,16,248,,21,67,089,20,22,15,137,,27,12,045,09*7A
$GPGSV,4,4,14,28,01,297,,30,32,317,21*7F
$GLGSV,2,1,08,73,47,105,24,74,57,012,32,75,13,331,,80,05,132,*64
$GLGSV,2,2,08,83,02,027,,84,58,013,19,85,53,227,19,86,06,213,*66
$GNGLL,2218.64268,N,11410.14969,E,030759.00,A,A*7E
$GNZDA,030759.00,18,05,2021,00,00*7D
$GNVTG,319.19,T,,M,3.406,N,6.309,K,A*2D
$GNGGA,030800.00,2218.64378,N,11410.14929,E,1,09,1.21,45.5,M,-1.7,M,,*68
$GNGSA,A,3,08,21,07,01,30,,,,,,,,3.08,1.21,2.83*12
$GNGSA,A,3,84,73,74,85,,,,,,,,,3.08,1.21,2.83*1A
$GPGSV,4,1,14,01,61,158,37,03,06,162,,04,09,185,08,07,71,294,27*75
$GPGSV,4,2,14,08,40,026,25,09,18,217,10,14,11,305,,16,10,093,*7F
$GPGSV,4,3,14,17,16,248,,21,67,089,28,22,15,137,,27,12,045,08*73
$GPGSV,4,4,14,28,01,297,,30,32,317,20*7E
$GLGSV,2,1,08,73,47,105,26,74,57,012,35,75,13,331,,80,05,132,*61
$GLGSV,2,2,08,83,02,027,,84,58,013,23,85,53,227,20,86,06,213,*65
$GNGLL,2218.64378,N,11410.14929,E,030800.00,A,A*79
$GNZDA,030800.00,18,05,2021,00,00*7E
$GNVTG,319.26,T,,M,3.411,N,6.317,K,A*28
$GNGGA,030801.00,2218.64468,N,11410.14874,E,1,11,1.07,44.3,M,-1.7,M,,*6C
$GNGSA,A,3,08,21,09,07,04,01,30,,,,,,2.17,1.07,1.89*1D
$GNGSA,A,3,84,73,74,85,,,,,,,,,2.17,1.07,1.89*18
$GPGSV,4,1,14,01,61,158,35,03,06,162,,04,09,185,10,07,71,294,28*71
$GPGSV,4,2,14,08,40,026,23,09,18,217,09,14,11,305,,16,10,093,*71
$GPGSV,4,3,14,17,16,248,19,21,67,089,26,22,15,137,,27,12,045,08*75
$GPGSV,4,4,14,28,01,297,,30,32,317,19*74
$GLGSV,2,1,08,73,47,105,24,74,57,012,28,75,13,331,,80,05,132,*6F
$GLGSV,2,2,08,83,02,027,,84,58,013,23,85,53,227,21,86,06,213,*64
$GNGLL,2218.64468,N,11410.14874,E,030801.00,A,A*77
$GNZDA,030801.00,18,05,2021,00,00*7F
$GNVTG,319.32,T,,M,3.413,N,6.321,K,A*2A
$GNGGA,030802.00,2218.64557,N,11410.14819,E,1,11,1.07,42.9,M,-1.7,M,,*65
$GNGSA,A,3,08,21,09,07,04,01,30,,,,,,2.17,1.07,1.89*1D
$GNGSA,A,3,84,73,74,85,,,,,,,,,2.17,1.07,1.89*18
$GPGSV,4,1,14,01,61,158,32,03,06,162,,04,09,185,11,07,71,294,28*77
$GPGSV,4,2,14,08,40,026,23,09,18,217,13,14,11,305,,16,10,093,17*7C
$GPGSV,4,3,14,17,16,248,17,21,67,089,23,22,15,137,,27,12,045,09*7F
$GPGSV,4,4,14,28,01,297,,30,32,317,20*7E
$GLGSV,2,1,08,73,47,105,21,74,57,012,27,75,13,331,,80,05,132,*65
$GLGSV,2,2,08,83,02,027,,84,58,013,21,85,53,227,20,86,06,213,*67
$GNGLL,2218.64557,N,11410.14819,E,030802.00,A,A*72
$GNZDA,030802.00,18,05,2021,00,00*7C
$GNVTG,319.36,T,,M,3.415,N,6.325,K,A*2C
$GNGGA,030803.00,2218.64660,N,11410.14772,E,1,12,0.95,41.3,M,-1.7,M,,*61
$GNGSA,A,3,08,21,27,09,07,04,01,30,,,,,1.54,0.95,1.22*17
$GNGSA,A,3,84,73,74,85,,,,,,,,,1.54,0.95,1.22*17
$GPGSV,4,1,14,01,61,158,37,03,06,162,,04,09,185,10,07,71,294,27*7C
$GPGSV,4,2,14,08,40,026,24,09,18,217,13,14,11,305,,16,10,093,15*79
$GPGSV,4,3,14,17,16,248,,21,67,089,25,22,15,137,,27,12,045,11*76
$GPGSV,4,4,14,28,01,297,,30,32,317,22*7C
$GLGSV,2,1,08,73,47,105,17,74,57,012,30,75,13,331,,80,05,132,*66
$GLGSV,2,2,08,83,02,027,,84,58,013,20,85,53,227,21,86,06,213,*67
$GNGLL,2218.64660,N,11410.14772,E,030803.00,A,A*76
$GNZDA,030803.00,18,05,2021,00,00*7D
$GNVTG,319.39,T,,M,3.416,N,6.326,K,A*23
$GNGGA,030804.00,2218.64771,N,11410.14692,E,1,11,1.07,36.2,M,-1.7,M,,*60
$GNGSA,A,3,08,21,09,07,04,01,30,,,,,,2.17,1.07,1.89*1D
$GNGSA,A,3,84,73,74,85,,,,,,,,,2.17,1.07,1.89*18
$GPGSV,4,1,14,01,61,158,37,03,06,162,,04,09,185,10,07,71,294,28*73
$GPGSV,4,2,14,08,40,026,24,09,18,217,12,14,12,305,,16,10,093,12*7C
$GPGSV,4,3,14,17,16,248,,21,67,089,32,22,15,137,,27,12,045,09*79
$GPGSV,4,4,14,28,01,297,,30,32,317,34*7B
$GLGSV,2,1,08,73,47,105,18,74,57,012,31,75,13,331,,80,05,132,*68
$GLGSV,2,2,08,83,02,027,,84,58,013,22,85,53,227,22,86,06,213,*66
$GNGLL,2218.64771,N,11410.14692,E,030804.00,A,A*7F
$GNZDA,030804.00,18,05,2021,00,00*7A
$GNVTG,319.40,T,,M,3.413,N,6.320,K,A*2E
$GNGGA,030805.00,2218.64875,N,11410.14603,E,1,11,1.07,30.6,M,-1.7,M,,*60
$GNGSA,A,3,08,21,09,07,04,01,30,,,,,,2.17,1.07,1.89*1D
$GNGSA,A,3,84,73,74,85,,,,,,,,,2.17,1.07,1.89*18
$GPGSV,4,1,14,01,61,158,37,03,06,162,,04,09,185,11,07,71,294,29*73
$GPGSV,4,2,14,08,40,026,24,09,18,217,11,14,12,305,,16,10,093,11*7C
$GPGSV,4,3,14,17,16,248,,21,67,089,33,22,15,137,,27,12,045,09*78
$GPGSV,4,4,14,28,01,297,,30,32,317,35*7A
$GLGSV,2,1,08,73,47,105,22,74,57,012,31,75,13,331,,80,05,132,*61
$GLGSV,2,2,08,83,02,027,,84,58,013,22,85,53,227,23,86,06,213,*67
$GNGLL,2218.64875,N,11410.14603,E,030805.00,A,A*7D
$GNZDA,030805.00,18,05,2021,00,00*7B
$GNVTG,319.41,T,,M,3.409,N,6.314,K,A*23
$GNGGA,030806.00,2218.64993,N,11410.14536,E,1,11,1.21,25.8,M,-1.7,M,,*61
$GNGSA,A,3,08,21,09,07,04,01,30,,,,,,3.08,1.21,2.83*1F
$GNGSA,A,3,84,73,74,85,,,,,,,,,3.08,1.21,2.83*1A
$GPGSV,4,1,14,01,61,158,37,03,06,162,,04,09,185,11,07,71,294,33*78
$GPGSV,4,2,14,08,40,026,23,09,18,217,14,14,12,305,,16,10,093,11*7E
$GPGSV,4,3,14,17,16,248,,21,67,089,34,22,15,137,,27,12,045,09*7F
$GPGSV,4,4,14,28,01,297,,30,32,317,35*7A
$GLGSV,2,1,08,73,47,105,23,74,57,012,35,75,13,331,,80,05,132,*64
$GLGSV,2,2,08,83,02,027,,84,58,013,23,85,53,227,23,86,06,213,*66
$GNGLL,2218.64993,N,11410.14536,E,030806.00,A,A*72
$GNZDA,030806.00,18,05,2021,00,00*78
$GNVTG,319.42,T,,M,3.401,N,6.298,K,A*2D
$GNGGA,030807.00,2218.65102,N,11410.14485,E,1,12,0.86,21.3,M,-1.7,M,,*68
$GNGSA,A,3,08,21,27,09,07,04,16,01,30,,,,1.34,0.86,1.03*17
$GNGSA,A,3,84,73,74,85,,,,,,,,,1.34,0.86,1.03*10
$GPGSV,4,1,14,01,61,158,37,03,06,162,,04,09,185,11,07,71,294,31*7A
$GPGSV,4,2,14,08,40,026,24,09,18,217,09,14,12,305,18,16,10,093,11*7C
$GPGSV,4,3,14,17,16,248,16,21,67,089,34,22,15,137,,27,12,045,10*70
$GPGSV,4,4,14,28,01,297,,30,32,317,35*7A
$GLGSV,2,1,08,73,47,105,23,74,57,012,34,75,13,331,,80,05,132,*65
$GLGSV,2,2,08,83,02,027,,84,58,013,23,85,53,227,23,86,06,213,*66
$GNGLL,2218.65102,N,11410.14485,E,030807.00,A,A*7B
$GNZDA,030807.00,18,05,2021,00,00*79
$GNVTG,319.44,T,,M,3.393,N,6.284,K,A*2A
$GNGGA,030808.00,2218.65197,N,11410.14433,E,1,12,0.95,19.4,M,-1.7,M,,*68
$GNGSA,A,3,08,21,27,09,07,04,01,30,,,,,1.54,0.95,1.22*17
$GNGSA,A,3,84,73,74,85,,,,,,,,,1.54,0.95,1.22*17
$GPGSV,4,1,14,01,61,158,36,03,06,162,,04,09,185,10,07,71,294,30*7B
$GPGSV,4,2,14,08,40,026,22,09,18,217,09,14,12,305,17,16,10,093,09*7C
$GPGSV,4,3,14,17,16,248,12,21,67,089,33,22,15,137,,27,12,045,10*73
$GPGSV,4,4,14,28,01,297,,30,32,317,34*7B
$GLGSV,2,1,08,73,47,105,23,74,57,012,34,75,13,331,,80,05,132,*65
$GLGSV,2,2,08,83,02,027,,84,58,013,22,85,53,227,23,86,06,213,*67
$GNGLL,2218.65197,N,11410.14433,E,030808.00,A,A*75
$GNZDA,030808.00,18,05,2021,00,00*76
$GNVTG,319.45,T,,M,3.385,N,6.268,K,A*2E
$GNGGA,030809.00,2218.65293,N,11410.14386,E,1,12,0.95,17.6,M,-1.7,M,,*6B
$GNGSA,A,3,08,21,27,09,07,04,01,30,,,,,1.54,0.95,1.22*17
$GNGSA,A,3,84,73,74,85,,,,,,,,,1.54,0.95,1.22*17
$GPGSV,4,1,14,01,61,158,38,03,06,162,,04,09,185,10,07,71,294,30*75
$GPGSV,4,2,14,08,40,026,22,09,18,217,11,14,12,305,18,16,10,093,09*7A
$GPGSV,4,3,14,17,16,248,08,21,67,089,33,22,15,137,,27,12,045,09*70
$GPGSV,4,4,14,28,01,297,,30,32,317,35*7A
$GLGSV,2,1,08,73,47,105,23,74,57,012,34,75,13,331,,80,05,132,*65
$GLGSV,2,2,08,83,02,027,,84,58,013,22,85,53,227,22,86,06,213,*66
$GNGLL,2218.65293,N,11410.14386,E,030809.00,A,A*7A
$GNZDA,030809.00,18,05,2021,00,00*77
$GNVTG,319.47,T,,M,3.377,N,6.254,K,A*2E
$GNGGA,030810.00,2218.65381,N,11410.14338,E,1,11,0.95,16.3,M,-1.7,M,,*63
$GNGSA,A,3,08,21,27,09,07,01,30,,,,,,1.54,0.95,1.22*13
$GNGSA,A,3,84,73,74,85,,,,,,,,,1.54,0.95,1.22*17
$GPGSV,4,1,14,01,61,158,37,03,06,162,,04,09,185,08,07,71,294,30*73
$GPGSV,4,2,14,08,40,026,22,09,18,217,10,14,12,305,18,16,10,093,08*7A
$GPGSV,4,3,14,17,16,248,08,21,67,089,33,22,15,137,,27,12,045,10*78
$GPGSV,4,4,14,28,01,297,,30,32,317,34*7B
$GLGSV,2,1,08,73,47,105,22,74,57,012,33,75,13,331,,80,05,132,*63
$GLGSV,2,2,08,83,02,027,,84,58,013,22,85,53,227,22,86,06,213,*66
$GNGLL,2218.65381,N,11410.14338,E,030810.00,A,A*75
$GNZDA,030810.00,18,05,2021,00,00*7F
$GNVTG,319.48,T,,M,3.369,N,6.240,K,A*2B
$GNGGA,030811.00,2218.65467,N,11410.14291,E,1,10,1.21,15.1,M,-1.7,M,,*61
$GNGSA,A,3,08,21,07,04,01,30,,,,,,,3.08,1.21,2.83*16
$GNGSA,A,3,84,73,74,85,,,,,,,,,3.08,1.21,2.83*1A
$GPGSV,4,1,14,01,61,158,36,03,06,162,,04,09,185,10,07,71,294,29*73
$GPGSV,4,2,14,08,40,026,22,09,18,217,08,14,12,305,18,16,10,093,08*73
$GPGSV,4,3,14,17,16,248,08,21,67,087,32,22,15,137,,27,12,045,08*7E
$GPGSV,4,4,14,28,01,297,,30,32,317,34*7B
$GLGSV,2,1,08,73,47,105,21,74,57,012,34,75,13,331,,80,05,132,*67
$GLGSV,2,2,08,83,02,027,,84,58,013,22,85,53,227,21,86,06,213,*65
$GNGLL,2218.65467,N,11410.14291,E,030811.00,A,A*79
$GNZDA,030811.00,18,05,2021,00,00*7E
$GNVTG,319.50,T,,M,3.359,N,6.220,K,A*27
$GNGGA,030812.00,2218.65556,N,11410.14258,E,1,11,1.01,14.2,M,-1.7,M,,*65
$GNGSA,A,3,08,21,09,07,04,01,30,,,,,,1.77,1.01,1.46*1D
$GNGSA,A,3,84,73,74,85,,,,,,,,,1.77,1.01,1.46*18
$GPGSV,4,1,14,01,61,158,40,03,06,162,,04,09,185,10,07,71,294,30*7A
$GPGSV,4,2,14,08,40,026,22,09,18,217,09,14,12,305,19,16,10,093,08*73
$GPGSV,4,3,14,17,16,248,09,21,67,087,35,22,15,137,,27,12,045,07*77
$GPGSV,4,4,14,28,01,297,,30,32,317,36*79
$GLGSV,2,1,08,73,47,105,20,74,57,012,35,75,13,331,,80,05,132,*67
$GLGSV,2,2,08,83,02,027,,84,58,013,23,85,53,227,21,86,06,213,*64
$GNGLL,2218.65556,N,11410.14258,E,030812.00,A,A*7C
$GNZDA,030812.00,18,05,2021,00,00*7D
$GNVTG,319.51,T,,M,3.351,N,6.206,K,A*2A
$GNGGA,030813.00,2218.65636,N,11410.14212,E,1,12,1.07,13.5,M,-1.7,M,,*6A
$GNGSA,A,3,08,21,27,09,07,04,01,30,,,,,2.17,1.07,1.88*19
$GNGSA,A,3,84,73,74,85,,,,,,,,,2.17,1.07,1.88*19
$GPGSV,4,1,14,01,61,158,37,03,06,162,,04,09,185,12,07,71,294,30*78
$GPGSV,4,2,14,08,40,026,23,09,18,217,09,14,12,305,19,16,10,093,08*72
$GPGSV,4,3,14,17,16,248,08,21,67,087,32,22,15,137,,27,12,045,10*77
$GPGSV,4,4,14,28,01,297,,30,32,317,33*7C
$GLGSV,2,1,08,73,47,105,19,74,57,012,31,75,13,331,,80,05,132,*69
$GLGSV,2,2,08,83,02,027,,84,58,013,24,85,53,227,21,86,06,213,*63
$GNGLL,2218.65636,N,11410.14212,E,030813.00,A,A*76
$GNZDA,030813.00,18,05,2021,00,00*7C
$GNVTG,319.52,T,,M,3.345,N,6.196,K,A*26
$GNGGA,030814.00,2218.65714,N,11410.14163,E,1,12,1.07,12.7,M,-1.7,M,,*6A
$GNGSA,A,3,08,21,27,09,07,04,01,30,,,,,2.17,1.07,1.88*19
$GNGSA,A,3,84,73,74,85,,,,,,,,,2.17,1.07,1.88*19
$GPGSV,4,1,14,01,61,158,36,03,06,162,,04,09,185,12,07,71,294,29*71
$GPGSV,4,2,14,08,40,026,22,09,18,217,12,14,12,305,18,16,10,093,08*78
$GPGSV,4,3,14,17,16,248,09,21,67,087,29,22,15,137,,27,12,045,11*7D
$GPGSV,4,4,14,28,01,297,,30,32,317,30*7F
$GLGSV,2,1,08,73,47,105,18,74,57,012,31,75,13,331,,80,05,132,*68
$GLGSV,2,2,08,83,02,027,,84,58,013,22,85,53,227,20,86,06,213,*64
$GNGLL,2218.65714,N,11410.14163,E,030814.00,A,A*75
$GNZDA,030814.00,18,05,2021,00,00*7B
$GNVTG,319.52,T,,M,3.338,N,6.182,K,A*29
$GNGGA,030815.00,2218.65791,N,11410.14118,E,1,12,1.07,12.3,M,-1.7,M,,*6E
$GNGSA,A,3,08,21,27,09,07,04,01,30,,,,,2.17,1.07,1.88*19
$GNGSA,A,3,84,73,74,85,,,,,,,,,2.17,1.07,1.88*19
$GPGSV,4,1,14,01,61,158,37,03,06,162,,04,09,185,12,07,71,294,29*70
$GPGSV,4,2,14,08,40,026,22,09,18,217,11,14,12,305,18,16,10,093,09*7A
$GPGSV,4,3,14,17,16,248,08,21,67,087,31,22,15,137,,27,12,045,11*75
$GPGSV,4,4,14,28,01,297,,30,32,317,34*7B
$GLGSV,2,1,08,73,47,105,16,74,57,012,30,75,13,331,,80,05,132,*67
$GLGSV,2,2,08,83,02,027,,84,58,013,21,85,53,227,18,86,06,213,*6C
$GNGLL,2218.65791,N,11410.14118,E,030815.00,A,A*75
$GNZDA,030815.00,18,05,2021,00,00*7A
$GNVTG,319.53,T,,M,3.331,N,6.169,K,A*24
$GNGGA,030816.00,2218.65865,N,11410.14070,E,1,10,1.07,11.7,M,-1.7,M,,*63
$GNGSA,A,3,08,21,09,07,01,30,,,,,,,2.17,1.07,1.88*18
$GNGSA,A,3,84,73,74,85,,,,,,,,,2.17,1.07,1.88*19
$GPGSV,4,1,14,01,61,158,37,03,06,162,,04,09,185,08,07,71,294,28*7A
$GPGSV,4,2,14,08,40,026,21,09,18,217,10,14,12,305,17,16,10,093,08*76
$GPGSV,4,3,14,17,16,248,08,21,67,087,26,22,15,137,,27,12,045,08*7B
$GPGSV,4,4,14,28,01,297,,30,32,317,33*7C
$GLGSV,2,1,08,73,47,105,13,74,57,012,30,75,13,331,,80,05,132,*62
$GLGSV,2,2,08,83,02,027,,84,58,013,21,85,53,227,17,86,06,213,*63
$GNGLL,2218.65865,N,11410.14070,E,030816.00,A,A*7D
$GNZDA,030816.00,18,05,2021,00,00*79
$GNVTG,319.53,T,,M,3.322,N,6.152,K,A*2E
$GNGGA,030817.00,2218.65937,N,11410.14029,E,1,10,1.05,11.5,M,-1.7,M,,*68
$GNGSA,A,3,08,21,07,04,01,30,,,,,,,1.80,1.05,1.46*18
$GNGSA,A,3,84,73,74,85,,,,,,,,,1.80,1.05,1.46*14
$GPGSV,4,1,14,01,61,158,39,03,06,162,,04,09,185,11,07,71,294,29*7D
$GPGSV,4,2,14,08,40,026,23,09,18,217,07,14,12,305,18,16,10,093,08*7D
$GPGSV,4,3,14,17,16,248,08,21,67,087,32,22,15,137,,27,12,046,08*7D
$GPGSV,4,4,14,28,01,297,,30,32,317,34*7B
$GLGSV,2,1,08,73,47,105,11,74,57,012,33,75,13,331,,80,05,132,*63
$GLGSV,2,2,08,83,02,027,,84,58,013,22,85,53,227,19,86,06,213,*6E
$GNGLL,2218.65937,N,11410.14029,E,030817.00,A,A*76
$GNZDA,030817.00,18,05,2021,00,00*78
$GNVTG,319.54,T,,M,3.313,N,6.136,K,A*29
$GNGGA,030818.00,2218.66008,N,11410.13985,E,1,12,0.95,11.4,M,-1.7,M,,*62
$GNGSA,A,3,08,21,27,09,07,04,01,30,,,,,1.68,0.95,1.38*13
$GNGSA,A,3,84,73,74,85,,,,,,,,,1.68,0.95,1.38*13
$GPGSV,4,1,14,01,61,158,38,03,06,162,,04,09,185,11,07,71,294,29*7C
$GPGSV,4,2,14,08,40,026,24,09,18,217,11,14,12,305,19,16,10,093,09*7D
$GPGSV,4,3,14,17,16,248,09,21,67,087,32,22,15,137,,27,12,046,10*75
$GPGSV,4,4,14,28,02,297,,30,32,317,34*78
$GLGSV,2,1,08,73,47,105,11,74,57,012,30,75,13,331,,80,05,132,*60
$GLGSV,2,2,08,83,02,027,,84,58,013,23,85,53,227,20,86,06,213,*65
$GNGLL,2218.66008,N,11410.13985,E,030818.00,A,A*77
$GNZDA,030818.00,18,05,2021,00,00*77
$GNVTG,319.54,T,,M,3.304,N,6.119,K,A*22
$GNGGA,030819.00,2218.66076,N,11410.13945,E,1,09,1.05,11.6,M,-1.7,M,,*66
$GNGSA,A,3,08,21,07,01,30,,,,,,,,1.80,1.05,1.46*1C
$GNGSA,A,3,84,73,74,85,,,,,,,,,1.80,1.05,1.46*14
$GPGSV,4,1,14,01,61,158,39,03,06,162,,04,09,185,07,07,71,294,29*7A
$GPGSV,4,2,14,08,40,026,24,09,18,217,07,14,12,305,18,16,10,093,08*7A
$GPGSV,4,3,14,17,16,248,,21,67,087,32,22,15,137,,27,12,046,08*75
$GPGSV,4,4,14,28,02,297,,30,32,317,34*78
$GLGSV,2,1,08,73,47,105,11,74,57,012,31,75,13,331,,80,05,132,*61
$GLGSV,2,2,08,83,02,027,,84,58,013,23,85,53,227,20,86,06,213,*65
$GNGLL,2218.66076,N,11410.13945,E,030819.00,A,A*73
$GNZDA,030819.00,18,05,2021,00,00*76
$GNVTG,319.55,T,,M,3.295,N,6.103,K,A*21
$GNGGA,030820.00,2218.66151,N,11410.13910,E,1,10,0.95,12.0,M,-1.7,M,,*6D
$GNGSA,A,3,08,21,09,07,01,30,,,,,,,1.68,0.95,1.38*12
$GNGSA,A,3,84,73,74,85,,,,,,,,,1.68,0.95,1.38*13
$GPGSV,4,1,14,01,61,158,38,03,06,162,,04,09,185,06,07,71,294,29*7A
$GPGSV,4,2,14,08,40,026,23,09,18,217,11,14,12,305,18,16,10,093,08*7A
$GPGSV,4,3,14,17,16,248,,21,67,087,31,22,15,137,,27,12,046,08*76
$GPGSV,4,4,14,28,02,297,,30,33,317,34*79
$GLGSV,2,1,08,73,47,105,15,74,57,012,34,75,13,331,,80,05,132,*60
$GLGSV,2,2,08,83,02,027,,84,58,013,25,85,53,227,22,86,06,213,*61
$GNGLL,2218.66151,N,11410.13910,E,030820.00,A,A*7D
$GNZDA,030820.00,18,05,2021,00,00*7C
$GNVTG,319.56,T,,M,3.290,N,6.094,K,A*28
$GNGGA,030821.00,2218.66225,N,11410.13861,E,1,11,0.95,11.8,M,-1.7,M,,*61
$GNGSA,A,3,08,21,27,09,07,01,30,,,,,,1.68,0.95,1.38*17
$GNGSA,A,3,84,73,74,85,,,,,,,,,1.68,0.95,1.38*13
$GPGSV,4,1,14,01,61,158,33,03,06,162,,04,09,185,07,07,71,294,29*70
$GPGSV,4,2,14,08,40,026,23,09,18,217,10,14,12,305,19,16,10,093,09*7B
$GPGSV,4,3,14,17,16,248,,21,67,087,27,22,15,137,,27,12,046,09*70
$GPGSV,4,4,14,28,02,297,,30,33,317,31*7C
$GLGSV,2,1,08,73,47,105,17,74,57,012,29,75,13,331,,80,05,132,*6E
$GLGSV,2,2,08,83,02,027,,84,58,013,24,85,53,227,22,86,06,213,*60
$GNGLL,2218.66225,N,11410.13861,E,030821.00,A,A*7B
$GNZDA,030821.00,18,05,2021,00,00*7D
$GNVTG,319.56,T,,M,3.278,N,6.071,K,A*25
$GNGGA,030822.00,2218.66286,N,11410.13838,E,1,12,0.95,13.1,M,-1.7,M,,*6F
$GNGSA,A,3,08,21,27,09,07,04,01,30,,,,,1.68,0.95,1.38*13
$GNGSA,A,3,84,73,74,85,,,,,,,,,1.68,0.95,1.38*13
$GPGSV,4,1,14,01,61,158,41,03,06,162,,04,09,185,10,07,71,294,32*79
$GPGSV,4,2,14,08,40,026,23,09,18,217,12,14,12,305,20,16,10,093,10*7B
$GPGSV,4,3,14,17,16,248,,21,67,087,33,22,15,137,,27,12,046,09*75
$GPGSV,4,4,14,28,02,297,,30,33,317,36*7B
$GLGSV,2,1,08,73,47,105,18,74,57,012,33,75,13,331,,80,05,132,*6A
$GLGSV,2,2,08,83,02,027,,84,58,013,24,85,53,227,23,86,06,213,*61
$GNGLL,2218.66286,N,11410.13838,E,030822.00,A,A*7D
$GNZDA,030822.00,18,05,2021,00,00*7E
$GNVTG,319.56,T,,M,3.268,N,6.052,K,A*25
$GNGGA,030823.00,2218.66350,N,11410.13807,E,1,12,0.95,14.0,M,-1.7,M,,*6E
$GNGSA,A,3,08,21,27,09,07,04,01,30,,,,,1.68,0.95,1.38*13
$GNGSA,A,3,84,73,74,85,,,,,,,,,1.68,0.95,1.38*13
$GPGSV,4,1,14,01,61,158,39,03,06,162,,04,09,185,10,07,71,294,29*7C
$GPGSV,4,2,14,08,40,026,23,09,18,217,12,14,12,305,20,16,10,093,10*7B
$GPGSV,4,3,14,17,16,248,,21,67,087,32,22,15,137,,27,12,046,12*7E
$GPGSV,4,4,14,28,02,297,,30,33,317,35*78
$GLGSV,2,1,08,73,47,105,21,74,57,012,33,75,13,331,,80,05,132,*60
$GLGSV,2,2,08,83,02,027,,84,58,013,24,85,53,227,24,86,06,213,*66
$GNGLL,2218.66350,N,11410.13807,E,030823.00,A,A*7A
$GNZDA,030823.00,18,05,2021,00,00*7F
$GNVTG,319.57,T,,M,3.258,N,6.034,K,A*27
$GNGGA,030824.00,2218.66417,N,11410.13772,E,1,11,1.28,14.8,M,-1.7,M,,*6C
$GNGSA,A,3,08,21,27,07,04,01,30,,,,,,1.98,1.28,1.51*1D
$GNGSA,A,3,84,73,74,85,,,,,,,,,1.98,1.28,1.51*14
$GPGSV,4,1,14,01,61,158,38,03,06,162,,04,09,185,10,07,71,294,29*7D
$GPGSV,4,2,14,08,40,026,24,09,18,217,08,14,12,305,19,16,10,093,08*74
$GPGSV,4,3,14,17,16,248,,21,67,087,31,22,15,137,,27,12,046,10*7F
$GPGSV,4,4,14,28,02,297,,30,33,317,35*78
$GLGSV,2,1,08,73,47,105,21,74,57,012,33,75,13,331,,80,05,132,*60
$GLGSV,2,2,08,83,02,027,,84,58,013,25,85,53,227,25,86,06,213,*66
$GNGLL,2218.66417,N,11410.13772,E,030824.00,A,A*74
$GNZDA,030824.00,18,05,2021,00,00*78
$GNRMC,030825.00,A,2218.66490,N,11410.13719,E,3.257,319.57,180521,,,A*75
$GNVTG,319.57,T,,M,3.257,N,6.032,K,A*2E
$GNGGA,030825.00,2218.66490,N,11410.13719,E,1,12,0.95,14.4,M,-1.7,M,,*67
