     3.03           OBSERVATION DATA    M: Mixed            RINEX VERSION / TYPE
RTKCONV demo5 b33c                      20210520 090402 UTC PGM / RUN BY / DATE 
log: C:\Users\Ivan_PolyU_Dktp\Dropbox\HUAWEI Exp\20210518_  COMMENT             
format: RINEX                                               COMMENT             
Geo++                                                       MARKER NAME         
                                                            MARKER NUMBER       
                                                            MARKER TYPE         
                                                            OBSERVER / AGENCY   
unknown             samsung             SM-N9500            REC # / TYPE / VERS 
unknown             SM-N9500                                ANT # / TYPE        
 -2419214.3944  5385470.8824  2405347.2753                  APPROX POSITION XYZ 
        0.0000        0.0000        0.0000                  ANTENNA: DELTA H/E/N
G    3 C1C D1C S1C                                          SYS / # / OBS TYPES 
R    3 C1C D1C S1C                                          SYS / # / OBS TYPES 
C    3 C2I D2I S2I                                          SYS / # / OBS TYPES 
  2021     5    18     3     7   15.4419214     GPS         TIME OF FIRST OBS   
  2021     5    18     4     3   21.4418323     GPS         TIME OF LAST OBS    
G                                                           SYS / PHASE SHIFT   
R                                                           SYS / PHASE SHIFT   
C                                                           SYS / PHASE SHIFT   
  3 R01  1 R09 -2 R17  4                                    GLONASS SLOT / FRQ #
 C1C    0.000 C1P    0.000 C2C    0.000 C2P    0.000        GLONASS COD/PHS/BIS 
                                                            END OF HEADER       
> 2021  5 18  3  7 15.4419214  0 15                     
C 1  37401573.874 1        35.650          23.500  
C 2  37106935.148 1        23.850          27.750  
C 3  36458188.766 1        62.550          30.000  
G 1  20405679.287 1      2004.696          33.500  
G 7  20339955.486 1      1016.141          31.750  
G 8  21970846.244 1     -2251.700          25.250  
G 9  23934585.176 1     -2284.450          25.750  
G17  23907310.358 1      1972.700          27.000  
G21  20529502.266 1      -634.699          31.750  
G22  24198456.502 1      1870.200          16.500  
G30  22745858.015 1      2891.600          20.000  
R 9  20448499.843 1     -1271.964          30.250  
R10  19976493.406 1      1876.470          28.750  
R20  19844032.806 1     -2339.050          15.000  
R21  20195735.828 1      2024.350          17.250  
> 2021  5 18  3  7 16.4419214  0 15                     
C 1  37401566.750 1        35.650          23.500  
C 2  37106930.423 1        23.850          27.750  
C 3  36458190.936 1        41.050          29.500  
G 1  20405304.018 1      2002.820          32.500  
G 7  20339779.280 1      1014.797          33.000  
G 8  21971292.707 1     -2251.850          23.250  
G 9  23935019.647 1     -2284.450          25.750  
G17  23906934.790 1      1972.700          27.000  
G21  20529622.854 1      -636.056          31.500  
G22  24198100.120 1      1870.200          16.500  
G30  22745307.667 1      2891.600          20.000  
R 9  20448710.369 1     -1272.200          28.750  
R10  19976077.665 1      1877.471          27.000  
R20  19844469.975 1     -2339.050          15.000  
R21  20195324.884 1      2014.900          18.500  
> 2021  5 18  3  7 17.4419214  0 15                     
C 1  37401560.164 1        35.650          23.500  
C 2  37106925.935 1        23.850          27.750  
C 3  36458183.150 1        41.050          29.500  
G 1  20404919.094 1      2000.288          33.500  
G 7  20339572.732 1      1011.758          33.000  
G 8  21971711.826 1     -2254.000          23.500  
G 9  23935454.355 1     -2284.450          25.750  
G17  23906559.458 1      1972.700          27.000  
G21  20529741.581 1      -639.124          30.500  
G22  24197744.275 1      1870.200          16.500  
G30  22744757.257 1      2891.600          20.000  
R 9  20448951.710 1     -1276.750          28.750  
R10  19975773.385 1      1874.168          28.000  
R20  19844907.382 1     -2339.050          15.000  
R21  20194948.353 1      2014.900          18.500  
> 2021  5 18  3  7 18.4419214  0 14                     
C 1  37401553.494 1        35.650          23.500  
C 3  36458175.581 1        41.050          29.500  
G 1  20404519.696 1      1999.715          33.250  
G 7  20339387.086 1      1010.914          30.500  
G 8  21972101.482 1     -2247.300          23.000  
G 9  23935889.280 1     -2284.450          25.750  
G17  23906184.344 1      1972.700          27.000  
G21  20529869.518 1      -641.750          29.000  
G22  24197388.648 1      1870.200          16.500  
G30  22744202.567 1      2886.350          19.250  
R 9  20449252.029 1     -1276.800          28.500  
R10  19975441.441 1      1872.817          27.500  
R20  19845345.005 1     -2339.050          15.000  
R21  20194572.040 1      2014.900          18.500  
> 2021  5 18  3  7 19.4419214  0 13                     
C 1  37401546.464 1        35.650          23.500  
C 3  36458182.641 1        20.000          29.250  
G 1  20404142.722 1      1999.166          33.250  
G 7  20339188.789 1      1010.472          32.500  
G 8  21972528.851 1     -2247.300          23.000  
G 9  23936323.844 1     -2284.450          25.750  
G17  23905808.569 1      1972.700          27.000  
G21  20529961.120 1      -639.750          30.000  
G30  22743653.213 1      2886.350          19.250  
R 9  20449445.559 1     -1275.750          28.000  
R10  19975068.364 1      1871.867          25.000  
R20  19845782.267 1     -2339.050          15.000  
R21  20194195.366 1      2014.900          18.500  
> 2021  5 18  3  7 20.4419214  0 11                     
C 3  36458178.794 1        20.000          29.250  
G 1  20403757.839 1      1999.617          30.750  
G 7  20338996.972 1      1010.989          31.750  
G 8  21972956.705 1     -2247.300          23.000  
G 9  23936758.593 1     -2284.450          25.750  
G21  20530107.469 1      -639.919          30.000  
G30  22743104.043 1      2886.350          19.250  
R 9  20449681.246 1     -1277.950          27.750  
R10  19974745.837 1      1872.968          26.000  
R20  19846220.014 1     -2339.050          15.000  
R21  20193818.876 1      2014.900          18.500  
> 2021  5 18  3  7 21.4419214  0 10                     
C 3  36458175.110 1        20.000          29.250  
G 1  20403376.116 1      2001.113          31.750  
G 7  20338810.714 1      1012.474          33.000  
G 8  21973397.013 1     -2250.950          18.000  
G 9  23937193.805 1     -2284.450          25.750  
G21  20530221.003 1      -638.185          30.000  
G30  22742555.036 1      2886.350          19.250  
R 9  20449933.885 1     -1277.950          26.250  
R10  19974337.134 1      1872.918          26.250  
R21  20193442.550 1      2014.900          18.500  
> 2021  5 18  3  7 22.4419214  0 10                     
C 3  36458141.798 1        63.150          28.500  
G 1  20403004.038 1      2001.999          32.250  
G 7  20338602.023 1      1013.273          32.250  
G 8  21973825.082 1     -2250.950          18.000  
G 9  23937628.169 1     -2284.450          25.750  
G21  20530339.986 1      -637.531          30.000  
G30  22742005.481 1      2886.350          19.250  
R 9  20450184.476 1     -1272.500          27.750  
R10  19974001.930 1      1879.272          26.250  
R21  20193103.450 1      2023.600          17.250  
> 2021  5 18  3  7 23.4419214  0 10                     
C 3  36458130.160 1        63.150          28.500  
G 1  20402629.052 1      2000.479          31.750  
G 7  20338429.397 1      1011.741          33.750  
G 8  21974253.839 1     -2250.950          18.000  
G 9  23938063.222 1     -2284.450          25.750  
G21  20530463.854 1      -639.114          31.000  
G30  22741456.615 1      2886.350          19.250  
R 9  20450421.066 1     -1279.750          28.000  
R10  19973653.626 1      1875.119          26.750  
R21  20192725.765 1      2023.600          17.250  
> 2021  5 18  3  7 24.4419214  0 10                     
C 3  36458117.303 1        63.150          28.500  
G 1  20402248.350 1      1999.228          31.500  
G 7  20338226.171 1      1010.406          33.500  
G 8  21974681.377 1     -2250.950          18.000  
G 9  23938497.355 1     -2284.450          25.750  
G21  20530579.008 1      -639.900          29.000  
G30  22740906.530 1      2886.350          19.250  
R 9  20450653.140 1     -1275.550          28.500  
R10  19973301.703 1      1873.768          26.000  
R21  20192347.161 1      2023.600          17.250  
> 2021  5 18  3  7 25.4419214  0 10                     
C 3  36458130.475 1        40.000          27.500  
G 1  20401864.897 1      1998.138          30.500  
G 7  20338046.278 1      1009.299          33.750  
G 8  21975109.762 1     -2250.950          18.000  
G 9  23938932.036 1     -2284.450          25.750  
G21  20530703.704 1      -642.300          27.750  
G30  22740318.019 1      2885.400          19.000  
R 9  20450903.448 1     -1278.650          27.000  
R10  19972961.421 1      1874.719          25.250  
R21  20191968.805 1      2023.600          17.250  
> 2021  5 18  3  7 26.4419213  0 10                     
C 3  36458093.437 1        40.000          27.500  
G 1  20401442.325 1      1997.611          31.000  
G 7  20337811.376 1      1008.775          33.750  
G 8  21975563.484 1     -2259.250          16.750  
G 9  23939337.191 1     -2284.450          25.750  
G21  20530817.161 1      -642.000          29.000  
G30  22739739.556 1      2885.400          19.000  
R 9  20451066.971 1     -1278.650          26.250  
R10  19972504.373 1      1870.066          24.500  
R21  20191561.223 1      2023.600          17.250  
> 2021  5 18  3  7 27.4419214  0 10                     
C 3  36458115.562 1        40.000          27.500  
G 1  20401105.599 1      1996.912          31.000  
G 7  20337663.819 1      1008.020          33.250  
G 8  21976023.306 1     -2259.250          16.750  
G 9  23939801.811 1     -2284.450          25.750  
G21  20530968.797 1      -643.000          28.250  
G30  22739328.481 1      2870.050          21.250  
R 9  20451354.712 1     -1281.750          24.000  
R10  19972308.549 1      1868.865          25.500  
R21  20191300.344 1      2021.350          17.500  
> 2021  5 18  3  7 28.4419213  0  9                     
C 3  36458084.068 1        51.800          27.500  
G 1  20400678.679 1      1996.077          31.000  
G 7  20337430.565 1      1007.302          33.500  
G 8  21976423.214 1     -2259.250          16.750  
G21  20531065.014 1      -646.350          27.000  
G30  22738716.289 1      2867.750          22.500  
R 9  20451607.122 1     -1277.500          23.000  
R10  19971944.585 1      1872.918          24.750  
R21  20190892.611 1      2021.350          17.500  
> 2021  5 18  3  7 29.4419213  0  9                     
C 3  36458074.227 1        51.800          27.500  
G 1  20400324.076 1      1994.654          32.250  
G 7  20337243.546 1      1005.817          36.000  
G 8  21976853.168 1     -2259.250          16.750  
G21  20531161.899 1      -645.050          27.500  
G30  22738180.612 1      2866.650          22.750  
R 9  20451803.238 1     -1280.650          27.000  
R10  19971509.938 1      1872.017          25.000  
R21  20190408.198 1      2016.950          19.500  
> 2021  5 18  3  7 30.4419213  0  9                     
C 3  36458064.229 1        51.800          27.500  
G 1  20399948.931 1      1994.741          34.500  
G 7  20337045.578 1      1005.599          35.750  
G 8  21977282.965 1     -2259.250          16.750  
G21  20531295.202 1      -646.200          28.500  
G30  22737644.778 1      2870.000          23.750  
R 9  20452030.076 1     -1280.650          26.000  
R10  19971248.414 1      1872.367          23.250  
R21  20190030.954 1      2016.950          19.500  
> 2021  5 18  3  7 31.4419213  0  9                     
C 3  36458069.838 1         0.750          29.250  
G 1  20399558.214 1      1992.888          33.250  
G 7  20336851.525 1      1003.897          36.250  
G 8  21977713.080 1     -2259.250          16.750  
G21  20531410.534 1      -648.450          28.000  
G30  22737120.053 1      2870.350          24.750  
R 9  20452319.588 1     -1286.000          27.750  
R10  19970849.303 1      1871.116          21.000  
R21  20189658.824 1      2009.500          19.250  
> 2021  5 18  3  7 32.4419213  0  9                     
C 3  36458069.486 1         0.750          29.250  
G 1  20399177.426 1      1992.282          31.000  
G 7  20336664.403 1      1003.276          35.250  
G 8  21978063.486 1     -2256.750          17.500  
G21  20531523.804 1      -647.050          27.000  
G30  22736576.778 1      2871.150          26.500  
R 9  20452559.970 1     -1283.400          26.750  
R10  19970479.907 1      1870.866          22.000  
R21  20189337.395 1      2009.450          21.750  
> 2021  5 18  3  7 33.4419213  0  9                     
C 3  36458069.318 1         0.750          29.250  
G 1  20398790.825 1      1991.391          31.500  
G 7  20336472.667 1      1002.548          34.000  
G 8  21978571.466 1     -2256.000          22.000  
G21  20531669.935 1      -646.800          25.500  
G30  22736019.595 1      2869.200          25.500  
R 9  20452757.665 1     -1284.350          26.500  
R10  19970128.981 1      1870.866          22.000  
R21  20188874.647 1      2017.350          22.500  
> 2021  5 18  3  7 34.4419213  0  9                     
C 3  36458033.632 1        57.100          30.250  
G 1  20398413.375 1      1990.274          32.500  
G 7  20336290.982 1      1001.375          34.000  
G 8  21979000.458 1     -2256.000          22.000  
G21  20531796.736 1      -651.550          27.250  
G30  22735502.142 1      2869.400          26.500  
R 9  20453002.884 1     -1285.750          28.750  
R10  19969776.415 1      1863.861          19.250  
R21  20188608.720 1      2012.900          25.000  
> 2021  5 18  3  7 35.4419213  0  9                     
C 3  36458022.754 1        57.100          30.250  
G 1  20398020.262 1      1990.877          32.000  
G 7  20336089.136 1      1001.830          34.250  
G 8  21979406.891 1     -2248.350          21.500  
G21  20531893.783 1      -648.500          26.750  
G30  22734951.338 1      2867.000          26.250  
R 9  20453263.918 1     -1284.950          28.250  
R10  19969427.071 1      1863.861          19.250  
R21  20188215.907 1      2014.900          25.750  
> 2021  5 18  3  7 36.4419213  0  9                     
C 3  36458011.855 1        57.100          30.250  
G 1  20397645.715 1      1990.638          31.250  
G 7  20335906.456 1      1001.520          34.000  
G 8  21979789.020 1     -2254.400          22.250  
G21  20532034.280 1      -651.100          28.000  
G30  22734386.423 1      2871.200          27.000  
R 9  20453497.650 1     -1288.300          29.500  
R10  19969077.706 1      1863.861          19.250  
R21  20187824.871 1      2009.900          26.250  
> 2021  5 18  3  7 37.4419213  0  9                     
C 3  36458019.837 1        54.150          28.250  
G 1  20397276.558 1      1990.158          31.500  
G 7  20335709.980 1      1001.370          31.750  
G 8  21980284.765 1     -2256.800          21.500  
G21  20532158.881 1      -654.400          26.500  
G30  22733820.003 1      2865.750          27.250  
R 9  20453757.757 1     -1286.322          31.250  
R10  19968728.336 1      1863.861          19.250  
R21  20187481.496 1      2008.900          27.000  
> 2021  5 18  3  7 38.4419213  0  9                     
C 3  36458009.521 1        54.150          28.250  
G 1  20396910.689 1      1988.642          31.750  
G 7  20335520.089 1       999.590          33.500  
G 8  21980670.475 1     -2250.250          23.250  
G21  20532283.472 1      -651.000          26.750  
G30  22733306.036 1      2868.950          28.250  
R 9  20453974.085 1     -1287.976          31.750  
R10  19968379.255 1      1863.861          19.250  
R21  20187106.333 1      2008.050          25.000  
> 2021  5 18  3  7 39.4419213  0  9                     
C 3  36457999.070 1        54.150          28.250  
G 1  20396521.600 1      1987.534          32.250  
G 7  20335330.661 1       998.600          34.000  
G 8  21981083.630 1     -2259.450          23.250  
G21  20532398.634 1      -652.503          30.250  
G30  22732773.646 1      2867.900          26.000  
R 9  20454210.063 1     -1289.141          32.000  
R10  19968052.823 1      1866.363          17.000  
R21  20186727.737 1      2009.950          24.000  
> 2021  5 18  3  7 40.4419213  0  9                     
C 3  36458019.814 1        -2.350          28.250  
G 1  20396153.812 1      1987.714          33.000  
G 7  20335148.445 1       998.527          35.750  
G 8  21981542.670 1     -2250.700          24.000  
G21  20532536.896 1      -652.649          30.000  
G30  22732246.069 1      2865.600          26.500  
R 9  20454439.762 1     -1289.027          32.000  
R10  19967656.854 1      1859.658          20.000  
R21  20186301.790 1      2006.600          25.250  
> 2021  5 18  3  7 41.4419213  0  9                     
C 3  36458020.226 1        -2.350          28.250  
G 1  20395770.190 1      1988.104          33.000  
G 7  20334951.295 1       999.067          35.750  
G 8  21981948.702 1     -2254.900          25.250  
G21  20532656.926 1      -652.123          30.750  
G30  22731642.400 1      2868.750          27.000  
R 9  20454719.581 1     -1288.546          32.000  
R10  19967308.009 1      1859.658          20.000  
R21  20186006.607 1      2011.350          23.000  
> 2021  5 18  3  7 42.4419213  0  9                     
C 3  36458020.528 1        -2.350          28.250  
G 1  20395392.754 1      1986.998          33.500  
G 7  20334765.126 1       997.936          35.750  
G 8  21982393.296 1     -2257.100          24.000  
G21  20532798.130 1      -653.344          30.750  
G30  22731107.272 1      2867.400          27.750  
R 9  20454943.528 1     -1289.606          32.750  
R10  19966959.352 1      1859.658          20.000  
R21  20185550.025 1      2003.650          25.000  
> 2021  5 18  3  7 43.4419213  0  9                     
C 3  36457988.722 1        30.950          29.000  
G 1  20395029.378 1      1984.932          33.500  
G 7  20334574.430 1       995.915          36.000  
G 8  21982834.863 1     -2255.850          25.750  
G21  20532905.728 1      -655.246          31.250  
G30  22730579.010 1      2861.750          24.500  
R 9  20455178.238 1     -1291.575          31.500  
R10  19966610.966 1      1859.658          20.000  
R21  20185175.557 1      2002.250          24.000  
> 2021  5 18  3  7 44.4419213  0  9                     
C 3  36457983.115 1        30.950          29.000  
G 1  20394635.539 1      1983.966          31.250  
G 7  20334378.455 1       995.213          34.250  
G 8  21983245.368 1     -2255.850          25.750  
G21  20533039.824 1      -656.250          29.250  
G30  22730034.676 1      2861.750          24.500  
R 9  20455417.261 1     -1290.550          25.750  
R10  19966226.721 1      1863.261          18.000  
R21  20184801.504 1      2002.250          24.000  
> 2021  5 18  3  7 45.4419213  0  9                     
C 3  36457977.034 1        30.950          29.000  
G 1  20394261.313 1      1983.365          31.250  
G 7  20334197.294 1       995.650          36.000  
G 8  21983651.800 1     -2251.550          20.750  
G21  20533152.460 1      -654.850          27.750  
G30  22729453.593 1      2866.000          19.500  
R 9  20455664.204 1     -1290.550          27.750  
R10  19965877.377 1      1863.261          18.000  
R21  20184357.426 1      2003.000          21.250  
> 2021  5 18  3  7 46.4419213  0  9                     
C 3  36457967.281 1        33.050          30.250  
G 1  20393890.910 1      1980.050          28.250  
G 7  20334011.863 1       994.480          39.500  
G 8  21984094.435 1     -2253.950          24.000  
G21  20533317.187 1      -652.950          21.250  
G30  22728931.794 1      2867.100          22.500  
R 9  20455913.772 1     -1294.300          33.000  
R10  19965584.320 1      1860.809          23.000  
R21  20184005.910 1      2006.500          20.500  
> 2021  5 18  3  7 47.4419213  0  8                     
C 3  36457964.469 1        25.000          32.500  
G 7  20333823.180 1       995.191          40.250  
G 8  21984545.208 1     -2255.200          27.000  
G21  20533394.419 1      -657.000          27.250  
G30  22728337.192 1      2851.900          22.000  
R 9  20456179.574 1     -1293.400          29.750  
R10  19965240.044 1      1860.959          27.500  
R21  20183768.061 1      1999.550          24.750  
> 2021  5 18  3  7 48.4419213  0  8                     
C 3  36457960.151 1        25.000          32.500  
G 7  20333629.693 1       996.163          38.500  
G 8  21984951.307 1     -2250.700          29.250  
G21  20533525.008 1      -657.350          26.500  
G30  22727827.724 1      2863.600          24.750  
R 9  20456391.407 1     -1293.429          30.750  
R10  19964923.643 1      1862.360          22.500  
R21  20183310.157 1      2008.450          26.250  
> 2021  5 18  3  7 49.4419213  0  9                     
C 3  36457949.760 1        25.050          31.250  
G 1  20392755.163 1      1980.450          27.250  
G 7  20333438.827 1       996.107          38.250  
G 8  21985387.606 1     -2252.050          26.250  
G21  20533661.815 1      -654.300          25.500  
G30  22727292.396 1      2867.650          21.000  
R 9  20456589.072 1     -1291.100          24.000  
R10  19964592.474 1      1870.466          22.750  
R21  20182883.354 1      1999.850          21.500  
> 2021  5 18  3  7 50.4419213  0  9                     
C 3  36457945.433 1        25.050          31.250  
G 1  20392378.193 1      1979.900          27.250  
G 7  20333248.928 1       994.021          38.750  
G 8  21985817.078 1     -2251.579          30.500  
G21  20533769.910 1      -656.850          23.250  
G30  22726790.413 1      2862.050          22.500  
R 9  20456873.744 1     -1294.830          30.500  
R10  19964222.399 1      1862.810          25.250  
R21  20182510.282 1      1999.850          21.500  
> 2021  5 18  3  7 51.4419213  0  9                     
C 3  36457940.467 1        40.250          30.500  
G 1  20392005.982 1      1981.250          22.250  
G 7  20333060.789 1       993.205          38.000  
G 8  21986242.615 1     -2252.750          29.250  
G21  20533925.633 1      -659.350          22.000  
G30  22726177.169 1      2866.550          26.250  
R 9  20457155.680 1     -1295.000          27.000  
R10  19963821.408 1      1864.962          24.500  
R21  20182135.972 1      1999.850          21.500  
> 2021  5 18  3  7 52.4419213  0  9                     
C 3  36457932.891 1        40.250          30.500  
G 1  20391628.762 1      1978.850          27.750  
G 7  20332876.335 1       992.962          37.500  
G 8  21986657.446 1     -2253.550          29.250  
G21  20534044.869 1      -659.050          25.250  
G30  22725632.065 1      2866.550          26.250  
R 9  20457354.061 1     -1293.600          26.250  
R10  19963450.783 1      1864.011          23.750  
R21  20181762.649 1      1999.850          21.500  
> 2021  5 18  3  7 53.4419213  0 10                     
C 3  36457925.202 1        40.250          30.500  
G 1  20391253.227 1      1979.124          31.500  
G 7  20332686.372 1       991.758          42.250  
G 8  21987071.265 1     -2252.350          27.000  
G 9  23951049.432 1     -2276.150          16.750  
G21  20534165.191 1      -660.950          24.000  
G30  22725091.045 1      2858.200          22.250  
R 9  20457594.600 1     -1294.550          28.000  
R10  19963189.470 1      1858.958          21.500  
R21  20181388.613 1      1999.850          21.500  
> 2021  5 18  3  7 54.4419213  0 10                     
C 3  36457917.428 1        40.350          29.500  
G 1  20390860.820 1      1979.100          32.250  
G 7  20332497.524 1       989.733          42.500  
G 8  21987526.372 1     -2256.450          28.500  
G 9  23951475.458 1     -2277.000          17.250  
G21  20534291.425 1      -661.750          27.000  
G30  22724554.438 1      2862.400          28.500  
R 9  20457869.831 1     -1301.200          25.000  
R10  19962841.432 1      1858.958          21.500  
R21  20181015.093 1      1999.850          21.500  
> 2021  5 18  3  7 55.4419213  0 10                     
C 3  36457909.735 1        40.350          29.500  
G 1  20390499.072 1      1978.326          33.750  
G 7  20332308.457 1       988.988          43.250  
G 8  21987948.881 1     -2256.200          28.000  
G 9  23951913.556 1     -2278.200          22.500  
G21  20534391.957 1      -661.750          27.000  
G30  22724004.720 1      2862.400          27.750  
R 9  20458089.980 1     -1294.600          26.750  
R10  19962492.875 1      1858.958          21.500  
R21  20180641.654 1      1999.850          21.500  
> 2021  5 18  3  7 56.4419213  0 10                     
C 3  36457901.943 1        40.350          29.500  
G 1  20390113.841 1      1978.950          29.250  
G 7  20332120.489 1       989.246          42.250  
G 8  21988386.280 1     -2253.750          24.000  
G 9  23952347.358 1     -2278.200          22.500  
G21  20534537.359 1      -660.450          27.750  
G30  22723473.490 1      2864.900          27.000  
R 9  20458337.011 1     -1294.450          23.250  
R10  19962161.606 1      1857.657          19.250  
R21  20180267.815 1      1999.850          21.500  
> 2021  5 18  3  7 57.4419213  0 10                     
C 3  36457906.508 1        32.800          29.000  
G 1  20389751.461 1      1977.600          29.000  
G 7  20331931.389 1       990.116          40.000  
G 8  21988850.727 1     -2251.350          24.750  
G 9  23952780.927 1     -2278.200          22.500  
G21  20534665.439 1      -657.300          24.500  
G30  22722921.041 1      2866.400          25.000  
R 9  20458586.807 1     -1295.750          26.250  
R10  19961771.345 1      1859.858          23.000  
R21  20179894.342 1      1999.850          21.500  
> 2021  5 18  3  7 58.4419213  0 10                     
C 3  36457899.831 1        32.800          29.000  
G 1  20389373.940 1      1977.468          30.500  
G 7  20331740.339 1       989.725          41.500  
G 8  21989240.075 1     -2251.400          28.000  
G 9  23953154.386 1     -2273.500          20.250  
G21  20534806.859 1      -657.650          24.500  
G30  22722360.347 1      2867.500          22.750  
R 9  20458843.647 1     -1301.000          27.750  
R10  19961405.516 1      1860.709          28.500  
R21  20179659.822 1      1991.050          17.750  
> 2021  5 18  3  7 59.4419213  0 10                     
C 3  36457893.355 1        32.800          29.000  
G 1  20388977.135 1      1976.900          29.000  
G 7  20331552.189 1       989.386          41.000  
G 8  21989656.307 1     -2249.900          29.000  
G 9  23953615.887 1     -2275.800          22.750  
G21  20534947.581 1      -663.150          26.000  
G30  22721817.543 1      2857.750          22.750  
R 9  20459073.408 1     -1299.364          30.000  
R10  19961035.093 1      1859.876          31.000  
R21  20179287.600 1      1991.050          17.750  
> 2021  5 18  3  8  0.4419213  0 10                     
C 3  36457887.353 1        32.800          29.000  
G 1  20388622.174 1      1975.253          34.250  
G 7  20331365.112 1       987.973          38.000  
G 8  21990141.365 1     -2258.050          26.000  
G 9  23954049.080 1     -2275.800          22.750  
G21  20535032.716 1      -664.500          24.000  
G30  22721297.397 1      2862.750          23.500  
R 9  20459325.227 1     -1296.950          26.500  
R10  19960660.346 1      1860.459          25.750  
R21  20178915.851 1      1991.050          17.750  
> 2021  5 18  3  8  1.4419212  0 10                     
C 3  36457838.604 1        53.850          26.000  
G 1  20388197.785 1      1974.237          35.000  
G 7  20331145.481 1       987.049          38.000  
G 8  21990510.827 1     -2256.800          28.500  
G 9  23954452.418 1     -2275.800          22.750  
G21  20535135.662 1      -664.800          28.750  
G30  22720695.230 1      2867.350          24.250  
R 9  20459526.805 1     -1301.662          30.500  
R10  19960327.993 1      1857.357          29.750  
R21  20178513.946 1      1991.050          17.750  
> 2021  5 18  3  8  2.4419212  0 10                     
C 3  36457828.092 1        53.850          26.000  
G 1  20387825.723 1      1971.954          35.250  
G 7  20330960.790 1       985.872          33.500  
G 8  21990929.917 1     -2255.900          29.000  
G 9  23954885.299 1     -2275.800          22.750  
G21  20535265.453 1      -666.250          27.250  
G30  22720153.786 1      2861.300          24.500  
R 9  20459775.313 1     -1303.650          30.750  
R10  19959968.522 1      1856.754          35.500  
R21  20178141.884 1      1991.050          17.750  
> 2021  5 18  3  8  3.4419212  0 11                     
C 3  36457817.539 1        53.850          26.000  
G 1  20387454.820 1      1969.230          37.000  
G 7  20330779.955 1       987.307          31.250  
G 8  21991375.948 1     -2247.500          28.000  
G 9  23955318.139 1     -2275.800          22.750  
G21  20535398.800 1      -662.500          24.500  
G30  22719609.003 1      2861.300          24.500  
R 9  20460070.549 1     -1302.300          27.000  
R10  19959617.705 1      1859.682          38.000  
R20  19865358.460 1     -2388.900          21.000  
R21  20177769.482 1      1991.050          17.750  
> 2021  5 18  3  8  4.4419212  0 10                     
G 1  20387079.567 1      1967.757          37.500  
G 7  20330579.781 1       986.400          29.500  
G 8  21991778.957 1     -2250.550          27.500  
G 9  23955751.127 1     -2275.800          22.750  
G21  20535536.193 1      -663.800          26.000  
G30  22719109.936 1      2857.150          20.500  
R 9  20460279.292 1     -1301.550          27.000  
R10  19959264.937 1      1862.229          38.750  
R20  19865784.252 1     -2386.000          23.000  
R21  20177452.389 1      1992.200          18.250  
> 2021  5 18  3  8  5.4419212  0 11                     
C 3  36457826.218 1        20.400          30.500  
G 1  20386703.525 1      1967.939          37.750  
G 7  20330412.094 1       984.200          27.000  
G 8  21992203.360 1     -2246.200          28.500  
G 9  23956184.224 1     -2275.800          22.750  
G21  20535653.609 1      -665.950          26.000  
G30  22718521.041 1      2864.350          24.750  
R 9  20460511.229 1     -1305.900          28.500  
R10  19958936.561 1      1861.751          37.750  
R20  19866233.838 1     -2386.150          23.250  
R21  20177079.944 1      1992.200          18.250  
> 2021  5 18  3  8  6.4419212  0 12                     
C 3  36457818.084 1        31.250          31.250  
G 1  20386332.342 1      1964.269          38.000  
G 7  20330211.794 1       986.464          34.000  
G 8  21992641.618 1     -2247.550          26.500  
G 9  23956617.685 1     -2275.800          22.750  
G21  20535769.889 1      -665.830          30.500  
G22  24180298.234 1      1863.650          18.500  
G30  22717973.581 1      2867.800          23.750  
R 9  20460729.738 1     -1301.900          28.250  
R10  19958579.170 1      1861.733          36.500  
R20  19866684.987 1     -2390.300          27.000  
R21  20176610.130 1      1997.900          23.500  
> 2021  5 18  3  8  7.4419212  0 12                     
C 3  36457811.890 1        31.250          31.250  
G 1  20385958.903 1      1963.150          35.000  
G 7  20330020.928 1       987.352          38.250  
G 8  21993066.226 1     -2246.350          27.500  
G 9  23957050.388 1     -2275.800          22.750  
G21  20535878.216 1      -669.501          34.000  
G22  24179940.984 1      1865.800          18.500  
G30  22717446.947 1      2865.150          25.250  
R 9  20460984.364 1     -1301.600          28.500  
R10  19958215.623 1      1864.802          36.250  
R20  19867076.018 1     -2381.350          25.000  
R21  20176174.334 1      1997.900          21.250  
> 2021  5 18  3  8  8.4419212  0 12                     
C 3  36457806.242 1        31.250          31.250  
G 1  20385579.713 1      1968.350          32.500  
G 7  20329836.903 1       988.330          36.250  
G 8  21993491.379 1     -2248.850          26.500  
G 9  23957483.935 1     -2275.800          22.750  
G21  20536010.771 1      -667.947          37.500  
G22  24179582.179 1      1867.900          18.250  
G30  22716886.083 1      2866.000          26.000  
R 9  20461229.042 1     -1310.403          34.250  
R10  19957859.217 1      1866.055          34.750  
R20  19867513.163 1     -2379.250          25.250  
R21  20175887.779 1      1994.550          25.750  
> 2021  5 18  3  8  9.4419212  0 12                     
C 3  36457805.001 1        12.150          27.500  
G 1  20385202.233 1      1966.181          31.750  
G 7  20329667.479 1       987.350          31.000  
G 8  21993927.535 1     -2251.300          25.500  
G 9  23957916.794 1     -2275.800          22.750  
G21  20536135.444 1      -669.236          37.500  
G22  24179227.484 1      1868.150          17.500  
G30  22716335.023 1      2870.250          28.000  
R 9  20461489.520 1     -1304.223          31.000  
R10  19957514.715 1      1863.810          33.500  
R20  19868015.574 1     -2380.650          25.000  
R21  20175471.626 1      1985.113          33.000  
> 2021  5 18  3  8 10.4419212  0 12                     
C 3  36457802.791 1        12.150          27.500  
G 1  20384838.772 1      1963.010          32.750  
G 7  20329468.604 1       985.950          27.000  
G 8  21994350.730 1     -2255.450          27.000  
G 9  23958349.882 1     -2275.800          22.750  
G21  20536269.639 1      -671.354          36.250  
G22  24178870.319 1      1867.800          18.000  
G30  22715780.595 1      2868.050          29.000  
R 9  20461722.047 1     -1306.355          33.000  
R10  19957175.537 1      1858.608          30.250  
R20  19868499.027 1     -2386.100          22.000  
R21  20175115.960 1      1982.583          30.500  
> 2021  5 18  3  8 11.4419212  0 12                     
C 3  36457800.281 1        12.150          27.500  
G 1  20384454.627 1      1962.755          32.500  
G 7  20329279.623 1       983.828          31.750  
G 8  21994770.928 1     -2247.650          27.500  
G 9  23958782.671 1     -2275.800          22.750  
G21  20536407.132 1      -669.952          30.500  
G22  24178508.658 1      1867.800          17.500  
G30  22715240.557 1      2866.700          27.750  
R 9  20461976.459 1     -1304.700          29.750  
R10  19956829.765 1      1859.574          34.000  
R20  19868939.310 1     -2386.400          24.500  
R21  20174761.194 1      1980.800          28.250  
> 2021  5 18  3  8 12.4419212  0 12                     
C 3  36457784.895 1        35.500          29.750  
G 1  20384095.978 1      1966.939          33.000  
G 7  20329081.364 1       982.254          39.000  
G 8  21995220.820 1     -2252.000          23.500  
G 9  23959216.074 1     -2275.800          22.750  
G21  20536524.854 1      -671.485          33.750  
G22  24178152.408 1      1867.950          17.500  
G30  22714716.123 1      2862.550          24.500  
R 9  20462229.088 1     -1305.578          30.000  
R10  19956469.618 1      1858.020          32.250  
R20  19869328.644 1     -2392.650          24.250  
R21  20174380.361 1      1982.253          34.000  
> 2021  5 18  3  8 13.4419212  0 13                     
C 3  36457777.830 1        35.500          29.750  
G 1  20383716.571 1      1965.056          33.250  
G 7  20328897.122 1       979.863          36.250  
G 8  21995607.982 1     -2253.400          28.000  
G 9  23959649.105 1     -2275.800          22.750  
G14  24508555.305 1      2230.450          18.750  
G21  20536645.201 1      -672.750          31.500  
G22  24177796.984 1      1867.950          17.500  
G30  22714140.052 1      2859.247          30.500  
R 9  20462440.871 1     -1307.660          32.000  
R10  19956125.886 1      1854.122          32.750  
R20  19869857.908 1     -2395.750          24.750  
R21  20173991.661 1      1982.156          30.000  
> 2021  5 18  3  8 14.4419212  0 13                     
C 3  36457771.060 1        35.500          29.750  
G 1  20383337.758 1      1963.618          34.250  
G 7  20328709.577 1       979.302          33.500  
G 8  21996051.500 1     -2249.000          28.250  
G 9  23960082.130 1     -2275.800          22.750  
G14  24508127.026 1      2228.000          18.250  
G21  20536783.830 1      -673.241          31.250  
G22  24177441.555 1      1867.950          17.500  
G30  22713600.251 1      2862.300          27.000  
R 9  20462691.923 1     -1310.924          31.250  
R10  19955797.139 1      1854.254          29.000  
R20  19870185.706 1     -2396.050          23.500  
R21  20173635.332 1      1983.100          29.000  
> 2021  5 18  3  8 15.4419212  0 13                     
C 3  36457765.778 1        59.200          29.000  
G 1  20382966.130 1      1958.206          34.250  
G 7  20328538.809 1       979.900          29.250  
G 8  21996474.621 1     -2247.800          29.500  
G 9  23960515.144 1     -2275.800          22.750  
G14  24507705.932 1      2228.100          18.250  
G21  20536918.551 1      -672.350          26.000  
G22  24177085.815 1      1867.950          17.500  
G30  22713029.560 1      2859.050          24.750  
R 9  20462948.059 1     -1308.150          29.750  
R10  19955462.984 1      1856.206          26.000  
R20  19870633.710 1     -2396.050          23.500  
R21  20173333.256 1      1979.650          25.000  
> 2021  5 18  3  8 16.4419212  0 13                     
C 3  36457754.299 1        59.200          29.000  
G 1  20382594.600 1      1954.839          33.500  
G 7  20328311.180 1       978.600          25.500  
G 8  21996895.743 1     -2247.750          26.500  
G 9  23960947.958 1     -2275.800          22.750  
G14  24507279.240 1      2228.000          18.000  
G21  20537041.379 1      -676.800          28.000  
G22  24176730.474 1      1867.950          17.500  
G30  22712536.015 1      2852.350          26.250  
R 9  20463175.515 1     -1314.750          28.500  
R10  19955088.157 1      1859.230          30.000  
R20  19871223.015 1     -2389.400          19.750  
R21  20172850.803 1      1990.600          23.750  
> 2021  5 18  3  8 17.4419212  0 13                     
C 3  36457743.016 1        59.200          29.000  
G 1  20382227.464 1      1951.581          33.500  
G 7  20328172.485 1       977.450          24.250  
G 8  21997338.346 1     -2246.450          26.000  
G 9  23961381.267 1     -2275.800          22.750  
G14  24506853.944 1      2227.500          18.000  
G21  20537163.803 1      -673.100          28.000  
G22  24176375.030 1      1867.950          17.500  
G30  22711971.016 1      2856.450          23.250  
R 9  20463491.306 1     -1320.500          27.250  
R10  19954735.410 1      1862.437          32.000  
R20  19871617.951 1     -2383.100          24.000  
R21  20172546.623 1      1980.550          24.000  
> 2021  5 18  3  8 18.4419212  0 13                     
C 3  36457768.463 1        14.850          27.500  
G 1  20381853.887 1      1947.750          33.000  
G 7  20327960.496 1       978.850          28.500  
G 8  21997747.227 1     -2247.750          26.500  
G 9  23961814.432 1     -2275.800          22.750  
G14  24506443.792 1      2227.150          18.000  
G21  20537299.274 1      -676.650          25.500  
G22  24176019.740 1      1867.950          17.500  
G30  22711386.685 1      2871.750          25.000  
R 9  20463753.289 1     -1324.950          24.250  
R10  19954373.525 1      1859.658          26.000  
R20  19872038.524 1     -2389.250          21.750  
R21  20172184.438 1      1978.550          26.000  
> 2021  5 18  3  8 19.4419212  0 13                     
C 3  36457765.385 1        14.850          27.500  
G 1  20381485.062 1      1949.273          33.500  
G 7  20327766.151 1       977.400          29.250  
G 8  21998168.956 1     -2240.900          29.000  
G 9  23962247.552 1     -2275.800          22.750  
G14  24506018.308 1      2227.000          18.000  
G21  20537412.816 1      -673.450          25.250  
G22  24175664.407 1      1867.950          17.500  
G30  22710870.962 1      2874.150          28.000  
R 9  20463991.544 1     -1319.900          20.750  
R10  19954017.592 1      1859.658          26.000  
R20  19872489.333 1     -2381.100          21.250  
R21  20171794.628 1      1973.200          26.250  
> 2021  5 18  3  8 20.4419212  0 13                     
C 3  36457747.054 1        26.400          30.750  
G 1  20381111.177 1      1952.514          33.500  
G 7  20327577.238 1       978.500          27.500  
G 8  21998626.395 1     -2255.700          24.250  
G 9  23962680.408 1     -2275.800          22.750  
G14  24505593.757 1      2226.400          18.000  
G21  20537568.664 1      -679.950          27.250  
G22  24175308.509 1      1867.950          17.500  
G30  22710299.214 1      2861.950          31.750  
R 9  20464125.807 1     -1303.400          22.250  
R10  19953710.261 1      1857.407          28.000  
R20  19872934.480 1     -2381.100          21.250  
R21  20171418.045 1      1975.450          28.000  
> 2021  5 18  3  8 21.4419212  0 12                     
C 3  36457742.289 1        26.400          30.750  
G 1  20380741.864 1      1957.224          33.750  
G 7  20327391.398 1       978.500          27.500  
G 8  21999033.245 1     -2254.850          28.000  
G 9  23963113.640 1     -2275.800          22.750  
G14  24505166.285 1      2226.150          17.750  
G21  20537678.120 1      -680.950          28.500  
G30  22709761.418 1      2857.376          39.250  
R 9  20464429.229 1     -1306.550          23.500  
R10  19953307.671 1      1840.195          21.250  
R20  19873380.004 1     -2381.100          21.250  
R21  20171092.801 1      1976.450          27.500  
> 2021  5 18  3  8 22.4419212  0 12                     
C 3  36457740.731 1        39.500          32.500  
G 1  20380363.468 1      1962.498          33.750  
G 7  20327223.756 1       970.550          23.250  
G 8  21999462.189 1     -2254.850          28.000  
G 9  23963546.482 1     -2275.800          22.750  
G14  24504750.115 1      2221.000          23.500  
G21  20537802.775 1      -678.982          33.500  
G30  22709218.735 1      2853.046          42.250  
R 9  20464750.248 1     -1312.000          25.500  
R10  19952972.145 1      1845.548          25.500  
R20  19873797.257 1     -2381.100          18.000  
R21  20170674.833 1      1975.350          28.500  
> 2021  5 18  3  8 23.4419212  0 12                     
C 3  36457735.779 1        25.250          33.500  
G 1  20379998.165 1      1962.087          34.500  
G 7  20327037.129 1       972.900          25.500  
G 8  21999891.336 1     -2254.850          28.000  
G 9  23963979.526 1     -2275.800          22.750  
G14  24504309.564 1      2215.550          23.250  
G21  20537934.228 1      -679.487          32.750  
G30  22708677.754 1      2852.656          42.250  
R 9  20464922.173 1     -1313.100          27.000  
R10  19952649.712 1      1846.349          28.500  
R20  19874235.697 1     -2400.000          23.250  
R21  20170308.930 1      1977.250          29.750  
> 2021  5 18  3  8 24.4419212  0 11                     
C 3  36457725.201 1        34.800          33.000  
G 1  20379617.344 1      1961.473          34.750  
G 7  20326850.573 1       969.800          25.000  
G 8  22000346.936 1     -2258.600          20.500  
G14  24503870.283 1      2218.800          23.000  
G21  20538075.046 1      -680.199          33.000  
G30  22708134.145 1      2852.305          42.500  
R 9  20465200.896 1     -1314.500          26.500  
R10  19952327.351 1      1847.500          27.250  
R20  19874708.385 1     -2408.450          20.750  
R21  20169945.197 1      1975.752          31.000  
> 2021  5 18  3  8 25.4419212  0 11                     
C 3  36457717.695 1        15.000          33.500  
G 1  20379248.588 1      1961.157          34.250  
G 7  20326623.020 1       967.900          23.000  
G 8  22000741.152 1     -2257.800          20.500  
G14  24503462.254 1      2222.850          24.500  
G21  20538193.153 1      -680.559          32.750  
G30  22707589.711 1      2852.221          42.250  
R 9  20465395.449 1     -1312.950          25.000  
R10  19951982.278 1      1844.548          26.000  
R20  19875158.662 1     -2408.450          20.750  
R21  20169600.124 1      1976.400          29.250  
> 2021  5 18  3  8 26.4419212  0 11                     
C 3  36457707.288 1        50.450          33.000  
G 1  20378869.136 1      1959.669          34.500  
G 7  20326462.717 1       968.150          23.750  
G 8  22001170.840 1     -2257.800          20.500  
G14  24502994.963 1      2217.300          24.250  
G21  20538341.936 1      -681.903          32.750  
G30  22707050.770 1      2851.121          42.250  
R 9  20465659.053 1     -1310.450          25.250  
R10  19951571.049 1      1841.145          27.500  
R20  19875680.087 1     -2403.150          21.000  
R21  20169221.572 1      1973.805          31.500  
> 2021  5 18  3  8 27.4419212  0 11                     
C 3  36457700.629 1        27.000          33.500  
G 1  20378497.629 1      1959.693          34.500  
G 7  20326321.150 1       964.750          22.500  
G 8  22001589.287 1     -2255.600          18.750  
G14  24502569.794 1      2225.500          24.000  
G21  20538467.784 1      -681.912          32.500  
G30  22706505.983 1      2851.318          42.500  
R 9  20465919.509 1     -1316.950          24.000  
R10  19951315.861 1      1842.596          28.750  
R20  19876129.712 1     -2403.150          21.000  
R21  20168852.164 1      1973.490          33.000  
> 2021  5 18  3  8 28.4419212  0 11                     
C 3  36457708.252 1        36.300          32.500  
G 1  20378125.715 1      1959.993          34.000  
G 7  20326085.042 1       970.450          21.750  
G 8  22002018.418 1     -2255.600          18.750  
G14  24502204.175 1      2221.200          24.750  
G21  20538596.523 1      -681.784          32.500  
G30  22705963.786 1      2851.840          41.500  
R 9  20466163.368 1     -1312.250          26.000  
R10  19950935.253 1      1844.998          28.000  
R20  19876503.381 1     -2403.250          20.500  
R21  20168483.547 1      1973.589          32.750  
> 2021  5 18  3  8 29.4419212  0 10                     
G 1  20377745.302 1      1957.476          35.250  
G 7  20325933.071 1       967.300          22.750  
G 8  22002441.149 1     -2259.050          21.750  
G14  24501783.590 1      2219.700          23.750  
G21  20538716.764 1      -684.329          33.000  
G30  22705419.687 1      2849.683          42.250  
R 9  20466482.071 1     -1324.050          24.500  
R10  19950563.834 1      1837.543          28.250  
R20  19876952.794 1     -2403.250          20.500  
R21  20168094.740 1      1971.048          32.250  
> 2021  5 18  3  8 30.4419212  0 11                     
C 3  36457688.426 1        14.000          34.000  
G 1  20377389.086 1      1956.584          34.500  
G 7  20325748.936 1       967.300          22.750  
G 8  22002870.988 1     -2259.050          21.750  
G14  24501319.748 1      2221.250          24.750  
G21  20538859.702 1      -685.227          33.000  
G30  22704877.599 1      2849.016          42.500  
R 9  20466719.743 1     -1322.550          23.250  
R10  19950227.104 1      1840.545          27.750  
R20  19877438.694 1     -2410.950          20.750  
R21  20167755.312 1      1970.060          31.750  
> 2021  5 18  3  8 31.4419212  0 11                     
C 3  36457684.996 1        22.300          33.250  
G 1  20377008.517 1      1955.177          34.750  
G 7  20325565.030 1       967.300          22.750  
G 8  22003308.853 1     -2254.850          21.000  
G14  24500892.112 1      2221.200          22.500  
G21  20538988.181 1      -686.454          33.250  
G30  22704334.243 1      2848.004          42.500  
R 9  20466942.057 1     -1315.450          23.250  
R10  19949858.826 1      1840.245          27.750  
R20  19877889.750 1     -2410.950          20.750  
R21  20167387.035 1      1968.731          31.250  
> 2021  5 18  3  8 32.4419212  0 11                     
C 3  36457675.874 1        42.050          34.000  
G 1  20376638.745 1      1956.468          35.250  
G 7  20325380.830 1       967.300          22.750  
G 8  22003736.828 1     -2257.250          22.750  
G14  24500495.658 1      2223.150          23.750  
G21  20539115.165 1      -685.481          33.500  
G30  22703793.589 1      2849.468          42.750  
R 9  20467188.359 1     -1315.450          23.250  
R10  19949560.705 1      1842.296          29.000  
R20  19878337.811 1     -2413.150          20.500  
R21  20167030.753 1      1969.766          31.000  
> 2021  5 18  3  8 33.4419212  0 10                     
C 3  36457669.149 1        29.600          34.500  
G 1  20376264.774 1      1955.792          34.750  
G 8  22004164.802 1     -2258.050          22.750  
G14  24500090.209 1      2218.100          23.750  
G21  20539251.141 1      -686.026          33.500  
G30  22703249.636 1      2849.102          42.250  
R 9  20467386.092 1     -1316.700          19.250  
R10  19949146.862 1      1841.195          27.500  
R20  19878788.869 1     -2413.150          20.500  
R21  20166647.189 1      1967.150          27.750  
> 2021  5 18  3  8 34.4419212  0 10                     
C 3  36457659.820 1        49.000          34.000  
G 1  20375887.000 1      1956.305          34.750  
G 8  22004594.369 1     -2258.050          22.750  
G14  24499604.809 1      2224.100          23.000  
G21  20539368.024 1      -685.601          33.000  
G30  22702708.475 1      2849.812          42.250  
R 9  20467632.486 1     -1316.700          19.250  
R10  19948893.201 1      1844.748          26.750  
R20  19879230.428 1     -2408.750          20.000  
R21  20166242.134 1      1968.300          26.750  
> 2021  5 18  3  8 35.4419212  0 10                     
C 3  36457655.236 1        36.350          33.500  
G 1  20375516.069 1      1953.695          34.500  
G 8  22005041.872 1     -2249.250          19.000  
G14  24499182.015 1      2224.100          23.000  
G21  20539512.137 1      -688.400          32.500  
G30  22702163.664 1      2847.420          41.750  
R 9  20467879.427 1     -1316.700          19.250  
R10  19948486.296 1      1836.442          28.000  
R20  19879644.953 1     -2405.750          21.000  
R21  20165916.172 1      1966.150          28.000  
> 2021  5 18  3  8 36.4419212  0  9                     
G 1  20375142.260 1      1953.545          35.000  
G 8  22005443.925 1     -2247.750          20.750  
G14  24498839.384 1      2219.400          22.750  
G21  20539635.683 1      -688.405          32.500  
G30  22701623.470 1      2847.697          41.500  
R 9  20468125.888 1     -1316.700          19.250  
R10  19948167.948 1      1841.646          29.000  
R20  19880094.674 1     -2405.750          21.000  
R21  20165557.652 1      1967.200          26.750  
> 2021  5 18  3  8 37.4419212  0 10                     
C 3  36457642.868 1        36.250          33.000  
G 1  20374780.302 1      1953.457          34.500  
G 8  22005871.621 1     -2247.750          20.750  
G14  24498417.168 1      2219.400          22.750  
G21  20539770.182 1      -688.425          32.250  
G30  22701082.837 1      2847.811          41.750  
R 9  20468372.510 1     -1316.700          19.250  
R10  19947835.970 1      1837.543          29.000  
R20  19880544.555 1     -2405.750          21.000  
R21  20165171.711 1      1967.400          27.250  
> 2021  5 18  3  8 38.4419212  0 10                     
C 3  36457630.027 1        27.050          32.500  
G 1  20374404.712 1      1953.503          35.250  
G 8  22006299.475 1     -2247.750          20.750  
G14  24497981.619 1      2222.700          21.000  
G21  20539895.845 1      -688.500          32.000  
G30  22700539.063 1      2848.111          41.250  
R 9  20468619.289 1     -1316.700          19.250  
R10  19947494.556 1      1840.144          27.500  
R20  19880991.895 1     -2411.300          18.250  
R21  20164763.444 1      1966.000          25.500  
> 2021  5 18  3  8 39.4419212  0 10                     
C 3  36457623.713 1        15.250          32.750  
G 1  20374037.448 1      1952.344          34.500  
G 8  22006727.260 1     -2247.750          20.750  
G14  24497558.593 1      2222.700          21.000  
G21  20540036.729 1      -689.805          32.250  
G30  22700002.416 1      2847.147          41.000  
R 9  20468865.699 1     -1316.700          19.250  
R10  19947088.318 1      1836.992          27.500  
R20  19881442.764 1     -2411.300          18.250  
R21  20164456.737 1      1964.100          27.500  
> 2021  5 18  3  8 40.4419212  0 10                     
C 3  36457622.961 1         3.850          33.250  
G 1  20373658.958 1      1950.918          34.750  
G 8  22007146.818 1     -2239.300          16.750  
G14  24497136.933 1      2220.400          21.500  
G21  20540171.484 1      -691.055          32.500  
G30  22699464.436 1      2846.113          42.750  
R 9  20469112.277 1     -1316.700          19.250  
R10  19946795.269 1      1839.994          27.750  
R20  19881893.800 1     -2411.300          18.250  
R21  20164060.260 1      1959.850          28.000  
> 2021  5 18  3  8 41.4419212  0 10                     
C 3  36457615.354 1        35.500          34.000  
G 1  20373288.901 1      1950.022          34.250  
G 8  22007573.010 1     -2239.300          16.750  
G14  24496714.713 1      2220.400          21.500  
G21  20540291.288 1      -692.180          32.250  
G30  22698920.500 1      2845.454          42.500  
R 9  20469358.893 1     -1316.700          19.250  
R10  19946441.402 1      1836.592          28.500  
R20  19882418.924 1     -2416.300          18.500  
R21  20163710.290 1      1962.050          27.250  
> 2021  5 18  3  8 42.4419212  0 10                     
C 3  36457614.195 1        45.900          33.250  
G 1  20372918.099 1      1949.373          35.250  
G 8  22007999.056 1     -2239.300          16.750  
G14  24496292.046 1      2220.400          21.500  
G21  20540419.340 1      -692.649          32.250  
G30  22698377.916 1      2845.164          42.250  
R 9  20469626.949 1     -1324.150          15.250  
R10  19946087.687 1      1836.792          30.000  
R20  19882870.452 1     -2416.300          18.500  
R21  20163376.661 1      1959.750          24.750  
> 2021  5 18  3  8 43.4419212  0 10                     
C 3  36457600.045 1        23.850          33.000  
G 1  20372550.793 1      1949.992          35.000  
G 8  22008425.001 1     -2239.300          16.750  
G14  24495869.279 1      2220.400          21.500  
G21  20540552.088 1      -692.257          30.500  
G30  22697839.129 1      2845.921          41.750  
R 9  20469874.817 1     -1324.150          15.250  
R10  19945727.277 1      1836.492          29.000  
R20  19883237.637 1     -2422.250          18.500  
R21  20162968.584 1      1960.000          27.500  
> 2021  5 18  3  8 44.4419212  0 10                     
C 3  36457595.384 1        23.850          33.000  
G 1  20372180.085 1      1951.221          36.000  
G 8  22008936.283 1     -2269.050          18.000  
G14  24495472.789 1      2218.400          20.000  
G21  20540693.126 1      -690.955          32.000  
G30  22697298.439 1      2847.456          41.750  
R 9  20470125.879 1     -1324.400          22.500  
R10  19945424.022 1      1839.207          30.250  
R20  19883690.460 1     -2422.250          18.500  
R21  20162607.469 1      1961.250          25.750  
> 2021  5 18  3  8 45.4419212  0 10                     
C 3  36457587.208 1        36.750          32.750  
G 1  20371806.762 1      1950.537          35.500  
G 8  22009336.723 1     -2252.600          21.250  
G14  24495050.899 1      2218.400          20.000  
G21  20540813.561 1      -691.752          32.250  
G30  22696754.534 1      2847.013          42.000  
R 9  20470409.401 1     -1325.800          23.500  
R10  19945065.089 1      1838.485          30.500  
R20  19884209.019 1     -2424.400          18.000  
R21  20162319.587 1      1959.250          25.250  
> 2021  5 18  3  8 46.4419212  0 10                     
C 3  36457584.414 1        38.400          33.000  
G 1  20371438.222 1      1950.695          35.500  
G 8  22009765.331 1     -2252.600          21.250  
G14  24494628.696 1      2218.400          20.000  
G21  20540951.670 1      -691.578          33.000  
G30  22696213.913 1      2847.463          42.750  
R 9  20470695.907 1     -1327.850          23.500  
R10  19944721.132 1      1838.881          30.500  
R20  19884662.509 1     -2424.400          18.000  
R21  20161897.683 1      1963.600          27.000  
> 2021  5 18  3  8 47.4419212  0 10                     
C 3  36457576.801 1        29.950          33.750  
G 1  20371064.862 1      1950.934          36.000  
G 8  22010166.336 1     -2258.950          19.500  
G14  24494206.171 1      2218.400          20.000  
G21  20541084.660 1      -691.379          32.250  
G30  22695670.271 1      2847.969          42.500  
R 9  20470876.564 1     -1320.800          24.000  
R10  19944357.365 1      1836.942          30.000  
R20  19885115.678 1     -2424.400          18.000  
R21  20161459.569 1      1960.100          24.750  
> 2021  5 18  3  8 48.4419212  0 10                     
C 3  36457566.268 1        43.750          34.000  
G 1  20370691.280 1      1954.651          36.250  
G 8  22010629.174 1     -2253.400          21.750  
G14  24493811.003 1      2225.600          19.000  
G21  20541209.333 1      -687.617          32.750  
G30  22695131.803 1      2852.016          43.000  
R 9  20471106.164 1     -1314.200          24.000  
R10  19944031.450 1      1842.696          29.250  
R20  19885569.223 1     -2424.400          18.000  
R21  20161128.557 1      1966.800          21.750  
> 2021  5 18  3  8 49.4419212  0 10                     
C 3  36457558.182 1        42.450          34.000  
G 1  20370315.649 1      1962.728          35.500  
G 8  22011057.886 1     -2253.400          21.750  
