     3.03           OBSERVATION DATA    M: Mixed            RINEX VERSION / TYPE
RTKCONV demo5 b33c                      20210520 081344 UTC PGM / RUN BY / DATE 
log: C:\Users\Ivan_PolyU_Dktp\Dropbox\HUAWEI Exp\20210518_  COMMENT             
format: RINEX                                               COMMENT             
                                                            MARKER NAME         
                                                            MARKER NUMBER       
                                                            MARKER TYPE         
                                                            OBSERVER / AGENCY   
                                                            REC # / TYPE / VERS 
                                                            ANT # / TYPE        
 -2419217.8117  5385470.0308  2405342.5829                  APPROX POSITION XYZ 
        0.0000        0.0000        0.0000                  ANTENNA: DELTA H/E/N
G    4 C1C L1C D1C S1C                                      SYS / # / OBS TYPES 
C    4 C2I L2I D2I S2I                                      SYS / # / OBS TYPES 
  2021     5    18     3     7   15.0010000     GPS         TIME OF FIRST OBS   
  2021     5    18     4     3    3.9930000     GPS         TIME OF LAST OBS    
G                                                           SYS / PHASE SHIFT   
C                                                           SYS / PHASE SHIFT   
  0                                                         GLONASS SLOT / FRQ #
 C1C    0.000 C1P    0.000 C2C    0.000 C2P    0.000        GLONASS COD/PHS/BIS 
                                                            END OF HEADER       
> 2021  5 18  3  7 15.0010000  0 14                     
G 7  20591279.121 1 108207889.674 1       206.625          41.000  
C28  22406016.484 8 116673953.641 3     -2364.773          32.000  
G21  20780675.530 4 109203148.34622     -1444.467          33.000  
C23  23337183.311 9                     -2435.294          20.000  
G 8  22221884.459 9                     -3060.680          25.000  
C27  22504648.369 8                       420.957          25.000  
C 3  36710202.628 1 191159624.02121      -767.963          39.000  
C 1  37653692.624 9                      -791.078          29.000  
G 1  20657069.059 1 108553614.373 1      1195.116          39.000  
C16  39063069.407 4 203411611.24624     -2465.812          27.000  
C 8  38067172.558 9                       754.025          24.000  
G30  22997337.976 9                      2070.125          19.000  
C13  38849865.046 4 202301402.92712       757.716          34.000  
C10  37524135.751 1 195397979.519 1      -530.612          39.000  
> 2021  5 18  3  7 16.0010000  0 14                     
G 7  20591239.989 1 108207683.649 1       205.719          41.000  
C28  22406470.826 8 116676317.713 3     -2364.280          31.000  
G21  20780949.699 4 109204592.95222     -1444.623          32.000  
C23  23337654.746 9                     -2441.958          22.000  
G 8  22222466.040 9                     -3061.417          26.000  
C27  22504568.665 9                       420.620          25.000  
C 3  36710350.021 2 191160394.49431      -767.181          39.000  
C 1  37653846.221 9                      -800.537          29.000  
G 1  20656841.962 1 108552419.789 1      1194.044          39.000  
C16  39063541.836 4 203414077.37424     -2466.293          27.000  
C 8  38067029.301 9                       753.297          25.000  
G30  22996943.505 9                      2074.502          18.000  
C13  38849719.729 4 202300644.836 2       757.809          34.000  
C10  37524237.669 1 195398509.966 1      -530.299          39.000  
> 2021  5 18  3  7 17.0010000  0 14                     
G 7  20591201.101 1 108207478.311 1       205.337          41.000  
C28  22406922.543 8 116678682.205 3     -2364.283          31.000  
G21  20781224.584 8 109206038.38323     -1445.200          32.000  
C23  23338124.837 9                     -2441.879          22.000  
G 8  22223049.619 9                     -3061.545          26.000  
C27  22504487.853 9                       419.839          24.000  
C 3  36710497.519 2 191161162.11921      -767.418          38.000  
C 1  37654004.276 9                      -800.075          29.000  
G 1  20656614.821 1 108551225.844 1      1194.167          39.000  
C16  39064013.908 4 203416543.58024     -2465.820          27.000  
C 8  38066884.298 9                       751.676          25.000  
G30  22996549.000 9                      2068.601          19.000  
C13  38849575.032 4 202299886.889 2       758.672          34.000  
C10  37524339.456 1 195399040.427 1      -529.968          39.000  
> 2021  5 18  3  7 18.0010000  0 14                     
G 7  20591162.283 1 108207273.575 1       204.172          40.000  
C28  22407379.241 8 116681046.946 3     -2364.644          31.000  
G21  20781499.346 8 109207484.35423     -1446.274          32.000  
C23  23338591.954 9                     -2441.641          23.000  
G 8  22223630.336 9                     -3062.202          26.000  
C27  22504409.894 9                       420.848          22.000  
C 3  36710645.113 1 191161929.70221      -767.588          38.000  
C 1  37654152.978 9                      -797.900          29.000  
G 1  20656387.820 2 108550032.480 1      1193.844          39.000  
C16  39064487.132 4 203419009.81224     -2466.374          27.000  
C 8  38066738.249 9                       751.875          24.000  
G30  22996155.384 9                      2064.888          19.000  
C13  38849431.242 4 202299129.026 2       757.772          33.000  
C10  37524441.104 2 195399570.799 1      -530.544          38.000  
> 2021  5 18  3  7 19.0010000  0 14                     
G 7  20591123.247 2 108207069.241 1       204.510          40.000  
C28  22407830.504 8 116683411.888 4     -2365.160          29.000  
G21  20781772.015 8 109208930.36713     -1447.117          31.000  
C23  23339062.944 9                     -2433.856          22.000  
G 8  22224213.400 9                     -3060.427          25.000  
C27  22504329.562 9                       427.651          21.000  
C 3  36710792.445 2 191162697.08921      -766.714          37.000  
C 1  37654308.948 9                      -800.781          28.000  
G 1  20656160.618 2 108548839.555 1      1192.832          40.000  
C16  39064960.740 4 203421475.78124     -2466.157          25.000  
C 8  38066595.898 9                       752.742          23.000  
G30  22995760.136 9                      2072.712          19.000  
C13  38849285.410 8 202298370.943 3       758.573          32.000  
C10  37524542.987 2 195400100.877 1      -529.701          37.000  
> 2021  5 18  3  7 20.0010000  0 14                     
G 7  20591084.429 1 108206865.190 1       203.830          40.000  
C28  22408283.598 4 116685776.674 3     -2365.366          29.000  
G21  20782045.311 8 109210377.031 3     -1446.511          31.000  
C23  23339533.218 9                     -2438.084          23.000  
G 8  22224795.591 9                     -3060.489          25.000  
C27  22504248.672 9                       425.672          20.000  
C 3  36710939.672 2 191163464.14821      -767.173          37.000  
C 1  37654459.919 9                      -796.567          28.000  
G 1  20655933.783 2 108547646.858 1      1192.538          38.000  
C16  39065436.049 4 203423941.39324     -2465.742          26.000  
C 8  38066449.744 9                       762.411          22.000  
G30  22995368.815 9                      2072.179          19.000  
C13  38849136.839 8 202297612.590 3       758.397          32.000  
C10  37524644.704 2 195400630.528 1      -529.630          37.000  
> 2021  5 18  3  7 21.0010000  0 14                     
G 7  20591045.951 1 108206661.822 1       202.899          40.000  
C28  22408736.475 8 116688141.899 3     -2365.406          30.000  
G21  20782323.756 4 109211824.499 2     -1448.358          31.000  
C23  23340003.676 9                     -2435.601          24.000  
G 8  22225375.663 9                     -3061.268          26.000  
C27  22504170.861 9                       415.691          19.000  
C 3  36711086.996 2 191164231.25221      -767.222          38.000  
C 1  37654614.903 9                      -788.086          28.000  
G 1  20655706.869 1 108546454.831 1      1191.537          38.000  
C16  39065909.351 8                     -2465.866          26.000  
C 8  38066303.066 9                       759.485          23.000  
G30  22994974.885 9                      2067.132          19.000  
C13  38848991.784 4 202296854.332 2       758.065          32.000  
C10  37524746.221 2 195401160.158 1      -529.741          38.000  
> 2021  5 18  3  7 22.0010000  0 14                     
G 7  20591007.491 1 108206459.481 1       201.830          40.000  
C28  22409188.977 4 116690507.854 3     -2366.259          29.000  
G21  20782599.268 8 109213272.935 3     -1449.214          31.000  
C23  23340474.352 9                     -2440.888          25.000  
G 8  22225958.779 9                     -3060.399          26.000  
C27  22504089.875 9                       425.879          18.000  
C 3  36711234.485 2 191164998.24611      -767.461          38.000  
C 1  37654767.444 9                      -797.363          28.000  
G 1  20655480.103 1 108545263.818 1      1190.696          38.000  
C16  39066383.744 8                     -2466.671          26.000  
C 8  38066159.163 9                       750.101          24.000  
G30  22994582.316 9                      2061.196          19.000  
C13  38848846.302 8 202296096.569 2       756.647          32.000  
C10  37524848.156 1 195401690.078 1      -529.481          38.000  
> 2021  5 18  3  7 23.0010000  0 15                     
G 7  20590969.100 1 108206257.754 1       201.496          40.000  
C28  22409643.014 4 116692874.021 3     -2366.143          29.000  
G21  20782875.418 8 109214722.037 4     -1449.631          31.000  
C23  23340944.191 9                     -2440.020          25.000  
G 8  22226541.259 9                     -3062.568          26.000  
C27  22504007.492 9                       425.879          16.000  
C 3  36711382.096 1 191165765.752 1      -767.367          38.000  
C 1  37654920.744 9                      -806.738          28.000  
G 1  20655253.434 1 108544073.353 1      1190.413          39.000  
C16  39066856.645 4 203431339.22425     -2465.248          26.000  
C 8  38066016.106 9                       752.714          25.000  
G30  22994189.425 9                      2066.436          20.000  
C13  38848697.993 8 202295338.744 3       758.023          33.000  
C10  37524949.970 2 195402219.964 1      -529.936          38.000  
C25  27526928.650 9                     -3644.009          11.000  
> 2021  5 18  3  7 24.0010000  0 14                     
G 7  20590930.596 1 108206056.706 1       200.416          43.000  
C28  22410096.449 4 116695240.619 3     -2366.880          29.000  
G21  20783154.246 4 109216171.862 2     -1450.472          35.000  
C23  23341415.399 9                     -2440.746          25.000  
G 8  22227125.606 9                     -3061.281          28.000  
C27  22503926.331 9                       425.879          13.000  
C 3  36711529.560 1 191166533.330 1      -767.573          38.000  
C 1  37655073.626 9                      -791.943          28.000  
G 1  20655027.096 1 108542883.615 1      1189.244          42.000  
C16  39067331.430 8                     -2466.343          25.000  
C 8  38065871.479 9                       753.557          25.000  
G30  22993793.820 9                      2066.797          21.000  
C13  38848554.726 4 202294581.017 2       757.915          32.000  
C10  37525051.853 1 195402749.833 1      -530.313          38.000  
> 2021  5 18  3  7 25.0010000  0 14                     
G 7  20590892.529 1 108205856.280 1       199.998          43.000  
C28  22410551.882 4 116697607.558 3     -2367.230          29.000  
G21  20783431.111 4 109217622.284 2     -1450.134          35.000  
C23  23341885.298 9                     -2442.553          25.000  
G 8  22227710.231 8 116807394.58535     -3062.140          30.000  
C27  22503844.551 9                       425.879          10.000  
C 3  36711677.066 2 191167304.43731      -768.124          38.000  
C 1  37655226.333 9                      -799.167          29.000  
G 1  20654800.644 1 108541694.454 1      1189.213          42.000  
C16  39067803.799 8                     -2466.921          25.000  
C 8  38065726.284 9                       753.169          25.000  
G30  22993400.221 9                      2068.578          22.000  
C13  38848409.209 4 202293823.452 2       757.883          33.000  
C10  37525153.666 1 195403279.608 1      -530.187          38.000  
> 2021  5 18  3  7 26.0010000  0 14                     
G 7  20590854.435 1 108205656.548 1       199.655          43.000  
C28  22411005.213 8 116699974.893 4     -2368.796          29.000  
G21  20783707.156 4 109219073.467 2     -1452.029          35.000  
C23  23342356.254 9                     -2443.185          25.000  
G 8  22228294.884 8 116810456.16324     -3061.202          30.000  
C27  22503762.151 9                       425.879          11.000  
C 3  36711824.582 2 191168072.10421      -767.988          38.000  
C 1  37655379.633 9 196081410.66535      -797.025          28.000  
G 1  20654574.350 1 108540505.958 1      1188.342          42.000  
C16  39068276.656 4 203438737.84925     -2466.721          25.000  
C 8  38065581.535 9                       753.618          25.000  
G30  22993005.995 9                      2066.073          22.000  
C13  38848263.342 4 202293065.924 2       758.135          32.000  
C10  37525255.558 1 195403809.336 1      -529.519          38.000  
> 2021  5 18  3  7 27.0010000  0 14                     
G 7  20590816.358 1 108205457.405 1       199.206          42.000  
C28  22411457.121 4 116702342.371 3     -2367.569          28.000  
G21  20783980.846 4 109220525.216 2     -1451.547          34.000  
C23  23342825.062 9                     -2443.115          25.000  
G 8  22228873.978 8 116813517.83324     -3061.457          29.000  
C27  22503679.707 9                       425.879          11.000  
C 3  36711971.931 2 191168839.73431      -767.366          38.000  
C 1  37655532.776 9                      -798.877          28.000  
G 1  20654348.064 1 108539318.036 1      1187.936          42.000  
C16  39068752.585 4 203441204.08325     -2466.832          25.000  
C 8  38065437.928 9                       753.969          25.000  
G30  22992612.614 9                      2058.952          22.000  
C13  38848119.055 4 202292308.447 3       757.373          32.000  
C10  37525357.598 1 195404338.976 1      -529.198          38.000  
> 2021  5 18  3  7 28.0010000  0 14                     
G 7  20590778.369 1 108205258.700 1       198.108          42.000  
C28  22411915.748 4 116704710.107 3     -2368.419          28.000  
G21  20784257.955 4 109221977.419 2     -1452.303          34.000  
C23  23343291.934 9                     -2441.917          24.000  
G 8  22229458.752 4 116816579.29823     -3061.481          29.000  
C27  22503597.307 9                       425.879          12.000  
C 3  36712119.290 2 191169607.17921      -768.030          38.000  
C 1  37655684.933 9                      -797.412          28.000  
G 1  20654121.953 1 108538130.524 1      1187.064          42.000  
C16  39069225.049 9                     -2465.184          25.000  
C 8  38065292.742 9                       750.820          25.000  
G30  22992217.821 9                      2064.282          23.000  
C13  38847971.392 4 202291550.840 2       757.123          32.000  
C10  37525459.193 1 195404868.373 1      -529.605          38.000  
> 2021  5 18  3  7 29.0010000  0 14                     
G 7  20590740.581 1 108205060.434 1       197.925          43.000  
C28  22412369.131 4 116707077.865 3     -2367.630          28.000  
G21  20784535.815 4 109223430.092 2     -1453.384          34.000  
C23  23343763.169 9                     -2443.317          24.000  
G 8  22230041.511 4 116819640.72223     -3061.406          29.000  
C27  22503515.841 9                       432.244          14.000  
C 3  36712266.535 1 191170374.47121      -767.911          40.000  
C 1  37655837.963 9                      -802.930          28.000  
G 1  20653895.798 1 108536943.431 1      1186.830          42.000  
C16  39069698.378 9                     -2465.639          25.000  
C 8  38065149.118 9                       752.313          26.000  
G30  22991823.332 9                      2059.316          24.000  
C13  38847825.159 4 202290793.056 2       757.816          33.000  
C10  37525560.858 1 195405397.509 1      -528.954          40.000  
> 2021  5 18  3  7 30.0010000  0 15                     
G 7  20590702.967 1 108204862.877 1       197.445          42.000  
C28  22412823.438 8 116709446.103 3     -2368.367          30.000  
G21  20784812.261 4 109224883.494 1     -1453.773          34.000  
C23  23344233.051 9                     -2444.403          25.000  
G 8  22230621.905 4 116822702.29124     -3061.656          28.000  
C27  22503432.481 9                       418.866          16.000  
C 3  36712413.841 1 191171141.85121      -767.684          40.000  
C 1  37655991.516 9                      -797.363          30.000  
G 1  20653670.019 1 108535757.037 1      1186.258          42.000  
C16  39070172.422 9                     -2466.508          26.000  
C 8  38065004.247 8 198214434.65035       753.357          27.000  
G30  22991427.631 9                      2061.161          23.000  
C13  38847680.209 4 202290035.443 2       757.100          34.000  
G 4  25112937.460 9                     -3385.036          13.000  
C10  37525662.602 1 195405926.658 1      -529.308          40.000  
> 2021  5 18  3  7 31.0010000  0 15                     
G 7  20590665.458 1 108204665.791 1       196.577          42.000  
C28  22413277.231 8 116711814.368 3     -2367.715          29.000  
G21  20785089.397 4 109226337.363 2     -1454.234          34.000  
C23  23344701.964 9                     -2443.194          24.000  
G 8  22231205.964 4 116825763.737 3     -3061.925          28.000  
C27  22503353.693 9                       410.632          18.000  
C 3  36712561.365 1 191171909.02221      -767.134          38.000  
C 1  37656143.464 9                      -807.764          29.000  
G 1  20653444.160 1 108534571.065 1      1185.646          41.000  
C16  39070645.645 8 203451074.95135     -2465.259          26.000  
C 8  38064859.706 8 198213681.80025       752.664          26.000  
G30  22991033.946 9                      2060.932          23.000  
C13  38847536.009 4 202289277.706 2       757.443          33.000  
G 4  25113582.150 9                     -3385.036          13.000  
C10  37525764.144 1 195406455.518 1      -528.427          39.000  
> 2021  5 18  3  7 32.0010000  0 15                     
G 7  20590628.297 1 108204469.740 1       195.490          41.000  
C28  22413730.902 4 116714183.542 3     -2369.628          29.000  
G21  20785366.271 2 109227792.377 2     -1455.935          34.000  
C23  23345171.925 9                     -2437.043          24.000  
G 8  22231787.021 4 116828825.647 4     -3062.418          28.000  
C27  22503273.239 9                       409.388          19.000  
C 3  36712708.732 1 191172676.66821      -767.913          40.000  
C 1  37656296.520 9                      -796.973          29.000  
G 1  20653218.590 1 108533386.141 1      1184.337          41.000  
C16  39071119.925 8 203453541.19925     -2466.516          26.000  
C 8  38064714.372 4 198212929.31124       752.979          26.000  
G30  22990641.822 9                      2064.430          24.000  
C13  38847390.256 4 202288520.431 2       757.117          34.000  
G 4  25114227.843 9                     -3385.036          12.000  
C10  37525865.774 1 195406984.828 1      -529.666          40.000  
> 2021  5 18  3  7 33.0010000  0 14                     
G 7  20590590.919 1 108204274.283 1       195.333          42.000  
C28  22414186.082 4 116716552.909 3     -2369.401          28.000  
G21  20785643.276 2 109229247.898 1     -1455.731          35.000  
C23  23345642.575 9                     -2444.511          24.000  
G 8  22232370.574 4 116831887.593 3     -3061.840          27.000  
C27  22503194.190 9                       412.781          21.000  
C 3  36712856.369 1 191173443.78911      -767.515          40.000  
C 1  37656449.942 9                      -801.074          29.000  
G 1  20652993.142 1 108532201.799 1      1183.870          42.000  
C16  39071593.384 8 203456007.30925     -2466.118          27.000  
C 8  38064569.989 4 198212177.12725       752.781          27.000  
G30  22990249.715 9                      2060.924          23.000  
C13  38847245.724 4 202287763.189 2       757.250          34.000  
C10  37525967.309 1 195407513.947 1      -528.893          40.000  
> 2021  5 18  3  7 34.0010000  0 15                     
G 7  20590553.715 1 108204079.640 1       194.557          42.000  
C28  22414646.847 4 116718922.760 3     -2370.003          28.000  
G21  20785920.472 2 109230704.290 1     -1456.510          35.000  
C23  23346112.186 9                     -2440.198          22.000  
G 8  22232955.051 4 116834949.809 3     -3062.167          27.000  
C27  22503114.870 9                       413.771          21.000  
C 3  36713003.963 1 191174211.601 1      -767.689          39.000  
C 1  37656603.146 9 196087782.18435      -796.913          29.000  
G 1  20652767.851 1 108531018.247 1      1183.186          42.000  
C16  39072066.320 9                     -2466.429          26.000  
C 8  38064426.191 4 198211425.22224       751.507          26.000  
G30  22989857.321 9                      2059.196          23.000  
C13  38847099.928 4 202287006.170 2       757.669          34.000  
G 4  25115513.880 9                     -3385.036          11.000  
C10  37526068.921 1 195408043.204 1      -529.280          40.000  
> 2021  5 18  3  7 35.0010000  0 15                     
G 7  20590516.808 1 108203885.656 1       193.839          42.000  
C28  22415098.589 4 116721292.955 3     -2370.078          28.000  
G21  20786197.695 2 109232161.380 1     -1457.295          35.000  
C23  23346579.991 9                     -2448.124          21.000  
G 8  22233536.336 4 116838012.138 4     -3062.430          27.000  
C27  22503035.436 9                       412.669          22.000  
C 3  36713151.400 1 191174979.432 1      -767.562          39.000  
C 1  37656756.115 8 196088579.70225      -796.669          29.000  
G 1  20652542.656 1 108529835.305 1      1182.722          42.000  
C16  39072540.905 8                     -2466.093          26.000  
C 8  38064279.783 4 198210673.37724       751.827          27.000  
G30  22989465.328 9                      2056.633          23.000  
C13  38846956.600 4 202286249.210 2       757.200          34.000  
G 4  25116158.866 9                     -3385.036          11.000  
C10  37526170.447 1 195408572.370 1      -529.085          40.000  
> 2021  5 18  3  7 36.0010000  0 15                     
G 7  20590480.101 1 108203692.170 1       193.070          42.000  
C28  22415552.460 4 116723663.332 3     -2370.447          28.000  
G21  20786474.997 4 109233618.939 2     -1458.574          35.000  
C23  23347048.722 9                     -2448.318          21.000  
G 8  22234118.126 4 116841074.373 5     -3062.283          27.000  
C27  22502956.788 9                       404.205          22.000  
C 3  36713298.750 1 191175748.65531      -767.753          39.000  
C 1  37656909.293 9                      -796.729          29.000  
G 1  20652317.566 1 108528652.825 1      1182.387          42.000  
C16  39073014.190 9                     -2466.980          26.000  
C 8  38064134.659 4 198209921.60124       751.479          27.000  
G30  22989071.424 9                      2065.205          23.000  
C13  38846810.001 4 202285492.187 2       757.076          34.000  
G 4  25116801.968 9                     -3385.036          11.000  
C10  37526272.138 1 195409101.320 1      -528.620          40.000  
> 2021  5 18  3  7 37.0010000  0 14                     
G 7  20590443.456 1 108203499.226 1       192.814          42.000  
C28  22416009.543 4 116726034.016 3     -2370.934          27.000  
G21  20786752.193 4 109235077.042 2     -1458.403          34.000  
C23  23347517.400 9                     -2447.597          20.000  
G 8  22234701.094 8 116844136.662 5     -3062.366          26.000  
C27  22502876.700 9                       416.884          22.000  
C 3  36713446.300 1 191176516.28321      -767.247          37.000  
C 1  37657061.249 9                      -810.010          29.000  
G 1  20652092.824 1 108527470.922 1      1181.674          41.000  
C16  39073488.626 9                     -2466.121          25.000  
C 8  38063990.084 4 198209169.76425       751.719          26.000  
G30  22988679.649 9                      2064.482          22.000  
C13  38846663.288 4 202284735.136 2       757.911          33.000  
C10  37526373.672 1 195409630.167 1      -528.946          38.000  
> 2021  5 18  3  7 38.0010000  0 13                     
G 7  20590407.003 1 108203306.667 1       192.323          42.000  
C28  22416467.567 9                     -2370.246          27.000  
G21  20787029.870 4 109236535.599 2     -1458.878          35.000  
C23  23347986.837 9                     -2457.323          20.000  
G 8  22235285.258 4 116847198.730 5     -3062.410          25.000  
C27  22502797.372 9                       409.835          21.000  
C 3  36713593.789 1 191177283.74421      -767.448          40.000  
C 1  37657214.322 9                      -804.688          28.000  
G 1  20651868.144 1 108526289.356 1      1181.376          42.000  
C 8  38063846.241 8 198208417.92825       751.311          26.000  
G30  22988289.052 9                      2055.397          23.000  
C13  38846518.216 4 202283977.920 2       757.163          35.000  
C10  37526475.363 1 195410158.690 1      -528.631          41.000  
> 2021  5 18  3  7 39.0010000  0 14                     
G 7  20590370.601 1 108203114.634 1       191.962          42.000  
C28  22416921.945 8 116730768.57435     -2370.382          27.000  
G21  20787307.616 4 109237994.642 2     -1458.940          35.000  
C23  23348455.384 9                     -2434.525          21.000  
G 8  22235868.531 8 116850277.76935     -3062.164          25.000  
C27  22502717.031 9                       415.340          22.000  
C 3  36713741.183 1 191178051.07521      -767.294          39.000  
C 1  37657368.556 9                      -816.699          30.000  
G 1  20651643.560 1 108525108.285 1      1180.860          41.000  
C16  39074435.510 9                     -2466.058          25.000  
C 8  38063703.438 8                       751.127          26.000  
G30  22987897.330 9                      2056.620          23.000  
C13  38846373.048 4 202283220.592 2       757.371          35.000  
C10  37526576.906 1 195410686.988 1      -527.705          40.000  
> 2021  5 18  3  7 40.0010000  0 15                     
G 7  20590334.392 1 108202923.140 1       191.107          42.000  
C28  22417374.961 8 116733139.73825     -2371.420          27.000  
G21  20787585.136 2 109239454.310 1     -1460.284          35.000  
C23  23348922.474 9                     -2443.508          23.000  
G 8  22236450.662 4 116853339.76825     -3061.550          25.000  
C27  22502635.102 9                       413.211          22.000  
C 3  36713888.262 1 191178818.30721      -767.416          40.000  
C 1  37657521.359 9                      -798.962          30.000  
G 1  20651419.028 1 108523927.747 1      1180.488          42.000  
C16  39074910.863 9                     -2465.312          26.000  
C 8  38063556.856 4 198206913.58315       752.652          27.000  
G30  22987505.913 9                      2047.861          24.000  
C13  38846227.583 4 202282463.250 2       757.195          35.000  
G 9  24200239.612 9                     -3083.000          14.000  
C10  37526678.431 1 195411215.166 1      -527.955          41.000  
> 2021  5 18  3  7 41.0010000  0 15                     
G 7  20590298.017 1 108202731.832 1       191.266          41.000  
C28  22417829.635 8                     -2371.004          26.000  
G21  20787862.873 2 109240914.100 2     -1459.240          35.000  
C23  23349392.007 9                     -2447.561          24.000  
G 8  22237031.431 8 116856401.35925     -3060.908          25.000  
C27  22502555.477 9                       422.143          22.000  
C 3  36714035.420 2 191179585.12421      -766.610          38.000  
C 1  37657674.546 9                      -785.834          29.000  
G 1  20651195.002 1 108522747.391 1      1180.505          42.000  
C16  39075384.575 9                     -2462.286          25.000  
C 8  38063413.520 4 198206161.465 5       752.365          27.000  
G30  22987115.743 9                      2060.036          24.000  
C13  38846082.135 4 202281705.493 2       758.451          32.000  
G 9  24200831.139 9                     -3087.444          18.000  
C10  37526779.573 1 195411742.845 1      -527.622          37.000  
> 2021  5 18  3  7 42.0010000  0 14                     
G 7  20590261.633 1 108202541.126 1       190.286          43.000  
C28  22418283.777 9                     -2374.218          24.000  
G21  20788142.915 4 109242374.576 2     -1460.480          36.000  
C23  23349861.924 9                     -2449.882          22.000  
G 8  22237612.462 9                     -3059.441          23.000  
C27  22502475.494 9                       410.329          20.000  
C 3  36714182.743 2 191180351.94431      -766.748          36.000  
C 1  37657825.865 9                      -801.807          27.000  
G 1  20650970.889 1 108521567.601 1      1179.505          43.000  
C 8  38063270.306 4 198205409.325 4       752.048          26.000  
G30  22986724.230 9                      2061.470          24.000  
C13  38845936.592 4 202280947.786 3       757.647          31.000  
G 9  24201422.536 9                     -3082.613          19.000  
C10  37526880.862 2 195412270.373 1      -527.486          35.000  
> 2021  5 18  3  7 43.0010000  0 14                     
G 7  20590225.416 1 108202351.400 1       189.148          40.000  
C28  22418738.870 9                     -2373.429          23.000  
G21  20788416.377 4 109243836.029 2     -1461.600          33.000  
C23  23350332.277 9                     -2450.695          22.000  
G 8  22238193.720 9                     -3065.440          22.000  
C27  22502396.540 9                       415.923          20.000  
C 3  36714330.014 2 191181119.11121      -767.473          37.000  
C 1  37657979.968 9                      -800.244          27.000  
G 1  20650746.950 1 108520388.781 1      1178.537          40.000  
C 8  38063125.233 9                       749.648          26.000  
G30  22986334.995 9                      2049.964          23.000  
C13  38845791.275 4 202280190.522 2       756.943          31.000  
G 9  24202012.257 9                     -3082.613          18.000  
C10  37526982.126 2 195412798.216 1      -527.848          36.000  
> 2021  5 18  3  7 44.0010000  0 15                     
G 7  20590189.590 1 108202162.526 1       188.513          40.000  
C28  22419195.141 9                     -2371.212          22.000  
G21  20788693.705 4 109245298.339 2     -1462.011          33.000  
C23  23350802.159 9                     -2444.700          22.000  
G 8  22238775.668 9                     -3061.707          20.000  
C27  22502317.665 9                       414.441          21.000  
C 3  36714477.294 2 191181886.61521      -767.126          38.000  
C 1  37658134.211 9                      -828.174          31.000  
G 1  20650522.819 1 108519210.925 1      1177.533          40.000  
C16  39076807.754 9                     -2465.802          24.000  
C 8  38062984.078 8 198203914.57535       752.753          28.000  
G30  22985944.546 9                      2055.729          22.000  
C13  38845645.810 4 202279433.686 2       756.829          35.000  
G 9  24202598.637 9                     -3076.569          17.000  
C10  37527083.276 2 195413326.138 1      -528.079          39.000  
> 2021  5 18  3  7 45.0010000  0 15                     
G 7  20590153.643 1 108201974.281 1       188.136          39.000  
C28  22419653.044 9                     -2368.229          23.000  
G21  20788972.315 4 109246761.618 2     -1464.052          33.000  
C23  23351273.193 9                     -2447.704          21.000  
G 8  22239360.887 9                     -3062.951          25.000  
C27  22502237.944 9                       407.277          19.000  
C 3  36714624.452 2 191182652.47931      -767.925          38.000  
C 1  37658302.344 9                      -879.932          27.000  
G 1  20650298.828 1 108518033.979 1      1176.788          39.000  
C16  39077278.517 9                     -2467.076          25.000  
C 8  38062842.810 8 198203179.10534       749.331          28.000  
G30  22985554.150 9                      2062.839          23.000  
C13  38845500.135 4 202278677.431 3       755.999          34.000  
G 9  24203186.526 9                     -3083.222          16.000  
C10  37527184.365 2 195413853.724 1      -527.258          36.000  
> 2021  5 18  3  7 46.0010000  0 14                     
G 7  20590117.713 1 108201786.457 1       187.589          38.000  
C28  22420110.833 9                     -2371.102          25.000  
G21  20789250.558 9                     -1463.447          25.000  
C23  23351741.391 9                     -2451.561          23.000  
G 8  22239944.169 9                     -3061.698          22.000  
C27  22502161.477 9                       409.345          20.000  
C 3  36714771.845 2 191183419.83031      -768.281          37.000  
G 1  20650075.090 1 108516858.102 1      1175.296          37.000  
C16  39077753.643 9                     -2464.168          24.000  
C 8  38062699.780 9                       746.957          26.000  
G30  22985162.820 9                      2054.324          22.000  
C13  38845352.699 8 202277922.247 3       755.130          31.000  
G 9  24203774.162 9                     -3083.222          13.000  
C10  37527285.498 2 195414380.583 1      -526.965          35.000  
> 2021  5 18  3  7 47.0010000  0 13                     
G 7  20590081.975 1 108201598.986 1       186.958          38.000  
C28  22420569.433 9 116749756.55534     -2372.135          33.000  
G21  20789531.769 9                     -1468.319          27.000  
C23  23352212.023 9                     -2451.103          30.000  
G 8  22240526.308 9                     -3067.363          23.000  
C27  22502086.555 9                       416.755          21.000  
C 3  36714919.701 2 191184188.90621      -771.005          36.000  
G 1  20649851.797 1 108515683.430 1      1174.202          42.000  
C 8  38062550.458 9                       740.933          26.000  
G30  22984773.706 9                      2069.306          22.000  
C13  38845207.329 8 202277168.480 3       753.083          31.000  
G 9  24204362.994 9                     -3075.647          17.000  
C10  37527386.430 1 195414906.274 1      -525.372          42.000  
> 2021  5 18  3  7 48.0010000  0 13                     
G 7  20590046.315 1 108201411.781 1       186.638          41.000  
C28  22421021.507 9                     -2368.650          29.000  
G21  20789807.290 9                     -1464.984          31.000  
C23  23352688.920 9                     -2453.125          23.000  
G 8  22241103.963 9                     -3063.068          25.000  
C27  22502008.439 9                       411.310          22.000  
C 3  36715067.582 2 191184959.46031      -769.750          38.000  
G 1  20649628.225 2 108514510.056 1      1173.502          39.000  
C 8  38062410.778 9                       751.707          26.000  
G30  22984384.776 9                      2061.072          23.000  
C13  38845063.269 8 202276416.064 4       752.339          31.000  
G 9  24204951.729 9                     -3079.361          20.000  
C10  37527487.318 2 195415431.012 1      -525.427          38.000  
> 2021  5 18  3  7 49.0010000  0 14                     
G 7  20590011.066 2 108201225.382 1       186.485          41.000  
C28  22421477.315 9                     -2372.424          29.000  
G21  20790086.721 9                     -1466.434          26.000  
C23  23353158.462 9                     -2450.064          28.000  
G 8  22241688.379 9                     -3064.012          26.000  
C27  22501931.832 9                       401.452          22.000  
C 3  36715215.264 4 191185729.78522      -770.511          38.000  
G 1  20649404.967 2 108513337.934 1      1172.281          41.000  
C16  39079176.446 9                     -2465.582          29.000  
C 8  38062264.493 9                       748.525          26.000  
G30  22983994.353 9                      2057.829          23.000  
C13  38844918.214 8 202275664.744 3       750.227          33.000  
G 9  24205541.023 9                     -3082.420          20.000  
C10  37527588.102 2 195415955.235 1      -524.614          39.000  
> 2021  5 18  3  7 50.0010000  0 14                     
G 7  20589975.546 2 108201039.515 1       185.746          40.000  
C28  22421936.300 9                     -2373.180          33.000  
G21  20790363.385 9                     -1456.625          26.000  
C23  23353627.105 9                     -2449.945          26.000  
G 8  22242272.962 9                     -3061.356          26.000  
C27  22501853.969 9                       404.466          23.000  
C 3  36715363.329 4 191186500.22522      -770.220          35.000  
G 1  20649182.014 4 108512166.440 2      1171.067          38.000  
C16  39079651.502 9                     -2469.672          29.000  
C 8  38062121.584 9                       747.628          26.000  
G30  22983606.444 9                      2058.634          25.000  
C13  38844776.170 4 202274913.549 2       751.200          33.000  
G 9  24206129.898 9                     -3082.585          20.000  
C10  37527688.921 2 195416479.142 1      -524.641          36.000  
> 2021  5 18  3  7 51.0010000  0 13                     
G 7  20589940.122 2 108200854.272 1       184.824          39.000  
C28  22422395.014 8 116759247.30434     -2372.486          31.000  
G21  20790640.608 9                     -1466.471          26.000  
C23  23354097.057 9                     -2442.463          26.000  
G 8  22242854.987 9                     -3063.361          26.000  
C27  22501776.770 9                       406.422          22.000  
C 3  36715511.211 4 191187269.51532      -770.305          36.000  
G 1  20648959.175 4 108510995.452 2      1169.869          38.000  
C 8  38061981.476 9                       749.847          24.000  
G30  22983215.070 9                      2065.284          24.000  
C13  38844630.242 8 202274162.209 3       751.684          33.000  
G 9  24206716.173 9                     -3086.477          18.000  
C10  37527789.164 2 195417003.096 1      -523.414          36.000  
> 2021  5 18  3  7 52.0010000  0 14                     
G 7  20589904.140 2 108200669.369 1       183.938          42.000  
C28  22422848.833 9                     -2375.779          26.000  
G21  20790920.152 9                     -1463.556          25.000  
C23  23354567.855 9                     -2451.582          27.000  
G 8  22243429.388 9                     -3067.395          24.000  
C27  22501700.687 9                       406.676          23.000  
C 3  36715658.735 4 191188037.98532      -769.011          35.000  
C 1  37659370.393 9                      -792.334          27.000  
G 1  20648736.161 4 108509824.480 2      1170.143          40.000  
C 8  38061841.054 9                       751.633          23.000  
G30  22982825.878 9                      2052.331          24.000  
C13  38844486.662 8 202273409.883 4       751.690          32.000  
G 9  24207305.222 9                     -3095.194          16.000  
C10  37527889.433 2 195417527.195 1      -524.549          39.000  
> 2021  5 18  3  7 53.0010000  0 12                     
G 7  20589868.707 1 108200484.519 1       185.025          41.000  
C28  22423303.769 9                     -2368.210          26.000  
G21  20791203.020 9                     -1474.113          24.000  
C23  23355040.477 9                     -2464.657          26.000  
G 8  22244014.677 9                     -3068.394          25.000  
C27  22501621.855 9                       408.299          29.000  
G 1  20648513.532 2 108508653.993 1      1170.211          37.000  
C 8  38061698.355 9                       743.037          22.000  
G30  22982434.330 9                      2060.278          24.000  
C13  38844343.038 8 202272657.189 5       752.994          28.000  
G 9  24207894.298 9                     -3086.719          17.000  
C10  37527989.998 2 195418050.754 1      -523.628          30.000  
> 2021  5 18  3  7 54.0010000  0 12                     
G 7  20589833.841 4 108200301.025 2       183.847          33.000  
C28  22423760.188 9                     -2376.917          26.000  
G21  20791481.490 9                     -1461.394          22.000  
C23  23355509.530 9                     -2456.059          25.000  
G 8  22244598.482 9                     -3079.461          22.000  
C27  22501545.319 9                       404.402          20.000  
G 1  20648290.605 4 108507483.358 2      1171.144          30.000  
C 8  38061556.406 9                       746.858          21.000  
G30  22982042.599 9                      2063.964          21.000  
C13  38844198.306 9                       754.831          25.000  
G 9  24208477.921 9                     -3086.719          16.000  
C10  37528090.791 4 195418575.709 2      -527.040          34.000  
> 2021  5 18  3  7 55.0010000  0 12                     
G 7  20589799.177 4 108200118.530 2       182.197          37.000  
C28  22424221.711 9                     -2375.589          27.000  
G21  20791761.217 9                     -1471.014          20.000  
C23  23355989.097 9                     -2464.971          25.000  
G 8  22245183.658 9                     -3070.011          23.000  
C27  22501471.330 9                       404.402          17.000  
G 1  20648067.495 4 108506311.471 2      1171.297          38.000  
C 8  38061411.456 9                       745.331          22.000  
G30  22981651.801 9                      2056.784          20.000  
C13  38844050.048 9                       755.860          25.000  
G 9  24209066.717 9                     -3078.448          20.000  
C10  37528191.749 2 195419102.321 1      -526.631          36.000  
> 2021  5 18  3  7 56.0010000  0 12                     
G 7  20589764.730 2 108199937.083 1       180.701          36.000  
C28  22424675.365 9 116771151.42535     -2377.076          27.000  
G21  20792042.000 9                     -1471.014          18.000  
C23  23356461.291 9                     -2454.583          25.000  
G 8  22245766.452 9                     -3064.091          24.000  
C27  22501393.851 9                       404.402          15.000  
G 1  20647844.787 2 108505140.697 1      1170.013          36.000  
C 8  38061269.298 9                       749.421          24.000  
G30  22981260.620 9                      2051.395          20.000  
C13  38843901.294 9                       755.994          25.000  
G 9  24209657.285 9                     -3084.446          22.000  
C10  37528292.794 2 195419629.277 1      -526.981          36.000  
> 2021  5 18  3  7 57.0010000  0 13                     
G 7  20589730.440 2 108199756.618 1       180.131          37.000  
C28  22425131.269 9                     -2376.910          32.000  
G21  20792322.879 9                     -1471.014          15.000  
C23  23356925.388 9                     -2454.558          27.000  
G 8  22246350.423 9                     -3062.399          24.000  
C27  22501319.050 9                       403.322          28.000  
C 3  36716385.816 9                      -760.891          33.000  
G 1  20647621.974 2 108503971.301 1      1168.667          36.000  
C 8  38061126.573 8 198194242.23935       747.855          26.000  
G30  22980870.215 9                      2053.326          19.000  
C13  38843760.139 8 202269620.53334       755.906          31.000  
G 9  24210244.799 9                     -3083.025          22.000  
C10  37528394.041 2 195420156.295 1      -526.315          41.000  
> 2021  5 18  3  7 58.0010000  0 14                     
G 7  20589696.046 2 108199576.739 1       179.431          35.000  
C28  22425579.199 9                     -2375.758          28.000  
G21  20792602.955 9                     -1451.409          16.000  
C23  23357389.799 9 121628064.09535     -2455.901          28.000  
G 8  22246932.013 9                     -3060.430          22.000  
C27  22501243.718 9                       401.860          28.000  
C 3  36716544.647 9                      -768.601          30.000  
C 1  37660286.835 9                      -770.430          28.000  
G 1  20647399.859 4 108502803.325 2      1167.711          34.000  
C 8  38060980.183 9                       746.349          25.000  
G30  22980478.876 9                      2056.831          20.000  
C13  38843617.658 9                       754.143          30.000  
G 9  24210833.464 9                     -3081.553          22.000  
C10  37528495.112 2 195420682.583 1      -526.173          38.000  
> 2021  5 18  3  7 59.0010000  0 15                     
G 7  20589661.547 4 108199396.984 2       179.315          33.000  
C28  22426040.835 9                     -2381.992          29.000  
G21  20792882.830 9                     -1477.607          19.000  
C23  23357867.150 9                     -2454.660          27.000  
G 8  22247516.325 9                     -3049.827          21.000  
C27  22501161.239 9                       400.879          19.000  
C 3  36716692.049 9                      -772.822          30.000  
C 1  37660437.988 9                      -744.092          27.000  
G 1  20647177.796 4 108501635.933 2      1167.028          34.000  
C16  39083916.693 9                     -2466.714          28.000  
C 8  38060836.672 9                       755.361          24.000  
G30  22980088.349 9                      2054.335          20.000  
C13  38843469.916 8 202268124.88225       752.002          31.000  
G 9  24211421.249 9                     -3087.263          20.000  
C10  37528595.844 2 195421208.002 1      -525.080          37.000  
> 2021  5 18  3  8  0.0010000  0 13                     
G 7  20589627.606 2 108199217.459 1       178.550          41.000  
C28  22426500.806 9                     -2377.508          29.000  
G21  20793162.182 9                     -1469.854          21.000  
C23  23358341.656 9                     -2449.152          26.000  
G 8  22248099.842 9                     -3063.271          23.000  
C27  22501083.656 9                       401.194          29.000  
C 3  36716839.024 9 191194188.58535      -770.045          30.000  
G 1  20646955.908 4 108500469.692 2      1165.405          39.000  
C 8  38060692.865 9                       742.447          22.000  
G30  22979698.668 9                      2052.948          18.000  
C13  38843328.046 8 202267371.88223       751.688          32.000  
G 9  24212009.688 9                     -3085.999          22.000  
C10  37528696.392 2 195421732.640 1      -524.448          37.000  
> 2021  5 18  3  8  1.0010000  0 14                     
G 7  20589593.709 1 108199038.766 1       178.739          45.000  
C28  22426955.820 9                     -2378.049          29.000  
G21  20793440.679 9                     -1474.135          30.000  
C23  23358808.432 9                     -2446.000          25.000  
G 8  22248676.991 9                     -3062.375          31.000  
C27  22501002.556 9 117168593.61535       402.501          33.000  
C 3  36716987.115 8 191194957.44623      -768.418          34.000  
G 1  20646734.098 2 108499303.488 1      1165.858          42.000  
C 8  38060548.901 9                       753.929          23.000  
G30  22979308.097 9                      2050.474          21.000  
C13  38843184.160 4 202266618.04322       754.139          34.000  
G 9  24212598.824 9                     -3086.513          22.000  
C10  37528797.394 2 195422257.720 1      -524.463          38.000  
C 6  38613757.414 9                     -2380.698          24.000  
> 2021  5 18  3  8  2.0010000  0 14                     
G 7  20589559.803 1 108198860.282 1       178.869          41.000  
C28  22427418.190 9                     -2378.614          28.000  
G21  20793721.688 9                     -1473.194          22.000  
C23  23359283.584 9                     -2452.096          31.000  
G 8  22249253.921 9                     -3062.182          28.000  
C27  22500918.995 8 117168191.58424       401.638          23.000  
C 3  36717132.065 8 191195726.03823      -767.939          35.000  
C 1  37660907.504 9                      -839.209          28.000  
G 1  20646512.279 2 108498137.786 1      1166.061          39.000  
C 8  38060405.530 9                       749.451          25.000  
G30  22978916.933 9                      2051.071          22.000  
C13  38843040.440 8 202265864.26223       754.621          34.000  
G 9  24213185.483 9                     -3071.012          20.000  
C10  37528898.142 2 195422782.054 1      -523.586          36.000  
> 2021  5 18  3  8  3.0010000  0 15                     
G 7  20589525.915 2 108198681.781 1       177.889          40.000  
C28  22427863.598 9                     -2372.546          29.000  
G21  20794003.544 9                     -1479.741          22.000  
C23  23359757.026 9                     -2456.368          31.000  
G 8  22249838.870 9                     -3055.277          27.000  
C27  22500847.406 9                       407.116          27.000  
C 3  36717280.183 4 191196495.19822      -769.847          39.000  
C 1  37661064.521 9                      -822.070          28.000  
G 1  20646290.871 4 108496973.424 2      1163.884          40.000  
C 8  38060263.485 9                       759.849          23.000  
G30  22978528.675 9                      2052.426          22.000  
C13  38842895.036 4 202265111.77022       750.814          34.000  
G 9  24213773.905 9                     -3083.558          19.000  
C10  37528998.586 2 195423305.021 1      -521.219          39.000  
C 6  38614669.615 9                     -2383.908          29.000  
> 2021  5 18  3  8  4.0010000  0 14                     
G 7  20589493.170 9                       178.343          32.000  
C28  22428315.811 9 116790113.80635     -2371.954          38.000  
G21  20794283.655 9                     -1482.574          23.000  
C23  23360229.482 9                     -2464.625          32.000  
G 8  22250419.639 9                     -3064.204          28.000  
C27  22500766.812 9 117167365.96735       398.296          33.000  
C 3  36717429.086 2 191197266.54221      -772.352          40.000  
G 1  20646069.716 2 108495812.404 1      1160.120          42.000  
C 8  38060117.915 9                       736.167          24.000  
G30  22978138.261 9                      2048.639          23.000  
C13  38842751.168 8 202264364.09223       744.608          34.000  
G 9  24214360.860 9                     -3085.483          17.000  
C10  37529098.200 2 195423823.963 1      -518.051          40.000  
C 7  36956952.659 9 192444519.15135      -436.498          37.000  
> 2021  5 18  3  8  5.0010000  0 14                     
G 7  20589457.859 9 108198330.78635       178.972          34.000  
C28  22428768.296 8 116792487.11722     -2374.454          41.000  
G21  20794562.745 9                     -1474.197          25.000  
C23  23360699.861 9                     -2449.351          31.000  
G 8  22251002.014 9                     -3054.782          27.000  
C27  22500694.839 9                       396.531          22.000  
C 3  36717577.543 2 191198039.15121      -771.663          39.000  
G 1  20645849.005 2 108494653.535 1      1159.083          43.000  
C 8  38059973.907 9                       753.401          25.000  
G30  22977748.118 9                      2064.452          23.000  
C13  38842606.610 4 202263618.71222       746.479          36.000  
G 9  24214949.308 9                     -3094.377          16.000  
C10  37529197.579 4 195424340.893 2      -517.380          37.000  
C 7  36957032.066 8 192444954.89922      -435.464          40.000  
> 2021  5 18  3  8  6.0010000  0 14                     
G 7  20589423.404 9                       178.108          24.000  
C28  22429224.715 8 116794860.17922     -2370.685          36.000  
G21  20794843.615 9                     -1475.487          25.000  
C23  23361169.080 9                     -2469.529          31.000  
G 8  22251588.403 9                     -3060.493          27.000  
C27  22500625.832 9                       413.271          23.000  
C 3  36717725.792 2 191198802.07631      -771.792          37.000  
G 1  20645628.513 2 108493494.338 1      1159.116          38.000  
C 8  38059829.821 9                       740.061          27.000  
G30  22977356.770 9                      2047.400          23.000  
C13  38842460.116 8                       743.510          31.000  
G 9  24215539.369 9                     -3094.377          15.000  
C10  37529296.819 4 195424857.737 3      -515.907          32.000  
C 7  36957112.564 4 192445390.40721      -434.251          36.000  
> 2021  5 18  3  8  7.0010000  0 14                     
G 7  20589392.264 9                       178.084          37.000  
C28  22429679.598 4 116797232.55922     -2370.544          38.000  
G21  20795122.914 9                     -1482.176          25.000  
C23  23361640.533 9                     -2460.482          29.000  
G 8  22252169.984 9                     -3051.607          26.000  
C27  22500545.683 9                       396.969          23.000  
C 3  36717874.319 4 191199574.95032      -775.398          34.000  
G 1  20645408.501 4 108492337.939 2      1154.596          39.000  
C 8  38059686.345 9 198186752.12135       734.668          31.000  
G30  22976966.060 9                      2051.926          20.000  
C13  38842321.919 9                       739.792          25.000  
G 9  24216129.422 9                     -3094.377          12.000  
C10  37529395.517 8 195425372.533 3      -512.659          31.000  
C 7  36957198.576 4 192445824.38922      -432.928          36.000  
> 2021  5 18  3  8  8.0010000  0 12                     
G 7  20589354.344 8 108197807.91033       176.631          36.000  
C28  22430135.328 4 116799603.93522     -2372.966          40.000  
G21  20795396.735 9 109280546.63533     -1478.640          35.000  
C23  23362115.624 9                     -2459.189          29.000  
G 8  22252746.443 9                     -3048.595          24.000  
C27  22500459.950 9                       397.929          37.000  
G 1  20645189.091 2 108491184.155 1      1152.664          38.000  
C 8  38059546.656 8 198186017.63824       733.746          30.000  
G30  22976575.035 9                      2054.046          19.000  
C13  38842181.191 9                       737.580          24.000  
C10  37529495.446 4 195425885.877 2      -514.069          37.000  
C 7  36957280.365 4 192446256.83522      -433.028          32.000  
> 2021  5 18  3  8  9.0010000  0 13                     
G 7  20589320.465 4 108197631.23222       175.565          33.000  
C28  22430592.210 4 116801976.15722     -2373.176          39.000  
G21  20795675.135 8 109282026.30323     -1478.982          38.000  
C23  23362587.521 9                     -2460.980          24.000  
G 8  22253323.347 9                     -3055.505          23.000  
C27  22500385.909 9                       396.653          25.000  
G 1  20644969.296 4 108490030.800 2      1153.087          38.000  
C 8  38059404.760 8 198185282.90623       734.086          32.000  
G30  22976183.435 9                      2055.369          22.000  
C13  38842037.035 9                       750.501          23.000  
G 9  24217307.687 9                     -3094.377          10.000  
C10  37529594.938 4 195426400.144 2      -515.085          35.000  
C 7  36957363.978 8 192446689.78823      -432.509          33.000  
> 2021  5 18  3  8 10.0010000  0 14                     
G 7  20589288.156 9                       162.594          28.000  
C28  22431048.934 4 116804349.33722     -2373.411          40.000  
G21  20795955.316 8 109283506.74723     -1482.235          35.000  
C23  23363066.120 9                     -2450.535          26.000  
G 8  22253905.155 9                     -3026.817          23.000  
C27  22500317.757 9                       369.096          24.000  
C 3  36718323.331 9                      -785.477          38.000  
G 1  20644749.895 4 108488877.701 2      1153.311          38.000  
C 8  38059261.860 8 198184547.66323       735.699          31.000  
G30  22975791.198 9                      2057.048          21.000  
C13  38841892.024 9                       740.539          21.000  
G 9  24217896.658 9                     -3094.377          10.000  
C10  37529691.307 8 195426915.109 3      -513.069          34.000  
C 7  36957447.835 8 192447123.54123      -433.503          33.000  
> 2021  5 18  3  8 11.0010000  0 14                     
G 7  20589256.039 9                       177.419          27.000  
C28  22431505.249 2 116806723.44421     -2375.071          40.000  
G21  20796240.252 8                     -1481.069          29.000  
C23  23363534.178 9                     -2462.446          25.000  
G 8  22254483.865 9                     -3059.851          21.000  
C27  22500244.344 9                       400.346          21.000  
C 3  36718468.028 9 191202666.65435      -774.753          33.000  
G 1  20644530.580 4 108487724.519 2      1154.127          36.000  
C 8  38059123.471 8 198183811.53724       736.673          28.000  
G30  22975399.798 9                      2036.425          21.000  
C13  38841753.460 9                       748.751          20.000  
G 9  24218486.022 9                     -3094.377          10.000  
C10  37529791.410 8 195427430.858 3      -516.971          33.000  
C 7  36957532.085 8 192447557.78623      -434.712          36.000  
> 2021  5 18  3  8 12.0010000  0 13                     
G 7  20589222.072 9 108197091.27535       173.062          29.000  
