     3.03           OBSERVATION DATA    M: Mixed            RINEX VERSION / TYPE
RTKCONV demo5 b33c                      20210520 081154 UTC PGM / RUN BY / DATE 
log: C:\Users\Ivan_PolyU_Dktp\Dropbox\HUAWEI Exp\20210518_  COMMENT             
format: RINEX                                               COMMENT             
                                                            MARKER NAME         
                                                            MARKER NUMBER       
                                                            MARKER TYPE         
                                                            OBSERVER / AGENCY   
BFN16413056         NOV CDSR0G55N       OEM060710RN0000     REC # / TYPE / VERS 
                                                            ANT # / TYPE        
 -2419223.1668  5385476.7986  2405344.6619                  APPROX POSITION XYZ 
        0.0000        0.0000        0.0000                  ANTENNA: DELTA H/E/N
G    8 C1C L1C D1C S1C C2W L2W D2W S2W                      SYS / # / OBS TYPES 
R    8 C1C L1C D1C S1C C2P L2P D2P S2P                      SYS / # / OBS TYPES 
C    8 C2I L2I D2I S2I C7I L7I D7I S7I                      SYS / # / OBS TYPES 
  2021     5    18     3     7   15.0000000     GPS         TIME OF FIRST OBS   
  2021     5    18     4     3    4.0000000     GPS         TIME OF LAST OBS    
G                                                           SYS / PHASE SHIFT   
R                                                           SYS / PHASE SHIFT   
C                                                           SYS / PHASE SHIFT   
  1 R10 -7                                                  GLONASS SLOT / FRQ #
 C1C    0.000 C1P    0.000 C2C    0.000 C2P    0.000        GLONASS COD/PHS/BIS 
                                                            END OF HEADER       
> 2021  5 18  3  7 15.0000000  0  4                     
G 7  20340126.027 7 106888082.857 7      1010.943          43.750                                                                  
G 1  20405917.526 7 107233814.353 7      1999.302          46.000    20405918.202 7  83558824.422 7      1557.899          46.000  
C13  38598736.218 6 200993754.74626      1554.792          37.000    38598743.553 5 155421134.26825      1202.549          32.750  
C 3  36459075.495 7 189851975.961 7        29.804          43.750    36459073.592 6 146805584.650 6        22.796          36.750  
> 2021  5 18  3  7 16.0000000  0  4                     
G 7  20339933.777 7 106887072.440 7      1010.410          43.750                                                                  
G 1  20405537.146 7 107231815.383 7      1998.844          46.500    20405537.823 7  83557266.782 7      1557.541          46.750  
C13  38598437.571 6 200992199.569 6      1555.214          37.250    38598444.864 5 155419931.229 5      1202.896          33.750  
C 3  36459069.866 7 189851946.413 7        29.866          43.750    36459068.239 6 146805561.808 6        22.819          37.250  
> 2021  5 18  3  7 17.0000000  0  5                     
G 7  20339741.695 7 106886062.431 7      1009.994          43.750                                                                  
G 1  20405156.849 7 107229816.789 7      1998.377          46.250    20405157.517 7  83555709.432 7      1557.176          46.500  
C13  38598139.108 6 200990644.273 6      1555.434          37.750    38598145.818 5 155418728.627 5      1202.453          34.000  
C 3  36459064.186 7 189851916.657 7        29.881          43.750    36459062.350 6 146805538.787 6        22.840          37.000  
C10  37272910.291 6 194089821.00226       267.298          39.250                                                                  
> 2021  5 18  3  7 18.0000000  0  5                     
G 7  20339548.605 7 106885048.886 7      1031.334          43.750                                                                  
G 1  20404775.843 7 107227814.607 7      2020.125          46.500    20404776.461 7  83554149.287 7      1574.121          46.500  
C13  38597839.582 6 200989084.935 6      1577.320          37.500    38597846.092 5 155417522.783 5      1219.510          33.250  
C 3  36459057.673 7 189851882.774 7        51.467          44.000    36459055.795 6 146805512.576 6        39.788          37.000  
C10  37272857.944 6 194089549.89926       288.648          39.000    37272856.198 6 150082349.43516       222.857          36.750  
> 2021  5 18  3  7 19.0000000  0  5                     
G 7  20339348.906 7 106884000.883 7      1054.888          43.750    20339349.055 7  83286234.03817       821.990          43.000  
G 1  20404388.229 7 107225777.972 7      2043.518          46.250    20404388.869 7  83552562.291 7      1592.349          46.250  
C13  38597533.546 6 200987490.850 6      1601.185          38.000    38597540.633 5 155416290.108 5      1238.117          33.000  
C 3  36459044.474 7 189851814.162 7        75.489          44.000    36459042.527 6 146805459.513 6        58.614          37.500  
C10  37272798.128 6 194089243.96926       312.916          39.000    37272798.810 6 150082112.83826       241.947          36.750  
> 2021  5 18  3  7 20.0000000  0  5                     
G 7  20339148.410 7 106882946.439 7      1053.277          44.250    20339147.992 7  83285410.19417       820.736          44.250  
G 1  20403999.397 7 107223734.923 7      2041.740          46.250    20404000.239 7  83550970.299 7      1590.963          46.250  
C13  38597226.085 6 200985889.834 6      1600.213          38.750    38597233.573 5 155415052.161 5      1237.384          33.250  
C 3  36459029.923 7 189851738.544 7        74.648          43.500    36459028.114 6 146805401.053 6        57.756          38.000  
C10  37272737.716 6 194088930.97526       312.054          39.000    37272738.794 6 150081870.79726       241.468          36.750  
> 2021  5 18  3  7 21.0000000  0  5                     
G 7  20338947.997 7 106881894.571 7      1050.394          43.750    20338948.006 7  83284590.493 7       818.488          43.500  
G 1  20403611.070 7 107221694.365 7      2039.143          46.250    20403611.937 7  83549380.250 7      1588.940          46.250  
C13  38596919.052 6 200984290.784 6      1597.796          39.500    38596926.487 5 155413815.673 5      1235.015          33.000  
C 3  36459015.767 7 189851664.855 7        72.509          43.500    36459013.918 6 146805344.064 6        56.064          38.250  
C10  37272678.542 6 194088619.257 6       310.492          38.750    37272678.029 6 150081630.165 6       239.916          36.500  
> 2021  5 18  3  7 22.0000000  0  5                     
G 7  20338748.431 7 106880845.640 7      1047.632          44.250    20338748.286 7  83283773.133 7       816.337          44.500  
G 1  20403223.304 7 107219656.762 7      2036.336          46.250    20403224.225 7  83547792.502 7      1586.752          46.250  
C13  38596612.443 6 200982694.098 6      1595.857          39.500    38596619.396 5 155412580.977 5      1233.940          34.000  
C 3  36459002.076 7 189851593.460 7        70.624          43.750    36459000.351 6 146805288.871 6        54.345          38.000  
C10  37272618.900 6 194088310.346 6       307.777          39.000    37272619.128 6 150081391.287 6       238.162          36.500  
> 2021  5 18  3  7 23.0000000  0  6                     
G 7  20338549.374 7 106879799.439 7      1045.201          44.000    20338549.139 7  83282957.907 7       814.442          43.750  
G 1  20402836.055 7 107217621.865 7      2033.874          46.500    20402837.047 7  83546206.870 7      1584.834          46.000  
G21  20530453.803 5 107888265.26625      -605.532          35.500                                                                  
C13  38596306.095 6 200981099.556 6      1593.703          38.250    38596313.694 5 155411347.996 5      1231.923          33.750  
C 3  36458988.826 7 189851524.201 7        68.321          43.750    36458986.976 6 146805235.289 6        53.318          37.750  
C10  37272559.776 6 194088003.426 6       306.245          39.250    37272560.064 6 150081153.968 6       236.505          36.750  
> 2021  5 18  3  7 24.0000000  0  6                     
G 7  20338350.631 7 106878755.288 7      1043.153          44.250    20338350.626 7  83282144.279 7       812.847          44.500  
G 1  20402449.200 7 107215589.002 7      2031.649          46.500    20402450.163 7  83544622.820 7      1583.101          46.250  
G21  20530568.736 5 107888871.98425      -608.015          35.500                                                                  
C13  38596000.352 6 200979506.396 6      1592.216          39.000    38596007.767 5 155410116.095 5      1231.095          34.000  
C 3  36458975.795 7 189851456.329 7        66.835          44.000    36458973.983 6 146805182.819 6        51.930          37.500  
C10  37272501.489 6 194087697.848 6       304.836          39.250    37272501.272 6 150080917.674 6       235.680          36.250  
> 2021  5 18  3  7 25.0000000  0  6                     
G 7  20338152.502 7 106877713.808 7      1040.236          44.750    20338152.255 7  83281332.731 7       810.573          45.000  
G 1  20402062.823 7 107213558.781 7      2028.868          46.500    20402063.921 7  83543040.829 7      1580.935          46.250  
G21  20530685.316 5 107889480.868 5      -610.687          35.000                                                                  
C13  38595694.853 6 200977915.365 6      1589.656          39.000    38595702.458 5 155408885.788 5      1229.486          33.250  
C 3  36458963.173 7 189851390.499 7        64.554          44.000    36458961.423 6 146805131.880 6        50.449          37.750  
C10  37272442.959 6 194087394.211 6       302.426          39.250    37272443.193 6 150080682.851 6       234.307          36.500  
> 2021  5 18  3  7 26.0000000  0  6                     
G 7  20337955.011 7 106876675.272 7      1036.813          45.000    20337954.587 7  83280523.482 7       807.907          45.250  
G 1  20401677.045 7 107211531.487 7      2025.538          46.750    20401678.258 7  83541461.119 7      1578.340          46.000  
G21  20530801.724 5 107890093.190 5      -614.220          35.500                                                                  
C13  38595389.756 6 200976326.696 6      1587.340          39.250    38595397.419 5 155407657.303 5      1227.577          33.500  
C 3  36458950.989 7 189851326.994 7        61.908          44.000    36458949.338 6 146805082.801 6        47.885          37.500  
C10  37272385.044 6 194087092.780 6       300.051          39.250    37272385.028 6 150080449.782 6       232.039          36.750  
> 2021  5 18  3  7 27.0000000  0  6                     
G 7  20337758.125 7 106875640.013 7      1033.556          45.000    20337757.498 7  83279716.786 7       805.368          45.250  
G 1  20401291.880 7 107209507.412 7      2022.663          46.750    20401293.186 7  83539883.920 7      1576.100          46.250  
G21  20530918.673 5 107890708.822 5      -617.269          35.500                                                                  
C13  38595085.185 6 200974740.665 6      1584.819          38.750    38595092.671 5 155406430.910 5      1225.249          33.500  
C 3  36458939.313 7 189851266.073 7        59.689          44.000    36458937.517 6 146805035.685 6        46.181          37.750  
C10  37272327.398 6 194086793.889 6       297.536          39.250    37272327.621 6 150080218.669 6       229.812          36.500  
> 2021  5 18  3  7 28.0000000  0  6                     
G 7  20337561.882 7 106874608.281 7      1029.785          45.250    20337561.009 7  83278912.835 7       802.429          45.250  
G 1  20400907.341 7 107207486.906 7      2018.318          46.750    20400908.790 7  83538309.500 7      1572.715          46.250  
G21  20531035.683 5 107891328.069 5      -621.925          35.750                                                                  
C13  38594781.077 6 200973157.616 6      1581.048          38.750    38594788.598 5 155405206.788 5      1222.720          33.750  
C 3  36458928.214 7 189851208.103 7        56.245          44.000    36458926.422 6 146804990.852 6        43.709          37.750  
C10  37272270.662 6 194086497.843 6       294.333          39.750    37272270.676 6 150079989.733 6       227.783          36.750  
> 2021  5 18  3  7 29.0000000  0  6                     
G 7  20337366.419 7 106873580.404 7      1026.291          45.000    20337365.432 7  83278111.889 7       799.706          45.500  
G 1  20400523.554 7 107205470.225 7      2014.871          46.750    20400525.039 7  83536738.063 7      1570.030          46.250  
G21  20531154.779 5 107891951.074 5      -624.288          35.250                                                                  
C13  38594477.672 6 200971577.787 6      1578.306          38.500    38594485.132 5 155403985.170 5      1220.837          33.500  
C 3  36458917.704 7 189851153.318 7        53.453          44.000    36458915.859 6 146804948.494 6        41.452          37.750  
C10  37272214.695 6 194086204.939 6       291.493          39.250    37272214.144 6 150079763.253 6       225.301          36.750  
> 2021  5 18  3  7 30.0000000  0  6                     
G 7  20337171.572 7 106872555.834 7      1023.076          45.000    20337170.352 7  83277313.521 7       797.200          45.250  
G 1  20400140.361 7 107203456.780 7      2012.328          46.500    20400141.936 7  83535169.147 7      1568.048          46.250  
G21  20531273.536 5 107892577.480 5      -627.721          35.750                                                                  
C13  38594174.820 6 200970000.664 6      1575.968          38.000    38594182.106 5 155402765.629 5      1218.496          33.500  
C 3  36458907.755 7 189851101.207 7        50.867          44.000    36458905.990 6 146804908.203 6        39.314          37.750  
C10  37272158.965 6 194085914.565 6       289.423          39.000    37272158.462 6 150079538.724 6       223.681          36.750  
> 2021  5 18  3  7 31.0000000  0  6                     
G 7  20336977.255 7 106871534.131 7      1020.170          45.250    20336976.080 7  83276517.387 7       794.937          45.500  
G 1  20399757.735 7 107201446.205 7      2009.377          46.250    20399759.410 7  83533602.472 7      1565.751          46.000  
G21  20531393.231 5 107893206.743 5      -630.405          35.500                                                                  
C13  38593872.238 6 200968425.829 6      1573.561          38.250    38593879.298 5 155401547.864 5      1216.879          33.500  
C 3  36458898.132 7 189851051.293 7        48.839          44.000    36458896.479 6 146804869.605 6        37.613          37.750  
C10  37272103.500 6 194085626.354 6       287.177          39.250    37272103.207 6 150079315.838 6       222.047          36.250  
> 2021  5 18  3  7 32.0000000  0  6                     
G 7  20336783.493 7 106870515.517 7      1017.163          45.250    20336782.229 7  83275723.662 7       792.593          45.250  
G 1  20399375.717 7 107199438.694 7      2006.142          46.250    20399377.388 7  83532038.183 7      1563.231          46.000  
G21  20531513.868 5 107893839.133 5      -633.898          35.250                                                                  
C13  38593570.331 6 200966853.448 6      1571.407          38.000    38593577.510 5 155400331.995 5      1215.245          33.500  
C 3  36458889.007 7 189851003.831 7        46.518          44.000    36458887.452 6 146804832.913 6        35.865          38.000  
C10  37272048.578 6 194085340.509 6       284.881          39.250    37272048.310 6 150079094.815 6       220.130          36.500  
> 2021  5 18  3  7 33.0000000  0  6                     
G 7  20336590.243 7 106869499.124 7      1015.521          45.500    20336588.818 7  83274931.669 7       791.315          45.250  
G 1  20398994.101 7 107197433.423 7      2004.255          46.250    20398995.750 7  83530475.635 7      1561.759          45.500  
G21  20531634.930 5 107894473.759 5      -635.147          35.500                                                                  
C13  38593268.743 6 200965282.717 6      1570.185          38.250    38593275.973 5 155399117.448 5      1213.962          33.250  
C 3  36458880.178 7 189850957.994 7        45.168          44.250    36458878.618 6 146804797.437 6        35.186          37.750  
C10  37271994.168 6 194085056.188 6       283.620          39.250    37271993.804 6 150078874.952 6       219.300          36.750  
> 2021  5 18  3  7 34.0000000  0  6                     
G 7  20336397.323 7 106868484.623 7      1013.550          45.750    20336395.753 7  83274141.147 7       789.779          45.750  
G 1  20398612.874 7 107195430.011 7      2002.221          46.000    20398614.499 7  83528914.538 7      1560.175          45.750  
G21  20531756.052 5 107895110.317 5      -637.672          35.500                                                                  
C13  38592967.300 6 200963713.340 6      1568.494          38.250    38592974.405 5 155397903.891 5      1212.866          33.500  
C 3  36458871.625 7 189850913.394 7        43.832          44.250    36458870.011 6 146804762.957 6        34.060          37.750  
C10  37271939.709 6 194084773.014 6       282.584          39.250    37271939.410 6 150078655.986 6       218.304          37.000  
> 2021  5 18  3  7 35.0000000  0  6                     
G 7  20336204.620 7 106867471.393 7      1013.020          45.750    20336202.888 7  83273351.615 7       789.365          45.750  
G 1  20398231.884 7 107193427.822 7      2002.173          46.000    20398233.506 7  83527354.391 7      1560.137          45.500  
G21  20531877.564 5 107895748.125 5      -637.926          35.500                                                                  
C13  38592665.985 6 200962144.561 6      1569.016          38.000    38592673.007 5 155396690.778 5      1213.321          32.750  
C 3  36458863.202 7 189850869.438 7        44.127          44.250    36458861.657 6 146804728.978 6        33.991          38.000  
C10  37271885.471 6 194084490.398 6       283.097          39.500    37271885.260 6 150078437.448 6       218.724          36.500  
> 2021  5 18  3  7 36.0000000  0  7                     
G 7  20336012.036 7 106866459.135 7      1011.162          45.750    20336010.193 7  83272562.842 7       787.918          45.750  
G 1  20397851.035 7 107191426.590 7      2000.302          46.000    20397852.679 7  83525794.990 7      1558.678          46.000  
G21  20531999.077 5 107896386.950 5      -640.039          35.500    20532010.442 4  84075126.81614      -498.732          26.250  
C13  38592364.733 6 200960576.227 6      1567.438          38.000    38592371.940 5 155395478.039 5      1212.264          32.750  
C 3  36458854.879 7 189850825.830 7        42.904          44.250    36458853.260 6 146804695.239 6        33.306          37.750  
C10  37271831.178 6 194084208.052 6       281.551          39.500    37271831.137 6 150078219.115 6       217.809          36.750  
C 8  37809696.622 5 196885010.92615      1562.080          34.750                                                                  
> 2021  5 18  3  7 37.0000000  0  7                     
G 7  20335819.799 7 106865448.791 7      1009.948          46.000    20335817.875 7  83271775.560 7       786.971          46.000  
G 1  20397470.582 7 107189427.275 7      1998.800          45.750    20397472.156 7  83524237.081 7      1557.508          45.750  
G21  20532120.972 5 107897027.694 5      -641.257          35.500    20532133.785 4  84075626.060 4      -499.681          26.750  
C13  38592063.793 6 200959009.223 6      1566.744          38.250    38592070.967 5 155394266.340 5      1211.570          33.250  
C 3  36458846.775 7 189850783.514 7        42.199          44.000    36458845.172 6 146804662.529 6        32.580          37.750  
C10  37271777.183 6 194083926.910 6       280.925          39.750    37271777.227 6 150078001.736 6       217.047          36.500  
C 8  37809397.825 5 196883449.17625      1561.590          34.500                                                                  
> 2021  5 18  3  7 38.0000000  0  8                     
G 7  20335627.841 7 106864439.747 7      1007.667          46.000    20335625.818 7  83270989.290 7       785.193          46.000  
G 1  20397090.323 7 107187429.208 7      1996.850          45.500    20397091.946 7  83522680.145 7      1555.988          45.250  
G21  20532242.721 5 107897669.707 5      -643.186          35.000    20532254.431 4  84076126.373 4      -501.184          25.250  
C13  38591762.916 6 200957442.890 6      1565.133          37.750    38591770.188 5 155393055.149 5      1210.724          33.000  
C 3  36458838.789 7 189850741.863 7        40.787          44.000    36458837.213 6 146804630.325 6        31.369          37.750  
C10  37271723.339 6 194083646.368 6       279.691          39.500    37271723.411 6 150077784.792 6       215.997          36.750  
C23  23093223.669 5 120252475.73715     -1638.687          32.500                                                                  
C 8  37809097.287 5 196881888.18925      1559.967          33.750                                                                  
> 2021  5 18  3  7 39.0000000  0  8                     
G 7  20335436.338 7 106863432.887 7      1005.900          45.750    20335434.193 7  83270204.722 7       783.817          46.250  
G 1  20396710.503 7 107185433.345 7      1994.859          45.500    20396712.148 7  83521124.931 7      1554.437          45.500  
G21  20532365.621 5 107898314.000 5      -645.339          35.250    20532376.361 4  84076628.529 4      -502.862          24.750  
C13  38591462.380 6 200955878.194 6      1564.136          38.750    38591469.786 5 155391845.222 5      1209.684          33.000  
C 3  36458831.134 7 189850701.797 7        39.410          44.000    36458829.607 6 146804599.336 6        30.523          38.250  
C10  37271669.762 6 194083367.287 6       278.524          39.500    37271669.952 6 150077569.000 6       215.165          36.750  
C23  23093539.915 5 120254115.297 5     -1639.702          32.750                                                                  
C 8  37808798.188 5 196880328.89025      1558.221          34.250                                                                  
> 2021  5 18  3  7 40.0000000  0  8                     
G 7  20335245.230 7 106862428.002 7      1003.689          46.000    20335242.951 7  83269421.694 7       782.094          46.000  
G 1  20396331.075 7 107183439.424 7      1992.827          45.250    20396332.730 7  83519571.224 7      1552.853          45.250  
G21  20532488.286 5 107898960.243 5      -647.695          35.750    20532499.696 3  84077132.028 3      -504.698          23.250  
C13  38591162.230 6 200954314.861 6      1562.684          38.250    38591169.368 5 155390636.345 5      1208.152          32.750  
C 3  36458823.695 7 189850663.057 7        37.838          44.250    36458822.090 6 146804569.366 6        29.251          37.750  
C10  37271616.423 6 194083089.462 6       277.078          39.500    37271616.617 6 150077354.145 6       214.088          37.000  
C23  23093851.942 5 120255756.586 5     -1642.570          32.500                                                                  
C 8  37808498.994 5 196878771.046 5      1557.147          34.250    37808498.528 5 152239153.01625      1204.097          30.750  
> 2021  5 18  3  7 41.0000000  0  8                     
G 7  20335054.390 7 106861425.029 7      1001.843          46.000    20335052.022 7  83268640.157 7       780.656          45.750  
G 1  20395951.962 7 107181447.395 7      1990.798          45.250    20395953.601 7  83518018.990 7      1551.271          45.000  
G21  20532611.813 5 107899608.404 5      -649.248          35.500                                                                  
C13  38590862.265 6 200952752.846 6      1561.249          38.250    38590869.633 5 155389428.512 5      1207.309          33.000  
C 3  36458816.528 7 189850625.600 7        36.615          44.250    36458814.865 6 146804540.403 6        28.561          38.000  
C10  37271563.237 6 194082812.860 6       275.924          39.500    37271563.545 6 150077140.252 6       213.089          36.750  
C23  23094169.822 5 120257399.485 5     -1643.610          32.750                                                                  
C 8  37808200.921 5 196877214.572 5      1555.708          34.750    37808198.282 4 152237949.47424      1202.597          30.000  
> 2021  5 18  3  7 42.0000000  0  8                     
G 7  20334863.958 7 106860423.855 7      1000.634          46.000    20334861.479 7  83267860.022 7       779.715          45.750  
G 1  20395573.213 7 107179457.151 7      1989.535          45.000    20395574.811 7  83516468.144 7      1550.285          44.750  
G21  20532735.507 5 107900258.365 5      -650.135          35.750                                                                  
C13  38590562.600 6 200951192.048 6      1560.182          38.500    38590569.948 5 155388221.563 5      1206.977          32.750  
C 3  36458809.542 7 189850589.309 7        36.019          44.000    36458808.027 6 146804512.348 6        27.726          37.750  
C10  37271510.267 6 194082537.333 6       275.250          40.000    37271510.687 6 150076927.199 6       212.548          36.750  
C23  23094484.261 5 120259043.997 5     -1645.369          33.250                                                                  
C 8  37807902.435 5 196875659.388 5      1554.616          35.000    37807896.732 5 152236746.89525      1202.340          31.000  
> 2021  5 18  3  7 43.0000000  0  8                     
G 7  20334673.744 7 106859423.931 7       999.089          46.000    20334671.168 7  83267080.860 7       778.511          45.750  
G 1  20395194.725 7 107177468.137 7      1988.169          45.000    20395196.264 7  83514918.261 7      1549.221          45.250  
G21  20532859.328 5 107900909.638 5      -651.946          35.250                                                                  
C13  38590262.995 6 200949631.909 6      1559.604          38.750    38590270.380 5 155387015.182 5      1206.154          33.000  
C 3  36458802.692 7 189850553.630 7        35.478          44.000    36458801.110 6 146804484.774 6        27.163          37.500  
C10  37271457.406 6 194082262.328 6       274.461          39.750    37271457.973 6 150076714.516 6       212.331          36.500  
C23  23094801.605 5 120260689.507 5     -1646.320          33.250                                                                  
C 8  37807603.248 5 196874104.931 5      1554.147          34.000    37807599.331 5 152235544.92925      1201.403          31.000  
> 2021  5 18  3  7 44.0000000  0  8                     
G 7  20334483.662 7 106858425.050 7       998.464          45.500    20334481.023 7  83266302.510 7       778.023          45.500  
G 1  20394816.417 7 107175480.325 7      1987.320          45.000    20394817.934 7  83513369.313 7      1548.559          45.000  
G21  20532983.481 6 107901562.013 6      -652.791          36.000    20532999.186 4  84079214.25814      -508.668          26.750  
C13  38589963.582 6 200948072.495 6      1559.011          38.750    38589970.924 5 155385809.358 5      1205.594          33.000  
C 3  36458795.964 7 189850518.561 7        34.855          44.250    36458794.375 6 146804457.628 6        27.212          37.750  
C10  37271404.645 6 194081987.606 6       274.597          39.500    37271405.134 5 150076502.082 5       212.356          35.500  
C23  23095117.632 5 120262335.834 5     -1646.588          32.750                                                                  
C 8  37807304.554 5 196872551.312 5      1553.557          34.250    37807303.196 5 152234343.49125      1201.148          31.750  
> 2021  5 18  3  7 45.0000000  0  7                     
G 7  20334293.656 7 106857426.538 7       998.134          45.500    20334291.120 7  83265524.456 7       777.769          45.250  
G 1  20394438.259 7 107173493.116 7      1986.641          45.750    20394439.742 7  83511820.826 7      1548.026          46.000  
G21  20533107.900 5 107902214.968 5      -653.808          35.000    20533116.369 4  84079723.060 4      -509.461          25.250  
C13  38589664.134 6 200946513.326 6      1558.465          37.500    38589671.403 5 155384603.701 5      1205.227          34.250  
C 3  36458789.252 7 189850483.476 7        34.732          45.000    36458787.638 6 146804430.529 6        27.009          37.000  
C10  37271351.735 6 194081712.343 6       275.446          38.750    37271352.271 6 150076289.274 6       212.791          38.500  
C 8  37807006.685 5 196870997.793 5      1552.393          34.750    37807003.584 4 152233141.771 4      1200.135          29.250  
> 2021  5 18  3  7 46.0000000  0  8                     
G 7  20334103.745 7 106856428.505 7       998.158          45.500    20334101.244 7  83264746.778 7       777.789          45.250  
G 1  20394060.353 7 107171507.211 7      1985.770          46.250    20394061.834 7  83510273.354 7      1547.347          46.500  
G21  20533232.766 5 107902868.682 5      -653.677          34.500                                                                  
R10  19964287.446 5 106420511.80515      1864.889          33.750                                                                  
C13  38589364.890 6 200944955.408 6      1557.352          38.500    38589372.246 5 155383399.000 5      1204.640          35.500  
C 3  36458782.676 7 189850449.011 7        34.679          44.000    36458780.955 6 146804403.873 6        26.418          37.750  
C10  37271298.665 6 194081436.323 6       276.649          39.750    37271299.386 5 150076075.773 5       214.342          35.750  
C 8  37806708.298 5 196869445.365 5      1553.501          31.500    37806705.069 5 152231941.318 5      1200.140          31.750  
> 2021  5 18  3  7 47.0000000  0  8                     
G 7  20333913.899 7 106855430.518 7       997.670          45.000    20333911.361 7  83263969.139 7       777.412          45.000  
G 1  20393682.596 7 107169522.171 7      1984.618          44.750    20393684.079 7  83508726.567 7      1546.450          44.750  
G21  20533357.925 5 107903522.837 5      -654.209          35.000    20533361.012 5  84080672.57015      -509.773          31.750  
R10  19963933.541 5 106418646.94825      1864.889          31.000                                                                  
C13  38589065.794 6 200943398.280 6      1556.921          37.250    38589073.197 5 155382195.056 5      1203.341          35.500  
C 3  36458776.108 7 189850414.907 7        33.474          42.750    36458774.420 6 146804377.471 6        26.663          39.000  
C10  37271245.362 6 194081158.903 6       277.783          41.750    37271246.081 6 150075861.218 6       215.444          37.250  
C 8  37806409.643 5 196867893.763 5      1550.270          32.000    37806407.592 4 152230741.484 4      1199.564          27.500  
> 2021  5 18  3  7 48.0000000  0  7                     
G 7  20333723.980 7 106854432.378 7       997.995          46.750    20333721.413 7  83263191.366 7       777.661          44.750  
G 1  20393304.988 7 107167537.923 7      1983.779          46.250    20393306.499 7  83507180.402 7      1545.798          46.000  
G21  20533482.953 6 107904177.060 6      -653.706          40.500    20533487.077 4  84081182.347 4      -509.382          26.750  
C13  38588766.913 6 200941842.359 6      1555.523          36.750    38588774.254 5 155380991.752 5      1203.067          36.000  
C 3  36458769.597 6 189850381.011 6        33.490          41.750    36458767.946 6 146804351.210 6        25.913          37.750  
C10  37271191.789 7 194080879.918 7       279.336          43.500    37271192.608 6 150075645.538 6       215.423          36.500  
C 8  37806111.680 5 196866342.505 5      1551.590          33.750    37806109.831 4 152229542.102 4      1199.451          29.500  
> 2021  5 18  3  7 49.0000000  0  6                     
G 7  20333534.195 7 106853434.918 7       994.022          45.250    20333531.737 7  83262414.137 7       774.570          46.000  
G 1  20392927.616 7 107165554.802 7      1980.056          45.250    20392929.093 7  83505635.107 7      1542.897          45.500  
C13  38588468.352 6 200940287.405 6      1552.390          37.750    38588475.641 5 155379789.434 5      1200.799          35.750  
C 3  36458763.213 7 189850347.678 7        30.750          42.750    36458761.621 6 146804325.468 6        24.041          39.250  
C10  37271138.108 6 194080600.643 6       277.183          37.250    37271138.924 6 150075429.593 6       214.278          36.250  
C 8  37805814.115 5 196864792.445 5      1547.996          31.750    37805811.903 4 152228343.335 4      1196.844          26.250  
> 2021  5 18  3  7 50.0000000  0  6                     
G 7  20333345.340 7 106852442.290 7       991.639          46.250    20333342.842 7  83261640.651 7       772.706          45.750  
G 1  20392551.157 7 107163576.627 7      1977.017          45.000    20392552.682 7  83504093.681 7      1540.533          45.000  
C13  38588170.587 5 200938736.958 5      1550.088          35.500    38588177.867 5 155378590.508 5      1198.697          35.750  
C 3  36458757.645 7 189850318.655 7        28.659          43.000    36458756.107 6 146804303.133 6        21.645          36.750  
C10  37271085.230 6 194080325.161 6       274.647          39.500    37271086.173 6 150075216.626 6       212.270          37.000  
C 8  37805517.003 5 196863246.759 5      1545.228          32.000                                                                  
> 2021  5 18  3  7 51.0000000  0  8                     
G 7  20333156.809 7 106851451.278 7       990.670          47.000    20333154.239 7  83260868.429 7       771.951          43.500  
G 1  20392175.010 7 107161599.979 7      1976.711          42.250    20392176.627 7  83502553.457 7      1540.299          42.500  
C13  38587872.937 5 200937187.156 5      1550.217          35.500    38587880.375 5 155377392.256 5      1198.526          33.250  
C16  38823364.986 5 202163442.92025     -1671.729          35.750                                                                  
C 3  36458752.246 6 189850290.614 6        28.316          41.250    36458750.659 6 146804281.337 6        21.739          37.250  
C10  37271032.556 6 194080050.801 6       274.350          39.000    37271033.399 5 150075004.432 5       212.494          32.750  
C 8  37805220.618 5 196861701.945 5      1545.649          30.750                                                                  
C28  22165636.916 5 115422287.68015     -1577.224          30.500                                                                  
> 2021  5 18  3  7 52.0000000  0  6                     
G 7  20332968.123 7 106850459.726 7       992.012          45.250    20332965.614 7  83260095.807 7       773.000          45.500  
G 1  20391798.601 7 107159622.078 7      1978.362          42.750    20391800.257 7  83501012.229 7      1541.581          42.250  
C13  38587574.939 6 200935635.363 6      1552.850          37.500    38587582.397 5 155376192.192 5      1200.402          32.500  
C16  38823682.944 5 202165112.848 5     -1670.137          34.000                                                                  
C 3  36458746.530 6 189850260.739 6        30.173          40.250    36458744.867 5 146804258.285 5        23.810          35.250  
C10  37270979.742 6 194079775.394 6       276.187          41.000    37270980.524 5 150074791.453 5       213.653          34.500  
> 2021  5 18  3  7 53.0000000  0  5                     
G 7  20332779.585 7 106849468.686 7       989.827          47.750    20332777.068 7  83259323.552 7       771.291          47.500  
G 1  20391422.407 7 107157645.116 7      1976.084          43.750    20391423.943 6  83499471.731 6      1539.805          41.750  
C13  38587276.952 6 200934083.868 6      1551.076          39.250    38587284.572 5 155374992.512 5      1199.848          31.750  
C 3  36458740.790 6 189850230.965 6        29.505          41.250    36458739.115 6 146804235.273 6        22.801          36.250  
C10  37270926.821 6 194079499.942 6       275.598          40.750    37270927.709 5 150074578.523 5       213.765          32.500  
> 2021  5 18  3  7 54.0000000  0  6                     
G 7  20332591.370 8 106848479.179 8       989.048          48.750    20332588.771 8  83258552.483 8       770.681          48.500  
G 1  20391046.209 6 107155668.421 6      1978.085          41.750    20391047.755 6  83497931.469 6      1541.370          41.750  
C13  38586978.705 6 200932531.007 6      1556.016          38.250    38586986.253 5 155373791.741 5      1203.003          31.250  
C 3  36458735.017 6 189850200.931 6        31.762          41.750    36458733.364 6 146804211.990 6        24.737          37.750  
C10  37270874.287 6 194079226.314 6       272.106          38.750    37270875.237 5 150074366.984 5       210.651          32.250  
C 6  38353331.046 6 199715852.71326     -1579.658          36.250                                                                  
> 2021  5 18  3  7 55.0000000  0  7                     
G 7  20332403.114 8 106847489.629 8       990.517          48.500    20332400.552 8  83257781.407 8       771.829          48.750  
G 1  20390669.627 7 107153689.521 7      1980.070          42.250    20390671.143 7  83496389.482 7      1542.918          42.250  
C13  38586679.712 6 200930974.324 6      1557.448          38.000    38586687.308 4 155372588.012 4      1204.479          29.750  
C 3  36458728.738 7 189850168.178 7        33.720          42.000    36458727.108 6 146804186.685 6        26.066          38.750  
C10  37270821.924 6 194078953.246 6       274.235          38.500    37270822.551 5 150074155.826 5       212.015          32.000  
C 6  38353634.846 6 199717431.13126     -1577.596          37.000    38353637.822 5 154434214.62815     -1219.420          32.250  
C28  22166850.582 5 115428605.26515     -1575.129          32.250                                                                  
> 2021  5 18  3  7 56.0000000  0  9                     
G 7  20332214.592 8 106846498.585 8       991.774          48.250    20332211.988 7  83257009.173 7       772.811          47.750  
G 1  20390292.723 6 107151709.134 6      1980.872          41.250    20390294.254 6  83494846.328 6      1543.542          41.250  
R 9  20456776.626 5 109237668.37415     -1295.567          32.000                                                                  
C13  38586380.309 6 200929415.562 6      1559.946          38.250    38586387.993 5 155371382.658 5      1205.456          30.250  
C 3  36458722.033 6 189850133.355 6        35.881          41.500    36458720.457 6 146804159.756 6        27.589          38.500  
C10  37270769.117 6 194078677.956 6       276.422          39.000    37270769.875 5 150073942.960 5       213.515          32.250  
C 6  38353938.352 6 199719007.49926     -1575.507          36.250    38353940.145 5 154435433.53225     -1218.008          31.250  
C28  22167153.181 5 115430179.19225     -1573.650          31.250                                                                  
C27  22243858.235 5 115829620.03125      1207.676          30.750                                                                  
> 2021  5 18  3  7 57.0000000  0  7                     
G 7  20332025.860 8 106845506.508 8       992.388          48.750    20332023.306 8  83256236.131 8       773.290          48.750  
G 1  20389915.697 7 107149728.144 7      1980.765          42.750    20389917.266 6  83493302.695 6      1543.455          41.750  
C13  38586080.621 6 200927855.902 6      1559.483          37.250    38586088.359 5 155370176.623 5      1205.321          31.250  
C 3  36458715.064 6 189850097.283 6        36.273          41.500    36458713.543 6 146804131.853 6        27.869          38.500  
C10  37270715.927 6 194078400.726 6       278.206          39.250    37270716.573 5 150073728.516 5       215.205          33.750  
C 6  38354239.425 6 199720582.837 6     -1575.169          36.000    38354245.912 5 154436651.72425     -1218.481          30.750  
C27  22243627.713 5 115828412.08525      1207.831          34.000                                                                  
> 2021  5 18  3  7 58.0000000  0  7                     
G 7  20331837.409 8 106844515.817 8       988.836          48.500    20331834.812 7  83255464.168 7       770.521          48.000  
G 1  20389539.147 7 107147749.317 7      1976.933          42.750    20389540.808 6  83491760.738 6      1540.466          42.000  
C13  38585781.433 6 200926298.375 6      1556.511          37.000    38585789.204 5 155368972.244 5      1202.498          31.000  
C 3  36458708.450 6 189850062.783 6        32.491          41.000    36458706.957 6 146804105.217 6        25.372          37.000  
C10  37270662.670 6 194078123.527 6       275.946          38.750    37270663.283 6 150073514.208 6       213.011          36.000  
C 6  38354542.714 6 199722160.273 6     -1578.922          36.250                                                                  
C27  22243398.875 4 115827205.066 4      1205.292          28.250                                                                  
> 2021  5 18  3  7 59.0000000  0  7                     
G 7  20331649.527 8 106843528.270 8       987.215          49.250    20331646.851 8  83254694.642 8       769.257          49.000  
G 1  20389163.294 7 107145774.180 7      1974.236          44.750    20389165.026 6  83490221.666 6      1538.364          40.500  
C13  38585483.002 6 200924744.231 6      1552.923          40.000    38585490.768 4 155367770.476 4      1200.393          28.250  
C 3  36458702.377 6 189850031.277 6        30.977          41.250    36458700.935 6 146804080.843 6        23.955          38.000  
C10  37270609.827 6 194077848.421 6       275.490          40.000    37270610.430 6 150073301.460 6       212.604          37.000  
C 6  38354846.445 6 199723741.104 6     -1581.592          37.500                                                                  
C27  22243166.965 5 115826009.51015      1202.977          30.500                                                                  
> 2021  5 18  3  8  0.0000000  0  6                     
G 7  20331461.642 8 106842540.722 8       987.633          50.000    20331458.878 8  83253925.116 8       769.581          49.500  
G 1  20388787.559 7 107143799.632 7      1974.442          45.000    20388789.265 6  83488683.041 6      1538.521          40.750  
C13  38585184.641 6 200923190.435 6      1553.631          39.250    38585192.402 5 155366568.940 5      1201.988          31.250  
C 3  36458696.320 7 189849999.700 7        32.214          42.750    36458694.859 6 146804056.446 6        24.407          37.000  
C10  37270556.826 6 194077572.310 6       275.456          36.750    37270557.433 5 150073087.919 5       213.231          35.250  
C 6  38355149.947 6 199725322.157 6     -1581.011          39.000                                                                  
> 2021  5 18  3  8  1.0000000  0  7                     
G 7  20331273.688 8 106841552.762 8       989.468          51.000    20331270.850 8  83253155.268 8       771.011          50.250  
G 8  21990349.929 5 115560075.97915     -2251.498          33.250                                                                  
G 1  20388411.656 7 107141824.099 7      1977.191          45.250    20388413.364 6  83487143.673 6      1540.668          41.750  
C13  38584885.918 6 200921634.733 6      1557.437          38.000    38584893.602 4 155365365.987 4      1204.511          30.000  
C 3  36458689.987 7 189849966.633 7        34.890          42.250    36458688.542 6 146804030.739 6        27.024          36.000  
C10  37270503.690 6 194077295.353 6       278.533          37.750    37270504.220 5 150072873.758 5       215.412          35.500  
C 6  38355453.348 6 199726901.348 6     -1577.060          36.500                                                                  
> 2021  5 18  3  8  2.0000000  0  7                     
G 7  20331085.367 8 106840562.814 8       990.546          49.000    20331082.570 8  83252383.882 8       771.851          48.750  
G 1  20388035.462 7 107139846.903 7      1977.292          45.500    20388037.178 6  83485603.017 6      1540.751          42.000  
C13  38584586.765 6 200920077.022 6      1557.800          39.000    38584594.448 5 155364161.505 5      1203.881          33.000  
C16  38826884.438 4 202181762.62714     -1664.871          29.000                                                                  
C 3  36458683.174 7 189849931.218 7        35.979          43.750    36458681.668 6 146804003.404 6        27.731          36.250  
C10  37270449.972 6 194077015.638 6       280.965          40.500    37270450.497 6 150072657.534 6       216.969          36.750  
C 6  38355756.067 5 199728478.415 5     -1577.158          35.500    38355756.969 5 154442738.15915     -1219.142          33.000  
> 2021  5 18  3  8  3.0000000  0  7                     
G 7  20330896.882 7 106839572.631 7       990.827          45.000    20330894.210 7  83251612.319 7       772.078          42.250  
G 1  20387659.422 7 107137871.011 7      1975.728          45.000    20387661.143 6  83484063.357 6      1539.528          41.000  
R10  19958351.244 5 106388894.46125      1862.059          32.500                                                                  
C13  38584287.891 6 200918520.653 6      1554.970          39.000    38584295.537 5 155362957.841 5      1202.799          32.750  
C16  38827201.835 5 202183432.04115     -1667.217          31.750                                                                  
C 3  36458676.501 6 189849896.407 6        33.596          40.750    36458675.029 6 146803976.410 6        27.060          37.500  
C10  37270395.943 6 194076734.570 6       283.450          38.000    37270396.597 5 150072440.092 5       218.732          34.250  
> 2021  5 18  3  8  4.0000000  0  5                     
G 1  20387284.174 7 107135899.243 7      1969.270          47.000    20387285.911 7  83482526.911 7      1534.495          44.250  
R10  19958001.162 6 106387032.43626      1862.391          39.500                                                                  
C13  38583989.986 6 200916969.330 6      1547.957          36.250    38583997.714 5 155361758.462 5      1197.447          31.750  
C 3  36458670.327 7 189849864.328 7        29.690          43.750    36458668.890 6 146803951.658 6        23.420          39.250  
C10  37270341.258 6 194076449.936 6       286.339          39.750    37270341.971 5 150072220.080 5       220.481          35.500  
> 2021  5 18  3  8  5.0000000  0  5                     
G 1  20386909.617 7 107133930.950 7      1968.350          48.000    20386911.404 7  83480993.170 7      1533.778          46.500  
R10  19957652.112 7 106385170.667 7      1860.952          42.500                                                                  
C13  38583692.861 6 200915422.159 6      1547.795          38.750    38583700.607 5 155360562.105 5      1196.013          34.750  
C 3  36458664.679 7 189849834.965 7        29.131          42.250    36458663.264 6 146803928.997 6        22.943          39.750  
C10  37270286.475 6 194076164.926 6       284.460          39.750    37270287.209 5 150071999.698 5       219.488          34.750  
> 2021  5 18  3  8  6.0000000  0  7                     
G 1  20386535.140 8 107131963.121 8      1967.388          49.250    20386536.956 8  83479459.794 8      1533.027          48.750  
R10  19957302.975 6 106383310.282 6      1860.863          41.500                                                                  
C13  38583395.644 6 200913874.576 6      1546.448          40.250    38583403.302 5 155359365.259 5      1196.317          31.500  
C 3  36458659.028 7 189849805.511 7        29.465          43.000    36458657.600 6 146803906.208 6        22.306          38.000  
C 7  36698048.544 7 191096372.17427       366.932          43.250    36698046.664 6 147767830.72016       283.306          37.750  
C10  37270231.817 6 194075880.493 6       286.342          38.250    37270232.486 5 150071779.745 5       220.097          32.250  
C28  22170158.923 7 115445839.99527     -1570.578          46.250                                                                  
> 2021  5 18  3  8  7.0000000  0  9                     
G 7  20330144.325 6 106835629.18316       989.413          40.250                                                                  
G 1  20386160.978 7 107129996.901 7      1964.678          48.000    20386162.785 7  83477927.673 7      1530.917          47.500  
R10  19956953.120 7 106381447.595 7      1863.957          42.500                                                                  
C13  38583098.931 6 200912329.378 6      1543.314          36.750    38583106.588 4 155358181.90914      1193.882          28.250  
C 3  36458653.518 6 189849776.823 6        28.042          41.750    36458652.100 5 146803883.958 5        21.852          36.000  
C 7  36697978.927 7 191096003.78727       369.988          42.250    36697975.085 6 147767545.87126       285.991          38.750  
C10  37270176.522 5 194075592.838 5       290.969          36.000    37270177.288 5 150071560.24415       223.950          31.500  
C 8  37800464.460 6 196836944.45016      1538.103          38.000    37800463.787 5 152206809.16515      1189.781          34.250  
C28  22170460.906 7 115447409.86427     -1567.658          46.500                                                                  
> 2021  5 18  3  8  8.0000000  0 10                     
G 7  20329955.565 7 106834640.52727       987.375          47.000    20329954.076 7  83247765.80517       769.383          44.250  
G 1  20385787.184 7 107128032.599 7      1964.514          47.750    20385789.021 7  83476397.053 7      1530.790          47.250  
G21  20535993.594 7 107917382.04417      -668.647          46.500                                                                  
R10  19956603.179 7 106379583.217 7      1864.344          42.750                                                                  
R20  19865957.915 5 106231815.85525     -2380.235          33.000                                                                  
C 3  36458648.327 6 189849749.694 6        26.729          39.250    36458646.949 5 146803863.014 5        20.853          34.250  
C 7  36697906.923 6 191095633.41326       369.685          40.250    36697902.987 5 147767259.38825       286.845          35.750  
C10  37270120.844 6 194075302.964 6       290.350          37.250    37270121.592 5 150071336.09025       224.074          33.000  
C 8  37800170.082 6 196835406.79626      1537.857          40.000    37800169.093 6 152205620.19626      1189.265          36.000  
C28  22170761.460 7 115448978.38827     -1568.568          46.000                                                                  
> 2021  5 18  3  8  9.0000000  0 10                     
G 7  20329768.064 8 106833652.96428       987.074          48.000    20329765.911 7  83246996.25227       769.149          44.500  
G 1  20385413.416 8 107126068.427 8      1964.469          48.250    20385415.248 8  83474866.533 8      1530.756          48.250  
G21  20536119.860 7 107918050.91027      -669.220          46.000    20536119.055 5  84091978.35815      -521.470          35.000  
R10  19956253.794 6 106377719.436 6      1863.286          42.000                                                                  
R20  19866405.018 5 106234197.40025     -2381.292          32.750                                                                  
C 7  36697835.744 6 191095262.89926       370.941          39.750    36697832.308 5 147766972.451 5       286.393          33.000  
C10  37270065.301 6 194075013.823 6       288.733          40.500    37270066.054 5 150071112.463 5       223.582          35.000  
C 8  37799875.015 6 196833868.66026      1538.571          39.500    37799874.147 5 152204430.748 5      1189.291          35.250  
C28  22171063.052 7 115450547.06527     -1568.329          47.250                                                                  
C27  22240853.796 6 115813963.80016      1199.235          39.500                                                                  
> 2021  5 18  3  8 10.0000000  0 10                     
G 7  20329578.457 6 106832666.53326       983.476          40.250    20329578.499 5  83246227.59025       766.345          35.000  
G 1  20385039.716 7 107124104.601 7      1961.911          47.250    20385041.568 7  83473336.282 7      1528.764          46.250  
G21  20536249.846 8 107918720.46528      -670.477          48.500    20536246.843 6  84092500.07226      -522.450          36.250  
R10  19955904.156 7 106375856.912 7      1860.203          43.250                                                                  
R20  19866852.313 5 106236580.35825     -2385.685          34.000                                                                  
C 3  36458637.008 6 189849689.25616        25.915          41.500                                                                  
C 7  36697765.056 6 191094892.752 6       367.148          40.000    36697761.826 5 147766686.558 5       285.214          33.250  
C10  37270009.875 6 194074725.412 6       286.751          39.250    37270010.739 5 150070889.500 5       221.551          35.250  
C 8  37799579.498 6 196832330.010 6      1537.770          40.750    37799578.668 6 152203240.987 6      1188.931          36.500  
C28  22171364.492 7 115452116.404 7     -1571.869          46.500                                                                  
> 2021  5 18  3  8 11.0000000  0 11                     
G 7  20329391.772 6 106831678.20226       990.353          41.000    20329390.431 6  83245457.46926       771.704          39.500  
G 1  20384665.487 7 107122137.950 7      1969.948          48.000    20384667.345 7  83471803.832 7      1535.026          47.250  
G21  20536375.399 7 107919387.96127      -664.431          46.250    20536372.209 6  84093020.22426      -517.739          36.250  
R10  19955554.266 7 106373992.798 7      1866.464          43.250                                                                  
R20  19867297.556 5 106238961.340 5     -2379.008          34.000    19867295.850 6  82630314.06316     -1850.340          40.500  
R21  26169317.461 6 140036916.36226      1988.013          39.250                                                                  
C 3  36458631.906 7 189849657.851 7        34.753          43.000    36458630.519 6 146803796.687 6        26.654          39.750  
C 7  36697693.570 6 191094520.801 6       375.146          41.500    36697690.081 6 147766398.993 6       289.717          36.750  
C10  37269954.130 6 194074435.094 6       293.520          38.250    37269954.959 5 150070664.971 5       226.997          33.750  
C 8  37799283.621 6 196830787.910 6      1545.778          40.500    37799281.883 6 152202048.573 6      1195.023          36.250  
C28  22171665.626 7 115453684.424 7     -1565.485          47.000                                                                  
> 2021  5 18  3  8 12.0000000  0 10                     
G 7  20329204.819 6 106830690.99826       987.578          40.750    20329202.341 6  83244688.22726       769.542          38.250  
G 1  20384291.137 7 107120170.767 7      1968.193          47.000    20384293.021 7  83470270.956 7      1533.656          47.000  
R10  19955205.239 7 106372130.537 7      1860.503          44.750                                                                  
R20  19867742.964 5 106241344.773 5     -2385.602          34.250    19867742.600 6  82632167.78826     -1855.468          39.750  
R21  26168944.943 5 140034931.50925      1986.523          32.750                                                                  
C 3  36458624.913 7 189849625.972 7        32.920          42.750    36458623.578 6 146803771.964 6        25.558          37.750  
C 7  36697622.640 6 191094150.316 6       369.824          38.750    36697619.847 6 147766112.484 6       285.520          36.750  
C10  37269898.706 6 194074146.410 6       287.204          37.500    37269899.550 5 150070441.821 5       221.610          32.750  
C 8  37798987.213 6 196829244.213 6      1545.782          40.750    37798985.778 6 152200854.865 6      1195.080          36.750  
C28  22171967.147 7 115455253.989 7     -1570.783          46.750                                                                  
> 2021  5 18  3  8 13.0000000  0 13                     
G 7  20329016.030 7 106829705.001 7       985.054          43.500    20329013.569 6  83243919.945 6       767.577          39.000  
G 1  20383916.319 7 107118201.164 7      1970.253          47.750    20383918.223 7  83468736.192 7      1535.260          47.500  
G21  20536633.748 5 107920737.56015      -668.519          33.500                                                                  
R10  19954856.379 7 106370270.957 7      1857.784          43.500                                                                  
R20  19868189.053 5 106243731.024 5     -2387.993          34.000    19868189.398 6  82634023.75426     -1857.328          41.750  
C13  38581316.975 5 200903044.36525      1555.330          30.250                                                                  
C 3  36458618.674 7 189849591.273 7        35.244          42.750    36458617.573 6 146803745.207 6        26.997          36.250  
C 7  36697551.509 6 191093781.718 6       367.445          39.750    36697548.445 5 147765827.473 5       283.733          35.000  
C 1  37402429.935 6 194764275.36226         5.845          39.250                                                                  
C10  37269843.780 6 194073860.562 6       284.652          37.250    37269844.713 5 150070220.70015       220.468          30.500  
C23  23104323.107 6 120310273.10516     -1657.226          38.750                                                                  
C 8  37798689.921 7 196827696.425 7      1549.023          42.500    37798688.563 6 152199658.007 6      1197.159          38.000  
C28  22172268.966 7 115456825.580 7     -1573.005          47.250                                                                  
> 2021  5 18  3  8 14.0000000  0 13                     
G 7  20328828.671 8 106828720.187 8       985.611          48.750    20328826.150 7  83243152.543 7       768.007          46.250  
G 1  20383541.400 7 107116231.001 7      1970.170          47.000    20383543.305 7  83467200.994 7      1535.195          46.500  
G30  22713869.977 5 119362192.13415      2867.947          30.250                                                                  
