     3.03           OBSERVATION DATA    M: Mixed            RINEX VERSION / TYPE
RTKCONV demo5 b33c                      20210520 080931 UTC PGM / RUN BY / DATE 
log: C:\Users\Ivan_PolyU_Dktp\Dropbox\HUAWEI Exp\20210518_  COMMENT             
format: RINEX                                               COMMENT             
Geo++                                                       MARKER NAME         
                                                            MARKER NUMBER       
                                                            MARKER TYPE         
                                                            OBSERVER / AGENCY   
unknown             Xiaomi              MI 8                REC # / TYPE / VERS 
unknown             MI 8                                    ANT # / TYPE        
 -2419220.0076  5385473.7854  2405345.6523                  APPROX POSITION XYZ 
        0.0000        0.0000        0.0000                  ANTENNA: DELTA H/E/N
G    8 C1C L1C D1C S1C C5Q L5Q D5Q S5Q                      SYS / # / OBS TYPES 
R    4 C1C L1C D1C S1C                                      SYS / # / OBS TYPES 
J    8 C1C L1C D1C S1C C5Q L5Q D5Q S5Q                      SYS / # / OBS TYPES 
  2021     5    18     3     7   14.9996139     GPS         TIME OF FIRST OBS   
  2021     5    18     4     3    3.9997618     GPS         TIME OF LAST OBS    
G                                                           SYS / PHASE SHIFT   
R                                                           SYS / PHASE SHIFT   
J                                                           SYS / PHASE SHIFT   
  3 R01  1 R09 -2 R17  4                                    GLONASS SLOT / FRQ #
 C1C    0.000 C1P    0.000 C2C    0.000 C2P    0.000        GLONASS COD/PHS/BIS 
                                                            END OF HEADER       
> 2021  5 18  3  7 14.9996139  0 10                     
G 1  20405825.141 1 107233424.521 1      2082.134          28.000    20405824.242 1  80076773.22411      1554.796          24.250  
G 7  20340030.290 1                      1098.476          19.250                                                                  
G 8  21970611.962 1                     -2175.347          15.250    21970624.853 1  86217535.38111     -1623.349          24.750  
G21  20529429.871 1                      -553.181          21.500                                                                  
G30  22746111.794 1                      2959.451          21.750                                                                  
J 2  38024013.323 1                      1252.926          21.250    38024015.122 1 149214315.87811       933.521          21.250  
J 3                                                                  38975680.798 1                      -529.418          23.000  
R 9  20446902.404 1 109185371.131 1     -1193.153          28.000  
R10  19975231.435 1                      1946.198          19.250  
R21  20194453.771 1                      2104.964          13.250  
> 2021  5 18  3  7 15.9996140  0  9                     
G 1  20405457.296 1 107231499.872 1      2082.192          27.750    20405458.195 1                      1555.055          24.750  
G 7  20339845.318 1                      1098.837          19.250                                                                  
G 8  21971069.745 1                     -2175.192          15.000    21971067.946 1                     -1621.940          24.250  
G21  20529568.975 1                      -555.815          22.250                                                                  
J 2  38023797.773 1                      1259.046          20.750    38023806.467 1 149213499.356 1       934.167          20.500  
J 3                                                                  38975849.281 1                      -528.470          23.000  
R 9  20447153.930 1 109186724.223 1     -1193.004          28.250  
R10  19974863.889 1                      1946.526          18.250  
R21  20194095.219 1                      2106.810          13.500  
> 2021  5 18  3  7 16.9996140  0  9                     
G 1  20405063.369 1 107229417.785 1      2082.087          28.250    20405061.270 1  80073781.32011      1554.832          23.500  
G 7  20339638.761 1                      1096.120          18.000                                                                  
G 8                                                                  21971480.461 1                     -1624.073          24.500  
G21  20529670.905 1                      -557.930          21.500                                                                  
J 2  38023552.842 1                      1256.806          20.750    38023566.932 1                       933.136          20.000  
J 3                                                                  38975982.089 1                      -529.590          24.000  
R 9  20447385.969 1 109187917.421 1     -1193.198          28.750  
R10  19974458.270 1                      1960.549          22.750  
R21  20193714.482 1                      2105.452          15.000  
> 2021  5 18  3  7 17.9996141  0  9                     
G 1  20404703.917 1 107227494.137 1      2081.190          29.000    20404696.123 1  80072344.792 1      1554.173          24.250  
G 7  20339460.385 1                      1092.272          18.250                                                                  
G 8                                                                  21971925.353 1  86222638.89411     -1622.782          25.750  
G21  20529801.015 1                      -564.698          21.250                                                                  
G30  22744507.905 1                      2956.310          20.500                                                                  
J 2  38023345.985 1                      1253.385          21.000    38023357.078 1                       934.748          20.250  
J 3                                                                  38976148.174 1 152950607.50411      -529.027          24.500  
R 9  20447642.292 1 109189271.540 1     -1194.032          28.750  
R10  19974140.490 1                      1957.534          22.500  
> 2021  5 18  3  7 18.9996141  0  9                     
G 1  20404305.193 1 107225413.486 1      2080.651          29.000    20404300.996 1  80070790.986 1      1553.806          25.000  
G 7  20339239.138 1                      1093.516          18.750                                                                  
G 8                                                                  21972337.267 1  86224261.779 1     -1622.885          26.250  
G21  20529910.439 1                      -560.668          22.500                                                                  
G30  22743918.813 1                      2955.387          20.750                                                                  
J 2  38023118.143 1                      1248.968          21.500                                                                  
J 3                                                                  38976281.882 1 152951136.293 1      -528.789          24.000  
R 9  20447857.543 1 109190466.078 1     -1194.537          28.250  
R10  19973778.041 1                      1955.668          24.750  
> 2021  5 18  3  7 19.9996142  0  9                     
G 1  20403938.847 1                      2079.466          29.250    20403935.549 1  80069355.583 1      1553.048          26.000  
G 7  20339066.757 1                      1095.806          16.250                                                                  
G 8  21972784.258 1                     -2169.549          15.500    21972780.960 1  86226002.503 1     -1623.079          26.500  
G21  20530054.939 1                      -560.343          21.750                                                                  
G30  22743375.889 1                      2965.249          20.250                                                                  
J 2  38022905.590 1                      1251.165          21.500                                                                  
J 3  38976432.677 1                      -708.655          15.000    38976445.868 1 152951783.150 1      -529.211          24.750  
R 9  20448116.264 1 109191821.706 1     -1195.541          28.250  
R10  19973446.171 1                      1947.851          22.500  
> 2021  5 18  3  7 20.9996142  0 10                     
G 1  20403543.421 1 107221413.72111      2078.027          29.250    20403538.025 1                      1552.121          24.250  
G 7  20338856.603 1                      1093.030          17.250                                                                  
G 8  21973190.177 1                     -2175.379          15.500    21973195.273 1  86227626.475 1     -1623.972          26.250  
G21  20530154.770 1                      -564.244          21.000                                                                  
J 2  38022676.549 1                      1254.418          21.750                                                                  
J 3                                                                  38976583.773 1                      -531.687          24.250  
R 9  20448348.603 1 109193018.999 1     -1197.293          28.750  
R10  19973044.749 1                      1948.756          22.750  
R20  19845111.016 1                     -2276.346          10.250  
R21  20192223.914 1                      2099.102          15.500  
> 2021  5 18  3  7 21.9996143  0  9                     
G 1  20403177.074 1 107219494.996 1      2076.267          29.500    20403171.378 1  80066370.92111      1550.582          23.250  
G 7  20338682.723 1                      1079.289          17.500                                                                  
G 8  21973633.270 1                     -2170.560          15.000    21973639.266 1  86229369.065 1     -1624.945          26.250  
G21  20530285.779 1                      -564.611          21.000                                                                  
J 2  38022469.392 1                      1255.006          21.250                                                                  
J 3                                                                  38976747.159 1                      -530.868          25.500  
R 9  20448589.036 1 109194378.232 1     -1199.146          28.500  
R10  19972731.766 1                      1947.556          22.500  
R21  20191784.419 1                      2103.333          16.000  
> 2021  5 18  3  7 22.9996143  0 10                     
G 1  20402785.246 1 107217418.967 1      2076.029          30.000    20402777.751 1  80064820.732 1      1550.189          23.500  
G 7  20338489.357 1                      1078.407          18.250                                                                  
G 8  21974050.282 1                     -2174.741          15.250    21974055.378 1  86230993.777 1     -1624.712          26.500  
G21  20530394.903 1                      -562.964          21.250                                                                  
G30  22741731.227 1                      2953.628          20.750    22741712.040 1                      2201.970          17.750  
J 2  38022238.852 1                      1255.492          20.250    38022228.959 1                       932.076          22.500  
J 3                                                                  38976881.466 1 152953491.70411      -530.384          24.750  
R 9  20448820.776 1 109195577.484 1     -1199.253          28.500  
R10  19972362.721 1                      1952.582          23.500  
R21  20191448.951 1                      2101.447          16.500  
> 2021  5 18  3  7 23.9996144  0  9                     
G 1  20402422.197 1 107215500.092 1      2076.417          30.500    20402412.604 1                      1551.266          23.000  
G 7  20338315.177 1                      1089.224          20.250                                                                  
G 8                                                                  21974499.071 1                     -1623.220          26.000  
G21  20530533.407 1                      -561.340          20.500                                                                  
G30  22741202.993 1                      2954.876          20.500                                                                  
J 2  38022019.104 1                      1256.215          19.500    38022017.005 1 149206501.11111       933.427          22.750  
J 3                                                                  38977049.050 1                      -528.333          24.250  
R 9  20449081.895 1 109196936.490 1     -1198.918          29.000  
R10  19972008.067 1                      1955.705          23.000  
> 2021  5 18  3  7 24.9996144  0  9                     
G 1  20402028.270 1 107213422.560 1      2077.532          31.250    20402016.578 1                      1550.545          23.500  
G 7  20338121.511 1                      1096.857          21.000                                                                  
G 8                                                                  21974910.686 1  86234358.52711     -1623.078          26.000  
G21  20530650.027 1                      -559.020          20.750                                                                  
G30  22740640.582 1                      2953.893          20.500                                                                  
J 2  38021777.471 1                      1254.781          20.000    38021779.270 1 149205566.639 1       934.472          24.000  
J 3                                                                  38977182.158 1 152954667.85411      -528.782          24.500  
R 9  20449306.740 1 109198134.746 1     -1198.257          29.000  
R10  19971619.835 1                      1957.445          23.250  
> 2021  5 18  3  7 25.9996145  0  9                     
G 1  20401661.024 1 107211503.750 1      2076.351          31.250    20401653.529 1  80060403.87211      1550.631          23.500  
G 7  20337928.445 1                      1093.220          19.750                                                                  
G 8                                                                  21975356.177 1  86236099.496 1     -1623.324          26.500  
G21  20530793.627 1                      -563.201          21.000                                                                  
G30  22740103.054 1                      2953.525          19.500                                                                  
J 2  38021567.317 1                      1245.358          21.000    38021574.212 1                       933.217          23.000  
J 3                                                                  38977349.742 1 152955314.387 1      -528.887          23.750  
R 9  20449560.064 1                     -1199.937          28.750  
R10  19971304.454 1                      1952.851          23.250  
> 2021  5 18  3  7 26.9996145  0  8                     
G 1  20401266.797 1 107209428.197 1      2075.554          31.000                                                                  
G 7  20337734.180 1                      1088.984          20.500                                                                  
G 8                                                                  21975768.392 1  86237722.936 1     -1623.440          26.250  
G21  20530896.156 1                      -567.873          21.000                                                                  
J 2  38021341.273 1                      1250.427          20.750    38021334.078 1                       934.611          23.000  
J 3                                                                  38977482.251 1 152955843.301 1      -528.915          24.500  
R 9  20449790.605 1 109200693.56411     -1199.760          28.750  
R10  19970934.210 1                      1946.101          25.500  
> 2021  5 18  3  7 27.9996146  0  8                     
G 1  20400904.648 1 107207510.815 1      2074.923          30.750                                                                  
G 7  20337542.312 1                      1084.615          21.500                                                                  
G 8                                                                  21976210.586 1                     -1622.963          25.750  
G21  20531025.667 1                      -560.046          20.750                                                                  
J 2  38021137.414 1                      1251.262          20.500    38021126.622 1 149202999.56511       934.042          22.750  
J 3                                                                  38977648.336 1                      -529.035          24.500  
R 9  20450046.627 1 109202054.046 1     -1200.394          27.750  
R10  19970609.235 1                      1948.714          24.500  
> 2021  5 18  3  7 28.9996146  0  9                     
G 1  20400507.423 1 107205437.006 1      2073.809          31.000                                                                  
G 7  20337352.244 1 106873386.36411      1084.955          23.000                                                                  
G 8                                                                  21976626.998 1  86241088.06111     -1624.071          26.000  
G21  20531134.491 1                      -565.578          22.250                                                                  
G30  22738451.797 1                      2956.476          21.000                                                                  
J 2  38020901.777 1                      1252.618          20.000                                                                  
J 3                                                                  38977780.244 1 152957019.11511      -529.359          24.500  
R 9  20450265.476 1 109203255.656 1     -1201.610          27.750  
R10  19970247.385 1 106527602.02811      1949.582          25.500  
> 2021  5 18  3  7 29.9996147  0  9                     
G 1  20400142.875 1 107203521.189 1      2073.359          32.250                                                                  
G 7  20337166.972 1 106872459.356 1      1084.551          25.250                                                                  
G 8  21977089.577 1                     -2176.552          18.500    21977068.892 1                     -1624.242          25.750  
G 9  23940856.690 1                     -2200.758          10.750                                                                  
G21  20531278.392 1                      -570.123          23.750                                                                  
J 2  38020674.235 1                      1248.924          21.750                                                                  
J 3                                                                  38977945.430 1                      -529.393          23.750  
R 9  20450509.507 1 109204617.699 1     -1201.956          27.750  
R10  19969908.020 1                      1951.717          25.750  
> 2021  5 18  3  7 30.9996147  0 10                     
G 1  20399746.250 1 107201448.132 1      2073.058          32.500                                                                  
G 7  20336961.614 1                      1083.569          26.500                                                                  
G 8  21977492.499 1                     -2174.505          19.500    21977483.505 1                     -1623.929          25.500  
G 9  23941270.703 1                     -2183.997          10.000                                                                  
G21  20531380.621 1                      -567.470          22.000                                                                  
G30  22737367.148 1 119485720.11711      2949.831          23.250                                                                  
J 2  38020428.705 1                      1252.576          19.750                                                                  
J 3  38978080.636 1                      -707.863          16.000                                                                  
R 9  20450735.850 1 109205820.004 1     -1202.305          27.250  
R10  19969534.179 1                      1948.862          26.000  
> 2021  5 18  3  7 31.9996148  0  9                     
G 1  20399381.402 1 107199533.341 1      2072.333          32.750                                                                  
G 7  20336787.135 1 106870449.25811      1083.450          26.500                                                                  
G 8  21977939.189 1                     -2169.842          20.250    21977926.598 1  86246194.66611     -1623.843          25.250  
G21  20531531.417 1                      -566.610          22.750                                                                  
G30  22736842.511 1                      2947.850          22.750                                                                  
J 2  38020212.255 1                      1254.404          20.000                                                                  
J 3                                                                  38978243.723 1                      -529.824          23.000  
R 9  20450975.684 1 109207183.009 1     -1202.917          25.750  
R10  19969213.701 1                      1946.113          25.000  
> 2021  5 18  3  7 32.9996148  0  9                     
G 1  20398988.374 1 107197462.203 1      2071.138          32.500                                                                  
G 7  20336585.974 1 106869367.009 1      1082.250          26.250                                                                  
G 8  21978346.607 1                     -2171.758          20.750    21978339.412 1                     -1624.909          25.000  
G21  20531640.241 1                      -568.007          23.500                                                                  
G30  22736277.702 1                      2952.531          21.250                                                                  
J 2  38019990.708 1                      1248.590          20.500    38019995.505 1 149198565.67511       933.545          23.250  
J 3  38978360.642 1                      -709.631          16.000    38978378.330 1 152959370.71211      -529.256          22.750  
R 9  20451190.336 1                     -1203.050          25.250  
R10  19968849.453 1                      1946.164          26.000  
> 2021  5 18  3  7 33.9996148  0  9                     
G 1  20398594.747 1 107195391.951 1      2070.252          31.250                                                                  
G 7  20336379.417 1 106868285.580 1      1081.428          25.000                                                                  
G 8  21978765.118 1                     -2176.989          19.250    21978754.025 1  86249443.57311     -1624.581          25.000  
G21  20531738.873 1                      -569.351          23.750                                                                  
G30  22735734.778 1                      2950.701          20.500                                                                  
J 2  38019750.874 1                      1252.278          20.000    38019759.268 1 149197632.289 1       933.386          23.000  
J 3  38978501.245 1                      -712.583          16.000    38978514.736 1 152959900.318 1      -529.606          23.500  
R 9  20451418.478 1                     -1206.831          24.750  
R10  19968475.612 1                      1947.669          25.750  
> 2021  5 18  3  7 34.9996149  0  9                     
G 1  20398230.499 1 107193478.988 1      2070.506          30.500                                                                  
G 7  20336207.936 1                      1084.717          22.500                                                                  
G 8  21979204.313 1                     -2177.400          18.250    21979199.217 1  86251185.233 1     -1624.015          25.000  
G21  20531875.279 1                      -569.953          24.250                                                                  
G30  22735193.953 1                      2954.267          20.250                                                                  
J 2  38019539.520 1                      1251.932          19.500    38019550.313 1                       933.776          23.750  
J 3  38978678.422 1                      -710.935          16.250    38978681.420 1                      -529.212          23.500  
R 9  20451688.291 1                     -1206.249          23.250  
R10  19968150.937 1                      1946.384          25.250  
> 2021  5 18  3  7 35.9996149  0  9                     
G 1  20397834.473 1 107191409.018 1      2069.969          29.750                                                                  
G 7  20335994.484 1                      1080.723          22.000                                                                  
G 8  21979624.023 1                     -2172.596          18.250    21979612.331 1                     -1624.260          25.500  
G21  20531987.701 1                      -570.152          24.500                                                                  
G30  22734620.750 1                      2948.516          20.750                                                                  
J 2  38019309.879 1                      1251.547          19.500    38019310.179 1                       934.079          23.000  
J 3                                                                  38978817.226 1                      -527.644          24.000  
R 9  20451905.640 1                     -1206.190          22.750  
R10  19967789.387 1                      1946.987          25.000  
> 2021  5 18  3  7 36.9996150  0  9                     
G 1  20397468.426 1 107189497.424 1      2069.136          29.500                                                                  
G 7  20335817.007 1 106865358.04611      1080.188          23.750                                                                  
G 8                                                                  21980056.923 1  86254551.08111     -1624.190          25.250  
G21  20532130.702 1                      -571.359          24.250                                                                  
G30  22734096.113 1                      2951.139          20.250                                                                  
J 2                                                                  38019106.021 1                       934.260          23.250  
J 3                                                                  38978979.114 1 152961722.39211      -529.058          24.500  
R 9  20452154.168 1                     -1202.796          23.000  
R10  19967445.825 1                      1946.871          26.000  
> 2021  5 18  3  7 37.9996150  0 10                     
G 1  20397075.698 1 107187428.610 1      2068.813          30.000                                                                  
G 7  20335611.949 1                      1078.950          24.250                                                                  
G 8  21980471.836 1                     -2181.596          19.500    21980471.236 1                     -1624.455          24.750  
G21  20532237.728 1 107897660.55511      -571.302          26.000                                                                  
G30  22733537.899 1                      2951.964          22.500                                                                  
J 2  38018870.084 1                      1250.190          19.500    38018865.587 1                       934.209          23.500  
J 3                                                                  38979115.820 1                      -528.664          23.500  
R 9  20452400.298 1                     -1206.981          25.250  
R10  19967076.181 1 106510713.47311      1946.051          29.250  
R21  20185809.255 1                      2086.466          14.750  
> 2021  5 18  3  7 38.9996151  0 10                     
G 1  20396712.050 1 107185517.849 1      2068.303          29.750    20396734.235 1                      1545.877          20.000  
G 7  20335440.767 1 106863356.45911      1079.422          25.000                                                                  
G 8  21980925.122 1                     -2178.421          19.500    21980914.330 1  86257916.75311     -1623.953          25.250  
G21  20532376.232 1 107898389.782 1      -571.685          25.500                                                                  
G30  22733006.367 1                      2952.757          21.750                                                                  
J 2  38018659.030 1                      1253.043          20.000    38018658.131 1 149193314.97611       934.128          23.500  
J 3  38979262.718 1                      -707.500          16.250    38979278.307 1                      -527.041          23.250  
R 9  20452677.606 1                     -1206.752          25.250  
R10  19966742.812 1 106508927.410 1      1945.981          29.250  
R21  20185408.433 1                      2086.497          18.500  
> 2021  5 18  3  7 39.9996151  0  9                     
G 1  20396318.123 1 107183449.910 1      2067.939          28.500    20396335.211 1                      1543.405          20.750  
G 7  20335231.812 1                      1078.580          25.500                                                                  
G 8  21981331.641 1                     -2177.739          20.000    21981327.743 1                     -1623.858          25.000  
G21  20532478.461 1                      -573.600          24.500                                                                  
J 2  38018430.888 1                      1253.591          19.250    38018419.196 1 149192380.700 1       934.276          24.750  
J 3  38979402.421 1                      -715.470          17.750    38979414.113 1 152963425.95611      -528.782          24.000  
R 9  20452897.953 1                     -1209.242          24.250  
R10  19966372.868 1 106506981.912 1      1945.499          29.000  
R21  20185025.897 1                      2097.177          16.250  
> 2021  5 18  3  7 40.9996152  0  8                     
G 1  20395955.674 1 107181540.804 1      2066.648          28.250    20395976.060 1                      1539.171          20.250  
G 7  20335054.635 1                      1077.271          24.750                                                                  
G 8  21981757.646 1                     -2176.122          19.750    21981769.638 1  86261282.80611     -1624.434          24.250  
G21  20532615.466 1 107899693.73211      -573.421          23.750                                                                  
J 2  38018227.928 1                      1254.187          19.000    38018212.039 1                       934.058          25.250  
J 3  38979563.710 1                      -706.565          16.750    38979578.399 1                      -529.168          23.750  
R 9  20453139.586 1                     -1210.427          23.500  
R10  19966037.100 1 106505197.256 1      1944.575          28.750  
> 2021  5 18  3  7 41.9996152  0  8                     
G 1  20395559.948 1 107179474.928 1      2065.876          27.500    20395582.132 1                      1538.632          20.750  
G 7  20334853.474 1                      1075.537          24.500                                                                  
G 8  21982180.353 1                     -2178.158          18.750    21982185.150 1                     -1624.985          24.750  
G21  20532723.991 1                      -574.397          24.250                                                                  
J 2  38017976.403 1                      1252.570          17.250    38017974.604 1 149190630.68811       933.701          25.250  
J 3  38979689.622 1                      -712.026          16.000    38979712.407 1                      -529.138          25.250  
R 9  20453370.426 1                     -1209.202          23.000  
R10  19965685.743 1 106503253.260 1      1943.996          28.250  
> 2021  5 18  3  7 42.9996153  0  8                     
G 1  20395195.700 1 107177566.926 1      2065.544          27.750    20395216.685 1                      1543.660          19.250  
G 7  20334679.294 1                      1075.983          25.750                                                                  
G 8  21982642.633 1                     -2175.842          18.750    21982628.843 1  86264649.57511     -1624.445          24.250  
G21  20532869.990 1 107900999.90311      -574.324          23.750                                                                  
J 2  38017777.340 1                      1249.539          19.750    38017766.548 1 149189814.350 1       933.984          25.750  
J 3  38979867.100 1                      -715.223          14.250    38979877.292 1                      -528.812          25.250  
R 9  20453602.765 1                     -1213.254          22.750  
R10  19965346.978 1 106501469.306 1      1943.873          28.000  
> 2021  5 18  3  7 43.9996153  0 10                     
G 1  20394807.169 1 107175502.093 1      2064.833          27.750    20394823.957 1                      1544.526          20.750  
G 7  20334476.335 1 106858286.12711      1075.792          26.750                                                                  
G 8  21983055.447 1                     -2176.153          16.250    21983040.158 1                     -1624.510          23.500  
G 9  23946892.411 1                     -2198.304          10.250                                                                  
G21  20532983.611 1                      -575.130          23.000                                                                  
J 2  38017542.603 1                      1247.767          19.250    38017528.812 1 149188880.467 1       933.883          25.500  
J 3  38980011.300 1                      -714.897          14.500    38980014.597 1 152965776.96811      -528.880          25.500  
R 9  20453837.803 1                     -1211.404          24.250  
R10  19964977.334 1 106499525.964 1      1943.342          28.250  
R21  20183551.218 1                      2080.924          19.000  
> 2021  5 18  3  7 44.9996154  0 10                     
G 1  20394448.617 1 107173595.939 1      2063.696          28.000    20394460.609 1                      1537.787          18.250  
G 7  20334296.759 1 106857368.785 1      1074.884          26.750                                                                  
G 8                                                                  21983486.549 1  86268016.15811     -1624.517          21.250  
G 9  23947350.494 1                     -2203.468          12.750                                                                  
G21  20533121.216 1                      -578.269          20.750                                                                  
J 2  38017310.863 1                      1252.131          21.500    38017322.555 1                       933.576          22.750  
J 3                                                                  38980179.483 1 152966423.778 1      -529.166          24.250  
R 9  20454106.417 1 109223830.30211     -1211.691          26.500  
R10  19964638.568 1                      1940.337          26.000  
R21  20183153.693 1                      2081.857          19.750  
> 2021  5 18  3  7 45.9996154  0 10                     
G 1  20394056.488 1 107171533.119 1      2062.820          27.250                                                                  
G 7  20334091.701 1 106856293.898 1      1074.887          26.250                                                                  
G 8  21983916.751 1                     -2182.423          14.250    21983901.462 1                     -1624.608          17.000  
G 9  23947774.701 1                     -2192.500          11.750                                                                  
G21  20533238.435 1                      -579.750          19.000                                                                  
J 2  38017087.518 1                      1252.565          21.000    38017088.118 1                       933.871          22.500  
J 3                                                                  38980312.591 1                      -506.273          19.250  
R 9  20454323.766 1                     -1210.381          23.500  
R10  19964289.010 1                      1942.648          28.000  
R21  20182774.156 1                      2075.943          15.750  
> 2021  5 18  3  7 46.9996155  0 11                     
G 1  20393686.844 1 107169628.842 1      2061.819          25.500                                                                  
G 7  20333928.314 1                      1075.996          25.750                                                                  
G 8  21984347.553 1                     -2170.331          22.000                                                                  
G 9  23948215.395 1                     -2199.847          12.000                                                                  
G21  20533369.144 1                      -577.590          18.500                                                                  
G30  22728602.116 1                      2951.821          18.500                                                                  
J 2  38016881.860 1                      1252.154          21.000    38016880.661 1                       934.326          22.000  
J 3                                                                  38980451.695 1                      -530.118          19.250  
R 9  20454592.980 1                     -1211.094          22.250  
R10  19963942.150 1                      1946.851          25.750  
R21  20182420.701 1                      2069.117          15.000  
> 2021  5 18  3  7 47.9996155  0  9                     
G 1  20393296.515 1 107167568.603 1      2060.240          26.500    20393297.114 1  80027761.26511      1538.462          28.250  
G 7  20333710.965 1 106854299.87111      1074.269          27.250                                                                  
G 8  21984760.367 1                     -2169.220          23.500                                                                  
G 9  23948646.797 1                     -2198.474          12.250                                                                  
G21  20533487.263 1                      -576.962          21.250                                                                  
J 2  38016631.234 1                      1246.734          20.250    38016634.232 1 149185380.86211       933.304          21.750  
R 9  20454816.925 1                     -1218.350          24.750  
R10  19963590.494 1                      1941.697          24.500  
R21  20182049.858 1                      2078.633          16.250  
> 2021  5 18  3  7 48.9996156  0  9                     
G 1  20392935.265 1 107165667.379 1      2058.765          26.250    20392934.665 1  80026341.503 1      1537.407          28.250  
G 7  20333540.982 1 106853383.328 1      1074.085          28.500                                                                  
G 8  21985203.161 1 115532980.41411     -2172.581          23.500    21985199.563 1                     -1621.121          22.250  
G21  20533614.674 1                      -585.999          21.000                                                                  
J 2  38016438.168 1                      1242.639          20.000                                                                  
J 3  38980768.575 1                      -709.466          21.500                                                                  
R 9  20455057.658 1                     -1214.195          23.500  
R10  19963266.118 1                      1942.158          24.250  
R21  20181680.513 1                      2089.168          21.250  
> 2021  5 18  3  7 49.9996156  0  9                     
G 1  20392546.134 1                      2057.471          25.000    20392541.937 1  80024804.316 1      1537.186          28.250  
G 7  20333337.124 1 106852310.530 1      1072.798          30.500                                                                  
G 8  21985615.675 1                     -2175.175          22.500    21985618.373 1  86276316.66311     -1620.829          21.000  
G21  20533726.797 1                      -578.473          21.500                                                                  
J 2  38016191.438 1                      1244.684          19.250    38016185.742 1                       934.215          18.750  
J 3  38980903.182 1                      -707.850          21.750                                                                  
R 9  20455266.614 1                     -1213.163          21.000  
R10  19962907.567 1                      1945.922          21.500  
R21  20181278.192 1                      2093.897          19.250  
> 2021  5 18  3  7 50.9996157  0  9                     
G 1  20392180.087 1                      2059.809          24.750    20392182.486 1  80023384.882 1      1537.080          27.750  
G 7  20333162.045 1 106851395.620 1      1072.452          29.500                                                                  
G 8                                                                  21986061.766 1                     -1620.224          21.750  
G21  20533861.703 1                      -574.397          21.750                                                                  
J 2  38015968.693 1                      1250.186          18.000                                                                  
J 3  38981065.370 1                      -707.229          22.750    38981068.967 1                      -527.461          24.250  
R 9  20455551.416 1                     -1214.146          23.750  
R10  19962557.109 1                      1943.923          24.000  
R21  20180909.447 1                      2087.316          17.250  
> 2021  5 18  3  7 51.9996157  0  9                     
G 1  20391791.856 1                      2058.337          25.000    20391787.359 1  80021848.164 1      1536.718          27.000  
G 7  20332956.987 1 106850323.781 1      1071.839          32.250                                                                  
G 8  21986471.882 1 115539656.11711     -2172.800          27.500    21986470.383 1                     -1622.720          22.500  
G21  20533970.228 1                      -580.380          20.250                                                                  
J 2  38015750.743 1                      1249.470          20.250                                                                  
J 3  38981204.474 1                      -708.522          21.500    38981208.371 1                      -528.059          24.750  
R 9  20455796.946 1                     -1216.420          22.500  
R10  19962192.861 1                      1940.412          23.750  
R21  20180538.304 1                      2080.022          14.750  
> 2021  5 18  3  7 52.9996158  0 10                     
G 1  20391428.808 1                      2055.488          27.000    20391425.510 1  80020429.948 1      1535.861          25.000  
G 7  20332782.508 1 106849410.839 1      1070.484          31.750                                                                  
G 8  21986912.577 1                     -2171.172          25.250    21986911.978 1                     -1621.298          20.250  
G21  20534129.718 1                      -584.463          21.500                                                                  
G30  22725353.865 1                      2949.795          19.500                                                                  
J 2  38015542.388 1                      1252.303          21.750    38015535.792 1 149181062.46311       935.241          21.750  
J 3  38981370.859 1                      -706.501          20.500                                                                  
R 9  20456037.380 1                     -1214.236          22.750  
R10  19961861.291 1                      1940.109          23.750  
R21  20180163.863 1                      2076.353          15.750  
> 2021  5 18  3  7 53.9996158  0 10                     
G 1  20391039.977 1                      2058.756          26.000    20391035.480 1  80018894.213 1      1535.735          22.250  
G 7  20332580.747 1 106848341.274 1      1069.564          30.250                                                                  
G 8  21987324.792 1                     -2175.499          26.500    21987328.090 1                     -1625.979          23.000  
G21  20534237.044 1                      -582.262          20.000                                                                  
G30  22724775.265 1                      2942.153          18.500                                                                  
J 2  38015295.658 1                      1253.229          18.250    38015293.260 1                       932.340          18.750  
J 3  38981506.664 1                      -708.967          20.500    38981504.266 1                      -525.136          18.750  
R 9  20456285.308 1                     -1216.156          22.750  
R10  19961487.150 1                      1941.556          25.000  
R21  20179782.227 1                      2068.584          14.250  
> 2021  5 18  3  7 54.9996159  0 10                     
G 1  20390679.027 1 107153794.58911      2057.359          26.500    20390675.129 1                      1535.523          22.000  
G 7  20332409.266 1 106847431.308 1      1067.508          29.500                                                                  
G 8  21987771.183 1 115546499.56611     -2177.034          26.500                                                                  
G21  20534386.640 1                      -584.041          20.750                                                                  
G30  22724242.234 1                      2930.280          16.000                                                                  
J 2  38015068.116 1                      1252.880          16.250    38015091.200 1                       915.825          18.750  
J 3  38981664.056 1                      -711.891          22.000                                                                  
R 9  20456534.436 1                     -1216.978          23.500  
R10  19961158.577 1                      1937.141          23.750  
R21  20179388.000 1                      2070.103          13.750  
> 2021  5 18  3  7 55.9996159  0 10                     
G 1  20390289.896 1 107151737.530 1      2057.059          25.750                                                                  
G 7  20332209.005 1 106846363.613 1      1067.695          30.250                                                                  
G 8  21988185.196 1 115548676.561 1     -2176.995          26.000                                                                  
G21  20534493.066 1                      -584.108          19.750                                                                  
G30  22723666.333 1                      2926.955          12.500                                                                  
J 2  38014834.877 1                      1251.969          14.000    38014856.163 1                       933.644          19.250  
J 3  38981807.956 1                      -709.208          22.000                                                                  
R 9  20456763.477 1                     -1216.256          22.000  
R10  19960780.239 1                      1936.714          22.500  
R21  20179004.266 1                      2071.024          13.000  
> 2021  5 18  3  7 56.9996159  0  8                     
G 1  20389898.067 1                      2055.014          24.000                                                                  
G 7  20332003.347 1                      1065.527          27.000                                                                  
G 8  21988607.604 1                     -2176.700          22.750                                                                  
G21  20534590.799 1                      -587.049          17.250                                                                  
J 2                                                                  38014619.626 1                       935.208          19.750  
J 3  38981956.053 1                      -703.341          19.000                                                                  
R 9  20456985.923 1                     -1217.577          22.750  
R10  19960413.593 1                      1941.996          22.750  
> 2021  5 18  3  7 57.9996160  0  7                     
G 1  20389521.828 1                      2052.963          21.500                                                                  
G 7  20331832.465 1                      1065.129          22.250                                                                  
G 8  21989053.095 1                     -2177.476          19.250                                                                  
G21  20534724.206 1                      -583.690          15.750                                                                  
J 3  38982112.545 1                      -699.765          16.000                                                                  
R 9  20457254.837 1                     -1221.967          24.000  
R10  19960079.325 1                      1946.353          19.750  
> 2021  5 18  3  7 58.9996160  0  8                     
G 1  20389145.588 1                      2055.489          22.500                                                                  
G 7  20331631.604 1                      1064.533          22.250                                                                  
G 8  21989466.209 1                     -2175.544          18.500                                                                  
G21  20534825.836 1                      -585.927          17.500                                                                  
J 2  38014169.038 1                      1254.003          18.750                                                                  
J 3  38982239.057 1                      -708.546          19.250                                                                  
R 9  20457490.474 1                     -1222.471          23.000  
R10  19959733.064 1                      1945.884          21.250  
> 2021  5 18  3  7 59.9996161  0  8                     
G 1  20388782.839 1                      2056.157          23.500    20388778.642 1                      1533.718          21.250  
G 7  20331450.530 1                      1065.863          24.500                                                                  
G 8  21989911.701 1                     -2170.538          20.750                                                                  
G21  20534979.929 1                      -588.120          18.750                                                                  
G30                                                                  22721510.526 1                      2196.872          21.750  
J 2  38013932.802 1                      1258.950          18.250                                                                  
J 3  38982405.442 1                      -718.088          19.750                                                                  
R 9  20457748.296 1                     -1222.409          22.000  
> 2021  5 18  3  8  0.9996161  0  9                     
G 1  20388393.109 1                      2052.652          24.500    20388391.310 1  80008504.60111      1533.216          22.000  
G 7  20331257.463 1                      1067.812          25.000                                                                  
G 8  21990318.819 1 115559866.58411     -2175.331          24.750                                                                  
G21  20535103.743 1                      -582.996          20.750                                                                  
G30                                                                  22720954.411 1                      2197.618          18.500  
J 2  38013707.658 1                      1255.914          17.000    38013722.647 1 149173965.07911       933.568          21.250  
J 3  38982541.848 1                      -713.962          20.000                                                                  
R 9  20457988.429 1                     -1227.862          21.000  
R10  19959022.856 1                      1937.001          27.000  
> 2021  5 18  3  8  1.9996162  0  8                     
G 1  20388036.956 1                      2053.238          22.250    20388033.658 1                      1530.791          19.000  
G 7  20331078.487 1                      1062.864          25.750                                                                  
G 8  21990768.508 1                     -2175.276          22.000                                                                  
G21  20535237.451 1                      -584.783          20.500                                                                  
J 2  38013501.401 1                      1247.459          20.000    38013510.994 1                       935.070          18.750  
J 3  38982705.535 1                      -703.185          21.250    38982705.235 1                      -522.671          20.000  
R 9  20458246.251 1                     -1224.551          22.000  
R10  19958688.887 1 106466024.13411      1936.436          28.250  
> 2021  5 18  3  8  2.9996162  0  9                     
G 1  20387644.228 1                      2057.283          20.750    20387637.932 1                      1527.676          21.250  
G 7  20330880.924 1                      1065.652          22.750                                                                  
G 8  21991178.924 1                     -2172.166          21.250                                                                  
G21  20535354.970 1                      -587.655          19.500                                                                  
J 2  38013258.868 1                      1242.684          20.000    38013268.762 1                       928.318          19.500  
J 3  38982835.045 1                      -697.501          19.750    38982831.447 1                      -518.862          20.500  
R 9  20458452.208 1                     -1219.616          23.750  
R10  19958326.138 1 106464087.029 1      1937.105          31.250  
R20  19863717.934 1                     -2309.671          20.750  
> 2021  5 18  3  8  3.9996163  0 10                     
G 1  20387285.076 1                      2055.808          19.000    20387279.380 1                      1532.200          23.000  
G 7  20330707.644 1                      1068.897          20.750                                                                  
G 8  21991610.625 1                     -2167.689          20.750    21991618.419 1                     -1625.320          18.500  
G21  20535497.071 1                      -592.783          18.000                                                                  
G30                                                                  22719337.030 1                      2195.239          17.500  
J 2  38013066.102 1                      1244.308          19.250                                                                  
J 3  38982997.233 1                      -697.955          20.750    38982997.532 1                      -521.861          19.500  
R 9  20458703.434 1                     -1222.606          22.750  
R10  19958002.362 1 106462307.143 1      1939.805          35.500  
R20  19864187.709 1                     -2305.236          21.250  
> 2021  5 18  3  8  4.9996163  0 10                     
G 1  20386888.751 1                      2051.363          19.500    20386897.145 1                      1531.906          20.000  
G 7  20330505.884 1                      1063.577          21.750                                                                  
G 8  21992021.640 1                     -2169.365          20.250    21992032.433 1                     -1617.585          22.750  
G21  20535608.894 1                      -592.393          16.500                                                                  
G30                                                                  22718776.718 1                      2201.805          17.500  
J 2  38012833.163 1                      1248.543          20.500    38012828.966 1                       942.127          21.000  
J 3  38983137.535 1                      -705.501          20.250    38983133.938 1                      -524.566          21.250  
R 9  20458930.677 1                     -1225.018          21.250  
R10  19957631.219 1 106460366.460 1      1940.683          35.000  
R20  19864573.842 1                     -2302.305          22.500  
> 2021  5 18  3  8  5.9996164  0 11                     
G 1  20386543.989 1                      2048.449          21.250                                                                  
G 7  20330338.000 1                      1056.878          19.250                                                                  
G 8  21992485.719 1                     -2174.393          19.500    21992478.824 1                     -1620.434          22.250  
G21  20535745.899 1                      -591.974          17.750                                                                  
G30                                                                  22718248.784 1                      2208.327          19.000  
J 2  38012620.011 1                      1248.133          19.750    38012616.113 1                       935.290          23.250  
J 3  38983300.323 1                      -708.394          21.500    38983286.832 1                      -526.275          24.500  
R 9  20459202.889 1                     -1225.972          20.500  
R10  19957302.347 1 106458586.837 1      1939.541          35.750  
R20  19865077.193 1                     -2307.368          22.500  
R21  20175336.905 1                      2075.400          13.750  
> 2021  5 18  3  8  6.9996164  0  9                     
