     3.03           OBSERVATION DATA    M: Mixed            RINEX VERSION / TYPE
RTKCONV demo5 b33c                      20210520 081415 UTC PGM / RUN BY / DATE 
log: C:\Users\Ivan_PolyU_Dktp\Dropbox\HUAWEI Exp\20210518_  COMMENT             
format: RINEX                                               COMMENT             
                                                            MARKER NAME         
                                                            MARKER NUMBER       
                                                            MARKER TYPE         
                                                            OBSERVER / AGENCY   
                                                            REC # / TYPE / VERS 
                                                            ANT # / TYPE        
        0.0000        0.0000        0.0000                  APPROX POSITION XYZ 
        0.0000        0.0000        0.0000                  ANTENNA: DELTA H/E/N
G    4 C1C L1C D1C S1C                                      SYS / # / OBS TYPES 
R    4 C1C L1C D1C S1C                                      SYS / # / OBS TYPES 
J    4 C1C L1C D1C S1C                                      SYS / # / OBS TYPES 
  2021     5    18     3     7   15.9950000     GPS         TIME OF FIRST OBS   
  2021     5    18     4     3    3.9960000     GPS         TIME OF LAST OBS    
G                                                           SYS / PHASE SHIFT   
R                                                           SYS / PHASE SHIFT   
J                                                           SYS / PHASE SHIFT   
  0                                                         GLONASS SLOT / FRQ #
 C1C    0.000 C1P    0.000 C2C    0.000 C2P    0.000        GLONASS COD/PHS/BIS 
                                                            END OF HEADER       
> 2021  5 18  3  7 15.9950000  0  9                     
R 9  19010930.296 8 101517224.96135     -1648.856          28.000  
R10  18538563.344 9                      1485.351          18.000  
G30  21309296.014 9                      2511.292          14.000  
G 1  18969209.347 2  99683869.745 1      1633.091          37.000  
G21  19093311.719 8 100336039.82435     -1005.950          25.000  
G 7  18903607.941 2  99339113.276 1       644.874          37.000  
J 3  37539583.341 9                     -1152.637          22.000  
G 9  22498547.418 9                     -2642.178          14.000  
G 8  20534825.040 9                     -2622.825          25.000  
> 2021  5 18  3  7 16.9950000  0  9                     
R 9  19011232.333 8 101518850.49635     -1650.021          28.000  
R10  18538282.570 9                      1499.866          17.000  
G30  21308818.498 9                      2511.292          12.000  
G 1  18968898.611 2  99682236.759 1      1632.082          37.000  
G21  19093502.694 4 100337046.19225     -1006.957          26.000  
G 7  18903485.205 2  99338468.865 1       643.986          37.000  
J 3  37539804.322 9                     -1168.785          22.000  
G 9  22499049.888 9                     -2642.178          13.000  
G 8  20535323.654 9                     -2623.225          25.000  
> 2021  5 18  3  7 17.9950000  0 10                     
R 9  19011541.734 8 101520500.49725     -1649.609          28.000  
R10  18538000.976 9                      1497.950          18.000  
G30  21308340.030 9                      2502.275          13.000  
G 1  18968587.727 2  99680604.260 1      1633.074          34.000  
G21  19093697.019 8                     -1006.899          25.000  
G 7  18903362.617 4  99337825.101 2       643.012          33.000  
J 3  37540025.844 9                     -1160.134          21.000  
G 9  22499555.290 9                     -2642.178          14.000  
G 8  20535822.442 9                     -2623.649          25.000  
J 1  36051724.990 9                      -683.717          10.000  
> 2021  5 18  3  7 18.9950000  0 10                     
R 9  19011851.807 8                     -1650.290          26.000  
R10  18537719.486 9                      1497.950          17.000  
G30  21307864.198 9                      2502.275          14.000  
G 1  18968276.834 4  99678972.437 2      1631.175          36.000  
G21  19093888.126 9                     -1007.046          24.000  
G 7  18903240.274 4  99337181.774 2       643.495          34.000  
J 3  37540245.394 9                     -1160.471          20.000  
G 9  22500058.362 9                     -2642.178          13.000  
G 8  20536320.916 9                     -2620.248          24.000  
J 1  36051854.156 9                      -693.727          13.000  
> 2021  5 18  3  7 19.9950000  0 13                     
R 9  19012167.141 9                     -1652.313          26.000  
R10  18537439.000 9                      1499.857          16.000  
G30  21307387.833 9                      2502.275          14.000  
G 1  18967966.185 2  99677340.940 1      1630.910          36.000  
J 2  36586952.851 9                       796.878          13.000  
G21  19094078.944 9                     -1009.362          25.000  
G 7  18903117.651 4  99336538.937 2       642.219          36.000  
J 3  37540467.709 9                     -1149.157          20.000  
G 9  22500562.787 9                     -2646.081          13.000  
G 8  20536819.844 9                     -2622.114          24.000  
G17  22469732.231 9                      1558.686          15.000  
J 1  36051994.953 9                      -740.602          14.000  
G22  22761105.052 9                      1662.114          12.000  
> 2021  5 18  3  7 20.9950000  0 12                     
R 9  19012471.927 9                     -1651.974          25.000  
R10  18537157.101 9                      1499.857          14.000  
G30  21306911.844 9                      2502.275          14.000  
G 1  18967655.929 2  99675709.938 1      1630.657          37.000  
J 2  36586801.287 9                       796.878          12.000  
G21  19094269.177 9                     -1007.977          25.000  
G 7  18902995.089 2  99335896.583 1       642.238          36.000  
J 3  37540689.310 9                     -1155.784          20.000  
G 9  22501067.159 9                     -2646.081          13.000  
G 8  20537317.882 9                     -2618.385          25.000  
G17  22469436.188 9                      1558.686          12.000  
J 1  36052135.157 9                      -740.602          11.000  
> 2021  5 18  3  7 21.9950000  0 11                     
R 9  19012780.752 9                     -1653.506          25.000  
R10  18536875.602 9                      1499.857          14.000  
G30  21306436.840 9                      2502.275          13.000  
G 1  18967345.559 2  99674080.026 1      1629.638          37.000  
J 2  36586650.691 9                       796.878          10.000  
G21  19094461.470 8                     -1009.573          26.000  
G 7  18902872.964 2  99335255.387 1       640.661          36.000  
J 3  37540908.799 9                     -1155.664          20.000  
G 9  22501571.034 9                     -2646.081          13.000  
G 8  20537815.807 9                     -2611.910          24.000  
G17  22469139.691 9                      1558.686          11.000  
> 2021  5 18  3  7 22.9950000  0  9                     
R 9  19013089.089 9 101528765.51935     -1653.754          26.000  
R10  18536594.889 9                      1493.017          15.000  
G30  21305960.301 9                      2508.145          13.000  
G 1  18967035.356 1  99672450.627 1      1629.096          37.000  
G21  19094655.281 9                     -1009.833          26.000  
G 7  18902750.830 2  99334614.653 1       640.756          36.000  
J 3  37541129.500 9                     -1156.014          20.000  
G 9  22502074.944 9                     -2646.081          12.000  
G 8  20538314.455 9                     -2619.615          25.000  
> 2021  5 18  3  7 23.9950000  0  8                     
R 9  19013397.120 8 101530419.16324     -1653.771          27.000  
R10  18536315.791 9                      1496.749          16.000  
G 1  18966725.353 2  99670821.771 1      1628.132          38.000  
G21  19094846.055 9                     -1011.513          26.000  
G 7  18902628.818 2  99333974.512 1       639.879          36.000  
J 3  37541349.329 9                     -1143.765          20.000  
G 9  22502580.023 9                     -2646.081          12.000  
G 8  20538814.352 9                     -2622.161          25.000  
> 2021  5 18  3  7 24.9950000  0  8                     
R 9  19013706.948 4 101532064.38833     -1653.633          27.000  
R10  18536034.781 9                      1496.749          17.000  
G 1  18966415.472 2  99669193.419 1      1629.041          38.000  
G21  19095037.659 8                     -1011.869          26.000  
G 7  18902506.989 2  99333334.929 1       639.503          36.000  
J 3  37541568.679 9                     -1154.724          20.000  
G 9  22503084.099 9                     -2646.081          12.000  
G 8  20539314.527 9                     -2622.672          25.000  
> 2021  5 18  3  7 25.9950000  0  8                     
R 9  19014015.590 4 101533719.12423     -1654.649          28.000  
R10  18535754.269 9                      1486.229          17.000  
G 1  18966105.477 2  99667565.580 1      1627.689          37.000  
G21  19095229.698 8 100346115.95435     -1012.079          26.000  
G 7  18902385.082 2  99332695.819 1       638.529          36.000  
J 3  37541787.949 9                     -1154.420          20.000  
G 9  22503589.702 9                     -2652.661          13.000  
G 8  20539812.496 8                     -2621.117          25.000  
> 2021  5 18  3  7 26.9950000  0  9                     
R 9  19014325.716 4 101535374.35623     -1655.751          29.000  
R10  18535476.714 9                      1482.517          17.000  
G 1  18965795.858 2  99665938.261 1      1626.626          38.000  
G21  19095422.244 4 100347128.26324     -1012.622          26.000  
G 7  18902263.690 2  99332057.280 1       637.975          36.000  
J 3  37542008.878 9                     -1156.000          20.000  
G 9  22504096.212 9                     -2652.661          13.000  
G 8  20540312.558 8 107940064.44135     -2621.812          26.000  
J 1  36052981.257 9                      -740.602          11.000  
> 2021  5 18  3  7 27.9950000  0  9                     
R 9  19014636.670 9                     -1657.540          27.000  
R10  18535198.549 9                      1482.517          15.000  
G30  21303574.559 9                      2512.311          15.000  
G 1  18965486.684 2  99664311.633 1      1626.047          38.000  
G21  19095614.859 9                     -1013.710          26.000  
G 7  18902142.254 2  99331419.454 1       637.204          37.000  
J 3  37542228.515 9                     -1159.541          20.000  
G 9  22504602.041 9                     -2652.661          12.000  
G 8  20540813.745 8                     -2622.075          26.000  
> 2021  5 18  3  7 28.9950000  0  9                     
R 9  19014945.696 9                     -1656.899          27.000  
R10  18534920.550 9                      1482.517          13.000  
G30  21303096.319 9                      2512.311          15.000  
G 1  18965177.274 1  99662685.602 1      1626.319          39.000  
G21  19095808.217 9                     -1013.792          26.000  
G 7  18902020.791 2  99330782.254 1       637.446          37.000  
J 3  37542447.219 9                     -1161.803          20.000  
G 9  22505107.199 9                     -2652.661          12.000  
G 8  20541312.473 8 107945309.39425     -2622.261          25.000  
> 2021  5 18  3  7 29.9950000  0  9                     
R 9  19015257.147 8 101540335.78635     -1657.179          27.000  
R10  18534642.481 9                      1482.517          10.000  
G30  21302617.973 9                      2512.311          15.000  
G 1  18964868.012 2  99661059.923 1      1625.267          38.000  
G21  19096000.597 9                     -1012.689          26.000  
G 7  18901899.469 2  99330145.435 1       635.980          37.000  
J 3  37542666.542 9                     -1150.083          20.000  
G 9  22505612.243 9                     -2652.661          12.000  
G 8  20541813.844 8                     -2622.562          25.000  
> 2021  5 18  3  7 30.9950000  0  8                     
R 9  19015567.011 8 101541993.54924     -1658.074          27.000  
R10  18534364.830 9                      1482.517          10.000  
G30  21302140.980 9                      2507.480          15.000  
G 1  18964559.109 2  99659435.182 1      1623.866          39.000  
G21  19096193.622 9                     -1016.323          27.000  
G 7  18901778.696 2  99329509.527 1       635.109          37.000  
J 3  37542886.720 9                     -1161.126          21.000  
G 8  20542315.188 8                     -2622.079          25.000  
> 2021  5 18  3  7 31.9950000  0  7                     
R 9  19015878.035 4 101543652.18424     -1659.238          27.000  
G30  21301663.935 9                      2507.480          14.000  
G 1  18964249.978 2  99657811.148 1      1623.762          38.000  
G21  19096386.211 8 100352190.23235     -1016.436          27.000  
G 7  18901657.722 2  99328874.390 1       634.796          36.000  
J 3  37543105.223 9                     -1162.247          20.000  
G 8  20542815.329 9                     -2622.404          25.000  
> 2021  5 18  3  7 32.9950000  0  7                     
R 9  19016188.300 4 101545311.60624     -1660.824          27.000  
G30  21301187.998 9                      2508.613          14.000  
G 1  18963941.284 2  99656187.996 1      1622.540          38.000  
G21  19096580.301 8 100353207.00124     -1017.775          26.000  
G 7  18901537.037 2  99328240.176 1       632.934          37.000  
J 3  37543324.677 9                     -1158.633          21.000  
G 8  20543314.318 9                     -2624.910          24.000  
> 2021  5 18  3  7 33.9950000  0  7                     
R 9  19016498.861 4 101546971.94124     -1660.907          27.000  
G30  21300711.258 9                      2515.207          16.000  
G 1  18963632.546 1  99654565.740 1      1621.677          39.000  
G21  19096773.266 9                     -1017.919          26.000  
G 7  18901416.639 2  99327606.801 2       633.076          37.000  
J 3  37543544.811 9                     -1155.937          20.000  
G 8  20543813.970 9                     -2624.510          24.000  
> 2021  5 18  3  7 34.9950000  0  8                     
R 9  19016808.890 4 101548632.88724     -1661.985          27.000  
G30  21300232.973 9                      2500.140          16.000  
G 1  18963324.078 1  99652944.035 1      1621.269          39.000  
G21  19096966.649 9                     -1017.077          26.000  
G 7  18901296.346 2  99326974.052 1       632.341          37.000  
J 3  37543765.321 9                     -1155.853          20.000  
G 9  22508152.428 9                     -2700.692          12.000  
G 8  20544313.238 9                     -2626.356          23.000  
> 2021  5 18  3  7 35.9950000  0  7                     
R 9  19017120.447 4 101550294.37224     -1661.760          27.000  
G30  21299757.743 9                      2500.140          16.000  
G 1  18963015.541 1  99651322.935 1      1620.527          39.000  
G21  19097160.451 9                     -1019.081          26.000  
G 7  18901175.904 2  99326341.908 1       631.958          37.000  
J 3  37543985.455 9                     -1152.167          20.000  
G 8  20544814.068 9                     -2623.283          22.000  
> 2021  5 18  3  7 36.9950000  0  8                     
R 9  19017430.223 4 101551955.68515     -1662.303          27.000  
G30  21299280.445 9                      2505.998          17.000  
G 1  18962707.213 2  99649702.121 1      1620.143          38.000  
G21  19097354.227 9                     -1017.434          26.000  
G 7  18901055.611 2  99325710.070 1       631.856          36.000  
J 3  37544205.651 9                     -1153.399          20.000  
G 8  20545313.057 9                     -2626.326          21.000  
G14  23089486.547 9                      1857.207          13.000  
> 2021  5 18  3  7 37.9950000  0  8                     
R 9  19017741.919 4 101553617.834 5     -1662.349          27.000  
G30  21298805.040 9                      2508.058          17.000  
G 1  18962399.060 2  99648081.697 1      1619.933          38.000  
G21  19097549.024 9                     -1021.403          26.000  
G 7  18900935.641 2  99325078.673 1       631.043          36.000  
J 3  37544424.538 9                     -1171.611          20.000  
G 8  20545814.149 9                     -2626.238          20.000  
G14  23089130.441 9                      1904.082          13.000  
> 2021  5 18  3  7 38.9950000  0  8                     
R 9  19018053.239 8                     -1663.723          26.000  
G30  21298330.385 9                      2508.058          16.000  
G 1  18962091.020 2  99646461.987 1      1619.507          38.000  
G21  19097741.509 9                     -1019.108          26.000  
G 7  18900815.671 2  99324447.970 1       630.637          37.000  
J 3  37544644.951 9                     -1146.019          19.000  
G 8  20546314.150 9                     -2623.362          20.000  
G14  23088769.003 9                      1904.082          10.000  
> 2021  5 18  3  7 39.9950000  0  8                     
R 9  19018365.904 9                     -1665.047          26.000  
G30  21297855.948 9                      2500.456          16.000  
G 1  18961782.971 2  99644842.692 1      1619.011          38.000  
G21  19097935.930 9                     -1020.531          27.000  
G 7  18900695.927 2  99323817.709 1       630.717          37.000  
J 3  37544863.105 9                     -1153.813          19.000  
G 9  22510721.597 9                     -2669.442          11.000  
G 8  20546813.226 9                     -2617.023          21.000  
> 2021  5 18  3  7 40.9950000  0  7                     
R 9  19018676.866 9                     -1666.133          25.000  
G30  21297381.041 9                      2498.812          17.000  
G 1  18961475.027 1  99643223.825 1      1618.253          38.000  
G21  19098130.020 9                     -1022.320          27.000  
G 7  18900576.245 2  99323187.934 1       629.011          37.000  
J 3  37545082.760 9                     -1159.138          19.000  
G 8  20547312.442 9                     -2623.290          20.000  
> 2021  5 18  3  7 41.9950000  0  7                     
R 9  19018989.278 9                     -1673.943          24.000  
G30  21296907.276 9                      2502.427          18.000  
G 1  18961167.292 2  99641605.909 1      1617.995          43.000  
G21  19098324.765 8 100362372.75635     -1022.798          28.000  
G 7  18900456.781 2  99322559.084 1       628.655          42.000  
G 8  20547812.251 9                     -2618.974          20.000  
G14  23087677.108 9                      1950.957          10.000  
> 2021  5 18  3  7 42.9950000  0  7                     
R 9  19019299.865 9                     -1667.337          23.000  
G30  21296433.520 9                      2491.604          19.000  
G 1  18960859.662 1  99639988.582 1      1617.396          41.000  
G21  19098526.280 8 100363395.65223     -1022.597          31.000  
G 7  18900337.430 1  99321930.850 1       628.216          41.000  
G 9  22512239.679 9                     -2665.521          14.000  
G 8  20548311.485 9                     -2624.158          21.000  
> 2021  5 18  3  7 43.9950000  0  9                     
R 9  19019612.329 9                     -1645.755          22.000  
G30  21295960.837 9                      2494.951          20.000  
G 1  18960551.980 1  99638371.892 1      1616.303          41.000  
G21  19098721.679 8 100364419.09123     -1023.799          31.000  
G 7  18900218.167 1  99321303.120 1       627.108          41.000  
J 3  37545741.846 9                     -1159.606          21.000  
G 9  22512742.454 9                     -2643.305          15.000  
G 8  20548811.974 9                     -2633.188          20.000  
J 1  36054260.803 9                      -533.063          13.000  
> 2021  5 18  3  7 44.9950000  0  9                     
R 9  19019923.475 9                     -1665.291          25.000  
G30  21295486.052 9                      2499.896          20.000  
G 1  18960244.446 1  99636756.095 1      1615.466          37.000  
G21  19098918.421 8 100365443.46624     -1024.671          27.000  
G 7  18900098.685 2  99320676.061 1       627.409          36.000  
J 3  37545961.404 9                     -1156.106          21.000  
G 9  22513245.919 9                     -2658.369          14.000  
G 8  20549310.030 9                     -2624.012          23.000  
J 1  36054361.831 9                      -533.063          12.000  
> 2021  5 18  3  7 45.9950000  0  9                     
R 9  19020236.070 9                     -1668.213          25.000  
R10  18530179.291 9                      1489.194          15.000  
G30  21295011.921 9                      2500.681          18.000  
G 1  18959937.227 2  99635141.369 1      1613.733          36.000  
G21  19099113.044 8 100366468.63924     -1026.800          27.000  
G 7  18899978.968 2  99320049.426 1       626.413          36.000  
J 3  37546182.403 9                     -1159.022          21.000  
G 9  22513750.772 9                     -2658.369          13.000  
G 8  20549808.172 9                     -2624.563          21.000  
> 2021  5 18  3  7 46.9950000  0 10                     
R 9  19020543.089 9                     -1668.246          24.000  
R10  18529900.192 9                      1486.672          19.000  
G30  21294539.247 9                      2504.416          18.000  
G 1  18959630.138 2  99633527.884 1      1613.066          40.000  
J 2  36582861.795 9                       802.595          19.000  
G21  19099305.546 9                     -1030.369          25.000  
G 7  18899859.756 2  99319423.241 1       626.491          38.000  
J 3  37546403.924 9                     -1152.317          22.000  
G 9  22514250.982 9                     -2646.024          15.000  
G 8  20550304.683 9                     -2622.414          28.000  
> 2021  5 18  3  7 47.9950000  0 10                     
R 9  19020855.971 9                     -1670.150          30.000  
R10  18529621.015 9                      1483.108          21.000  
G30  21294065.019 9                      2500.686          20.000  
G 1  18959323.380 2  99631915.609 2      1611.852          38.000  
J 2  36582702.859 9                       802.595          22.000  
G21  19099498.885 9                     -1031.146          26.000  
G 7  18899740.554 2  99318797.139 1       624.261          39.000  
J 3  37546623.972 9                     -1153.426          22.000  
G 9  22514749.736 9                     -2642.808          17.000  
G 8  20550801.317 9                     -2621.137          25.000  
> 2021  5 18  3  7 48.9950000  0 10                     
R 9  19021168.635 9                     -1670.413          23.000  
R10  18529342.623 9                      1483.589          21.000  
G30  21293592.084 9                      2497.203          20.000  
G 1  18959016.832 8  99630304.505 3      1611.742          38.000  
J 2  36582545.353 9                       802.595          23.000  
G21  19099695.078 9                     -1025.736          25.000  
G 7  18899621.404 2  99318171.784 1       625.841          39.000  
J 3  37546844.316 9                     -1159.198          22.000  
G 9  22515248.934 9                     -2650.066          17.000  
G 8  20551297.199 9                     -2630.814          26.000  
> 2021  5 18  3  7 49.9950000  0 10                     
R 9  19021486.413 9                     -1661.807          24.000  
R10  18529064.248 9                      1486.827          20.000  
G 1  18958710.380 4  99628693.976 3      1610.202          32.000  
J 2  36582391.974 9                       802.595          21.000  
G21  19099892.327 9                     -1031.209          23.000  
G 7  18899502.306 4  99317546.803 2       623.742          37.000  
J 3  37547062.688 9                     -1156.161          21.000  
G 9  22515753.385 9                     -2658.279          16.000  
G 8  20551797.968 9                     -2618.599          24.000  
J 1  36054861.928 9                      -486.188          11.000  
> 2021  5 18  3  7 50.9950000  0 10                     
R 9  19021799.880 9                     -1675.796          23.000  
R10  18528784.530 9                      1488.919          20.000  
G30  21292644.877 9                      2495.172          21.000  
G 1  18958404.050 4  99627083.869 2      1609.145          35.000  
J 2  36582235.402 9                       802.595          21.000  
G21  19100087.359 9                     -1027.730          24.000  
G 7  18899383.270 4  99316922.474 2       624.989          37.000  
J 3  37547282.360 9                     -1155.699          21.000  
G 9  22516257.016 9                     -2658.279          15.000  
G 8  20552295.779 9                     -2625.056          25.000  
> 2021  5 18  3  7 51.9950000  0 10                     
R 9  19022114.882 9                     -1667.765          24.000  
R10  18528505.509 9                      1490.520          19.000  
G30  21292170.973 9                      2506.144          20.000  
G 1  18958097.476 4  99625473.995 3      1609.760          35.000  
J 2  36582079.214 9                       802.595          22.000  
G21  19100284.459 9                     -1036.230          22.000  
G 7  18899264.311 2  99316298.623 1       623.883          41.000  
J 3  37547501.683 9                     -1148.067          21.000  
G 9  22516760.036 9                     -2646.769          15.000  
G 8  20552796.217 9                     -2618.311          23.000  
> 2021  5 18  3  7 52.9950000  0  9                     
R 9  19022428.646 9                     -1677.073          24.000  
R10  18528228.016 9                      1480.796          19.000  
G 1  18957790.858 4  99623864.981 2      1607.778          36.000  
J 2  36581924.344 9                       802.595          22.000  
G21  19100480.207 9                     -1045.213          21.000  
G 7  18899145.685 2  99315675.272 1       623.242          38.000  
J 3  37547720.430 9                     -1160.271          21.000  
G 9  22517260.054 9                     -2626.036          15.000  
G 8  20553293.810 9                     -2627.273          23.000  
> 2021  5 18  3  7 53.9950000  0  9                     
R 9  19022740.394 9                     -1665.253          21.000  
R10  18527948.211 9                      1491.562          18.000  
G 1  18957481.231 8  99622255.464 3      1610.322          33.000  
J 2  36581769.141 9                       802.595          20.000  
G21  19100674.349 9                     -1027.441          20.000  
G 7  18899027.058 4  99315052.949 2       621.686          33.000  
J 3  37547938.776 9                     -1164.687          19.000  
G 9  22517760.648 9                     -2647.178          15.000  
G 8  20553792.668 9                     -2630.957          21.000  
> 2021  5 18  3  7 54.9950000  0  9                     
R 9  19023053.887 9                     -1680.929          20.000  
R10  18527668.117 9                      1491.562          15.000  
G 1  18957170.791 4  99620645.302 2      1609.956          36.000  
J 2  36581614.524 9                       802.595          19.000  
G21  19100872.279 9                     -1028.975          23.000  
G 7  18898909.077 2  99314432.139 1       620.194          38.000  
J 3  37548160.481 9                     -1151.453          20.000  
G 9  22518259.175 9                     -2644.399          17.000  
G 8  20554293.637 9                     -2630.957          19.000  
> 2021  5 18  3  7 55.9950000  0  9                     
R 9  19023367.773 9                     -1668.826          21.000  
R10  18527387.727 9                      1491.562          16.000  
G 1  18956867.471 4  99619035.765 1      1609.136          36.000  
J 2  36581460.046 9                       802.595          19.000  
G21  19101068.227 9                     -1030.619          25.000  
G 7  18898791.035 1  99313811.931 1       619.723          39.000  
J 3  37548380.633 9                     -1148.911          22.000  
G 9  22518757.902 9                     -2645.782          17.000  
G 8  20554795.331 9                     -2630.957          17.000  
> 2021  5 18  3  7 56.9950000  0  9                     
R 9  19023678.814 9                     -1666.482          23.000  
R10  18527109.457 9                      1481.853          17.000  
G 1  18956562.590 4  99617427.350 1      1607.219          36.000  
J 2  36581304.564 9                       802.595          21.000  
G21  19101265.519 9                     -1021.206          23.000  
G 7  18898673.377 2  99313192.363 1       619.717          39.000  
J 3  37548602.608 9                     -1154.787          23.000  
G 9  22519254.501 9                     -2647.620          18.000  
G 8  20555296.274 9                     -2622.337          17.000  
> 2021  5 18  3  7 57.9950000  0  9                     
R 9  19023993.512 9                     -1663.566          23.000  
R10  18526831.021 9                      1479.514          20.000  
G30  21289249.204 9                      2496.828          16.000  
G 1  18956260.492 4  99615820.048 1      1606.105          37.000  
G21  19101462.611 9                     -1048.677          25.000  
G 7  18898555.309 2  99312573.233 1       618.455          38.000  
J 3  37548823.528 9                     -1154.868          22.000  
G 9  22519752.713 9                     -2654.448          20.000  
G 8  20555788.885 9                     -2623.239          28.000  
> 2021  5 18  3  7 58.9950000  0  9                     
R 9  19024306.577 9                     -1677.124          25.000  
R10  18526553.057 9                      1482.432          21.000  
G30  21288790.682 9                      2496.828          17.000  
G 1  18955954.188 2  99614213.636 1      1606.467          38.000  
G21  19101659.170 9                     -1032.186          23.000  
G 7  18898437.599 2  99311954.440 1       618.311          40.000  
J 3  37549045.207 9                     -1157.940          22.000  
G 9  22520253.674 9                     -2645.404          19.000  
G 8  20556284.315 9                     -2621.496          27.000  
> 2021  5 18  3  7 59.9950000  0  9                     
R 9  19024622.889 9                     -1677.802          29.000  
R10  18526274.508 9                      1496.247          23.000  
G30  21288335.014 9                      2496.828          18.000  
G 1  18955649.315 4  99612608.242 2      1605.106          38.000  
G21  19101856.994 9                     -1038.647          22.000  
G 7  18898319.626 2  99311335.803 1       618.479          35.000  
J 3  37549267.226 9                     -1156.706          23.000  
G 9  22520754.155 9                     -2649.030          19.000  
G 8  20556784.830 9                     -2627.600          25.000  
> 2021  5 18  3  8  0.9950000  0  9                     
R 9  19024937.219 9                     -1643.456          21.000  
R10  18525995.191 9                      1488.797          22.000  
G30  21287880.374 9                      2496.828          20.000  
G 1  18955344.111 2  99611003.144 1      1603.870          39.000  
G21  19102051.800 9                     -1035.184          23.000  
G 7  18898201.942 2  99310718.053 1       616.652          39.000  
J 3  37549487.448 9                     -1155.815          22.000  
G 9  22521253.336 9                     -2643.549          21.000  
G 8  20557284.386 9                     -2628.053          26.000  
> 2021  5 18  3  8  1.9950000  0  9                     
R 9  19025250.337 9                     -1681.345          29.000  
R10  18525715.953 9                      1479.055          25.000  
G30  21287415.937 9                      2496.828          20.000  
G 1  18955038.453 4  99609398.811 2      1604.764          40.000  
G21  19102247.591 9                     -1025.458          22.000  
G 7  18898084.668 2  99310100.942 1       617.855          42.000  
J 3  37549707.478 9                     -1151.521          24.000  
G 9  22521755.440 9                     -2643.549          19.000  
G 8  20557783.253 9                     -2618.714          30.000  
> 2021  5 18  3  8  2.9950000  0  9                     
R 9  19025566.954 9                     -1683.214          27.000  
R10  18525438.250 9                      1482.007          27.000  
G30  21286948.123 9                      2496.828          21.000  
G 1  18954733.441 2  99607796.150 1      1601.611          40.000  
G21  19102444.979 9                     -1047.476          23.000  
G 7  18897967.272 4  99309484.100 2       615.889          37.000  
J 3  37549926.425 9                     -1153.664          31.000  
G 9  22522257.700 9                     -2652.948          19.000  
G 8  20558282.958 9                     -2615.469          25.000  
> 2021  5 18  3  8  3.9950000  0 10                     
R 9  19025878.458 9                     -1673.984          25.000  
R10  18525151.761 8  98749467.26833      1484.647          35.000  
G30  21286474.532 9                      2496.828          21.000  
G 1  18954428.961 2  99606196.983 1      1598.449          42.000  
J 2  36580224.553 9                       804.994          24.000  
G21  19102643.589 9                     -1037.425          24.000  
G 7  18897850.059 9                       618.503          30.000  
J 3  37550150.573 9                     -1151.583          25.000  
G 9  22522760.790 9                     -2651.845          18.000  
G 8  20558781.973 9                     -2615.600          31.000  
> 2021  5 18  3  8  4.9950000  0  9                     
R 9  19026195.703 9                     -1679.251          23.000  
R10  18524871.720 4  98747982.00822      1485.046          35.000  
R20  18431844.094 9                     -2759.618          25.000  
G 1  18954124.751 2  99604599.616 1      1597.202          43.000  
G21  19102839.913 9                     -1031.346          24.000  
G 7  18897731.982 9                       615.344          29.000  
J 3  37550367.986 9                     -1150.910          25.000  
G 9  22523264.805 9                     -2651.845          17.000  
G 8  20559278.449 9                     -2622.414          26.000  
> 2021  5 18  3  8  5.9950000  0  9                     
R 9  19026509.650 9                     -1672.901          23.000  
R10  18524587.482 4  98746497.62022      1484.684          33.000  
R20  18432360.158 9                     -2760.796          25.000  
G 1  18953820.890 2  99603002.407 1      1596.231          39.000  
G21  19103038.505 9                     -1046.896          24.000  
G 7  18897620.492 9                       615.079          28.000  
J 3  37550582.065 9                     -1152.738          32.000  
G 9  22523768.165 9                     -2645.678          17.000  
G 8  20559778.023 9                     -2616.578          26.000  
> 2021  5 18  3  8  6.9950000  0  9                     
R 9  19026824.076 9                     -1692.116          23.000  
R10  18524306.943 8  98745011.72423      1488.077          33.000  
R20  18432876.832 9                     -2759.337          26.000  
G 1  18953517.396 2  99601407.807 1      1592.497          38.000  
G21  19103236.774 9                     -1040.179          21.000  
G 7  18897500.836 9                       616.924          33.000  
J 3  37550793.300 8 197330749.95333     -1153.051          37.000  
G 9  22524274.780 9                     -2645.678          15.000  
G 8  20560276.244 9                     -2619.580          25.000  
> 2021  5 18  3  8  7.9950000  0 10                     
R 9  19027138.364 9                     -1685.500          23.000  
R10  18524028.665 8  98743524.32223      1487.928          34.000  
R20  18433393.062 9                     -2760.331          26.000  
G 1  18953214.146 2  99599815.294 1      1592.428          37.000  
J 2  36579595.376 9 192227070.80335       801.127          35.000  
G21  19103422.183 9 100389160.78135     -1039.488          33.000  
G 7  18897378.545 8  99306394.28834       615.235          35.000  
J 3  37551009.508 8 197331902.27125     -1156.090          29.000  
G 9  22524778.515 9                     -2645.678          12.000  
G 8  20560772.423 9                     -2615.740          23.000  
> 2021  5 18  3  8  8.9950000  0  9                     
R 9  19027453.488 9                     -1686.882          24.000  
R10  18523748.938 4  98742037.76023      1486.162          34.000  
R20  18433907.242 9                     -2761.298          26.000  
G 1  18952911.167 2  99598223.018 1      1591.483          37.000  
J 2  36579437.190 8 192226268.71423       801.065          34.000  
G21  19103615.444 8 100390201.30023     -1040.145          33.000  
G 7  18897265.249 8  99305778.60223       614.240          31.000  
J 3  37551230.419 9                     -1159.277          27.000  
G 8  20561271.447 9                     -2608.646          21.000  
> 2021  5 18  3  8  9.9950000  0 10                     
R21  18741403.151 9                      1604.813          30.000  
R 9  19027769.145 9                     -1682.236          23.000  
R10  18523470.790 8  98740552.29823      1483.731          31.000  
R20  18434422.730 9                     -2760.948          25.000  
G 1  18952608.179 4  99596630.755 2      1591.452          37.000  
J 2  36579285.216 8 192225466.56623       803.070          32.000  
G21  19103812.719 8 100391242.70523     -1043.081          34.000  
G 7  18897145.977 9                       615.220          26.000  
J 3  37551452.159 9                     -1157.758          25.000  
G 8  20561770.986 9                     -2625.347          20.000  
> 2021  5 18  3  8 10.9950000  0  7                     
R 9  19028084.436 9                     -1684.869          24.000  
R10  18523195.626 8  98739066.95113      1485.096          32.000  
G 1  18952305.374 4  99595038.124 2      1593.972          34.000  
G21  19104006.425 8 100392284.31125     -1042.751          24.000  
G 7  18897023.861 9                       640.185          24.000  
J 3  37551675.321 9                     -1150.343          22.000  
G 8  20562267.471 9                     -2618.780          19.000  
> 2021  5 18  3  8 11.9950000  0  9                     
R 9  19028401.131 9                     -1685.428          24.000  
R10  18522916.117 4  98737583.974 2      1482.430          33.000  
R20  18435453.287 9                     -2765.491          23.000  
G 1  18952002.124 4  99593444.852 2      1594.626          37.000  
G21  19104212.416 9                     -1041.068          25.000  
G 7  18896908.035 9                       613.033          30.000  
J 3  37551892.620 9                     -1155.686          21.000  
G 9  22526794.853 9                     -2645.678          11.000  
G 8  20562767.036 9                     -2626.516          20.000  
> 2021  5 18  3  8 12.9950000  0  8                     
R 9  19028716.282 9                     -1681.227          24.000  
R10  18522639.758 8  98736104.216 3      1477.849          32.000  
R20  18435969.779 9                     -2768.609          25.000  
G 1  18951698.429 2  99591849.670 1      1595.949          38.000  
G21  19104410.598 9                     -1041.744          25.000  
G 7  18896795.690 8  99303309.65433       610.247          38.000  
J 3  37552111.917 9                     -1154.985          23.000  
G 8  20563265.457 9                     -2624.608          19.000  
> 2021  5 18  3  8 13.9950000  0  8                     
R21  18740216.344 9                      1603.917          29.000  
R 9  19029031.843 9                     -1686.442          27.000  
R10  18522362.675 8  98734626.206 4      1477.712          28.000  
G 1  18951394.725 2  99590254.104 1      1595.334          37.000  
G21  19104609.330 9                     -1042.425          27.000  
G 7  18896681.348 8  99302699.30622       609.267          35.000  
J 3  37552332.514 9                     -1150.891          23.000  
G 8  20563763.521 9                     -2621.102          20.000  
> 2021  5 18  3  8 14.9950000  0  7                     
R 9  19029348.730 9                     -1685.500          25.000  
R10  18522086.892 8                      1480.817          26.000  
G 1  18951091.903 4  99588661.393 2      1591.037          40.000  
G21  19104806.849 9                     -1046.626          24.000  
G 7  18896563.088 9                       612.695          31.000  
J 3  37552553.521 9                     -1152.002          21.000  
G 8  20564263.043 9                     -2622.567          19.000  
> 2021  5 18  3  8 15.9950000  0  7                     
R 9  19029663.768 9                     -1694.825          25.000  
R10  18521808.980 8                      1482.068          25.000  
G 1  18950789.622 2  99587072.479 1      1586.778          43.000  
G21  19105007.142 9                     -1051.322          29.000  
G 7  18896444.836 9                       609.139          29.000  
J 3  37552771.797 9                     -1151.562          33.000  
G 8  20564758.437 9                     -2612.473          29.000  
> 2021  5 18  3  8 16.9950000  0  7                     
R 9  19029980.332 9                     -1694.585          24.000  
R10  18521531.896 8  98730128.41015      1484.516          32.000  
G 1  18950487.951 2  99585487.229 1      1583.825          39.000  
G21  19105209.670 9                     -1069.272          20.000  
G 7  18896328.208 9                       606.816          28.000  
J 3  37552985.326 9                     -1153.295          29.000  
G 8  20565254.538 9                     -2613.313          24.000  
> 2021  5 18  3  8 17.9950000  0  8                     
R 9  19030296.417 9                     -1694.345          26.000  
R10  18521253.618 4  98728642.148 3      1487.195          35.000  
R20  18438556.189 9                     -2755.646          23.000  
G 1  18950186.725 2  99583905.007 1      1580.800          37.000  
G21  19105408.838 9                     -1044.375          28.000  
G 7  18896216.081 9                       610.272          27.000  
J 3  37553210.652 9                     -1152.644          22.000  
G 8  20565748.920 9                     -2627.682          25.000  
> 2021  5 18  3  8 18.9950000  0  7                     
R 9  19030616.576 9                     -1702.025          24.000  
R10  18520974.475 8  98727154.14523      1487.763          28.000  
G 1  18949885.866 4  99582324.902 2      1580.673          35.000  
G21  19105606.051 9                     -1028.075          26.000  
G 7  18896101.835 9                       610.986          28.000  
J 3  37553430.787 9                     -1155.846          21.000  
G 8  20566245.684 9                     -2604.062          23.000  
> 2021  5 18  3  8 19.9950000  0  7                     
R 9  19030937.756 9                     -1710.644          21.000  
R10  18520695.324 8                      1484.467          27.000  
G 1  18949584.955 4  99580744.318 2      1582.056          32.000  
G21  19105806.136 9                     -1042.850          23.000  
G 7  18895980.242 8                       609.344          28.000  
J 3  37553649.107 9                     -1149.557          24.000  
G 8  20566740.424 9                     -2627.498          23.000  
> 2021  5 18  3  8 20.9950000  0  7                     
R 9  19031257.426 9                     -1710.644          17.000  
R10  18520416.435 8  98724187.40734      1478.158          30.000  
G 1  18949283.249 4  99579159.402 2      1586.750          37.000  
G21  19106006.316 9                     -1046.342          25.000  
G 7  18895863.753 9                       607.657          27.000  
J 3  37553869.250 9                     -1160.818          29.000  
G 8  20567235.748 9                     -2619.851          24.000  
> 2021  5 18  3  8 21.9950000  0  9                     
R 9  19031574.226 9                     -1689.587          18.000  
R10  18520138.697 8  98722712.68223      1472.025          31.000  
G30  21277914.581 9 111816195.16334      2484.245          34.000  
G 1  18948980.479 2  99577569.189 1      1592.800          37.000  
J 2  36577453.406 9                       803.145          28.000  
G21  19106205.606 9 100403787.37134     -1048.749          32.000  
G 7  18895746.173 8                       604.259          28.000  
J 3  37554090.763 9                     -1155.154          22.000  
G 8  20567734.737 9                     -2621.307          24.000  
> 2021  5 18  3  8 22.9950000  0  9                     
R21  18737529.848 9                      1600.463          23.000  
R 9  19031889.665 9                     -1688.597          22.000  
R10  18519863.734 4  98721242.31822      1471.159          31.000  
G30  21277437.684 9                      2484.570          35.000  
G 1  18948677.517 2  99575976.327 1      1592.503          37.000  
G21  19106405.891 8 100404835.94222     -1048.512          33.000  
G 7  18895635.207 8                       602.910          29.000  
J 3  37554317.179 9                     -1163.977          21.000  
G 8  20568231.615 9                     -2628.876          24.000  
> 2021  5 18  3  8 23.9950000  0  9                     
R21  18737231.772 9                      1599.513          23.000  
R 9  19032206.561 9                     -1690.961          23.000  
R10  18519587.637 4  98719772.48722      1469.752          35.000  
G30  21276964.295 8 111811201.94133      2483.176          35.000  
G 1  18948374.608 2  99574384.038 1      1592.175          37.000  
G21  19106604.867 4 100405885.29522     -1049.760          34.000  
G 7  18895519.530 8  99296623.27934       601.655          33.000  
J 3  37554536.529 9                     -1159.408          22.000  
G 8  20568728.475 9                     -2627.792          23.000  
> 2021  5 18  3  8 24.9950000  0 10                     
R21  18736932.196 9                      1599.719          23.000  
R 9  19032524.687 9                     -1692.171          23.000  
R10  18519312.997 4  98718302.74322      1468.947          34.000  
G30  21276493.086 4 111808719.07322      2482.843          35.000  
G 1  18948071.646 2  99572792.045 1      1591.804          37.000  
G21  19106803.974 4 100406934.90022     -1049.913          34.000  
G 7  18895404.882 8  99296021.26524       601.339          31.000  
J 3  37554753.749 9                     -1151.301          21.000  
G 8  20569229.872 9                     -2624.670          24.000  
G16  23638049.568 9                     -2239.470          11.000  
> 2021  5 18  3  8 25.9950000  0  8                     
R 9  19032841.863 9                     -1691.779          23.000  
R10  18519037.301 4  98716833.08322      1468.989          34.000  
G30  21276020.988 4 111806236.26122      2482.537          34.000  
G 1  18947768.762 2  99571200.405 1      1591.229          36.000  
G21  19107006.545 4 100407984.88922     -1050.445          33.000  
G 7  18895289.614 8  99295419.59824       601.186          30.000  
J 3  37554973.299 9                     -1155.427          19.000  
G 8  20569729.594 9                     -2625.722          22.000  
> 2021  5 18  3  8 26.9950000  0  8                     
R 9  19033158.951 9                     -1692.028          23.000  
R10  18518761.125 4  98715363.98322      1469.094          34.000  
G30  21275548.515 4 111803753.87621      2482.284          35.000  
G 1  18947465.887 2  99569609.402 1      1590.911          38.000  
G21  19107204.788 4 100409035.56622     -1050.877          33.000  
G 7  18895178.291 8  99294818.58623       601.180          30.000  
J 3  37555192.683 9                     -1159.453          20.000  
G 8  20570228.199 9                     -2631.117          22.000  
> 2021  5 18  3  8 27.9950000  0  9                     
R 9  19033476.239 9                     -1688.714          22.000  
R10  18518486.179 4  98713895.45522      1467.846          33.000  
G30  21275076.155 4 111801271.98122      2481.648          34.000  
G 1  18947163.170 2  99568019.189 1      1590.260          37.000  
G21  19107407.106 4 100410087.06422     -1051.226          33.000  
G 7  18895064.358 8  99294218.49423       599.408          30.000  
J 3  37555411.631 9                     -1154.342          20.000  
G 8  20570726.865 9                     -2625.307          22.000  
G14  23071221.326 9                      1851.563          18.000  
> 2021  5 18  3  8 28.9950000  0  9                     
R 9  19033793.013 9                     -1696.163          21.000  
R10  18518214.191 4  98712427.344 3      1467.649          34.000  
G30  21274603.847 4 111798790.44922      2480.631          34.000  
G 1  18946860.688 2  99566429.630 1      1589.127          36.000  
G21  19107606.492 4 100411139.22822     -1052.470          32.000  
G 7  18894949.344 4  99293618.95023       599.272          29.000  
J 3  37555631.774 9                     -1158.063          20.000  
G 8  20571225.348 9                     -2623.803          22.000  
G14  23070878.665 9                      1851.563          18.000  
> 2021  5 18  3  8 29.9950000  0  9                     
R 9  19034108.199 9                     -1695.793          20.000  
R10  18517936.750 4  98710959.716 2      1466.811          35.000  
G30  21274131.601 2 111796309.18521      2481.062          36.000  
G 1  18946558.467 2  99564840.637 1      1588.661          40.000  
G21  19107801.795 4 100412191.99922     -1052.737          35.000  
G 7  18894833.309 8  99293019.99623       599.082          30.000  
J 3  37555851.708 9                     -1162.684          19.000  
G 8  20571723.464 9                     -2631.430          22.000  
G14  23070529.521 9                      1851.563          19.000  
> 2021  5 18  3  8 30.9950000  0  9                     
R 9  19034426.875 9                     -1695.220          19.000  
R10  18517659.047 8  98709492.429 3      1468.548          31.000  
G30  21273659.442 4 111793828.37122      2481.045          33.000  
G 1  18946256.326 2  99563252.294 1      1587.917          37.000  
G21  19108006.896 4 100413245.433 2     -1053.565          32.000  
G 7  18894718.879 4  99292421.30413       597.808          30.000  
J 3  37556070.778 9                     -1156.279          19.000  
G 8  20572222.026 9                     -2621.522          23.000  
G14  23070180.080 9                      1851.563          19.000  
> 2021  5 18  3  8 31.9950000  0  9                     
R 9  19034743.744 9                     -1698.025          18.000  
R10  18517381.999 8  98708025.680 5      1466.891          31.000  
G30  21273186.227 4 111791347.76922      2480.800          30.000  
G 1  18945954.254 4  99561664.474 2      1587.540          36.000  
G21  19108205.340 9                     -1054.761          29.000  
G 7  18894607.887 8  99291823.586 4       597.462          29.000  
J 3  37556289.394 9                     -1156.041          19.000  
G 8  20572722.393 9                     -2627.247          22.000  
G14  23069826.399 9                      1851.563          18.000  
> 2021  5 18  3  8 32.9950000  0  9                     
R 9  19035061.286 9                     -1698.025          16.000  
R10  18517106.800 8  98706559.269 4      1466.295          30.000  
G30  21272714.364 4 111788867.52722      2479.727          34.000  
G 1  18945652.321 2  99560077.228 1      1586.910          37.000  
G21  19108404.901 8 100415350.53634     -1054.290          31.000  
G 7  18894490.403 4  99291226.442 4       597.379          29.000  
J 3  37556510.707 9                     -1157.074          19.000  
G 8  20573223.180 9                     -2612.791          22.000  
G14  23069476.487 9                      1851.563          18.000  
> 2021  5 18  3  8 33.9950000  0  9                     
R 9  19035379.264 9                     -1698.025          13.000  
R10  18516827.859 8  98705093.414 3      1466.016          30.000  
G30  21272241.559 4 111786387.70323      2479.473          33.000  
G 1  18945350.624 4  99558490.735 2      1586.117          37.000  
G21  19108605.674 8 100416405.96724     -1055.849          26.000  
G 7  18894378.818 4  99290630.143 4       595.810          28.000  
J 3  37556729.061 9                     -1148.730          19.000  
G 8  20573725.327 9                     -2633.387          21.000  
G14  23069123.879 9                      1851.563          17.000  
> 2021  5 18  3  8 34.9950000  0 10                     
R 9  19035699.397 9                     -1698.025          11.000  
R10  18516558.061 4  98703627.890 2      1465.775          33.000  
G30  21271767.131 4 111783908.16522      2479.242          34.000  
G 1  18945049.120 2  99556904.792 1      1585.491          39.000  
G21  19108803.516 4 100417461.89122     -1055.814          32.000  
G 7  18894267.215 8  99290034.327 4       594.841          29.000  
J 3  37556948.227 9                     -1157.389          20.000  
G 8  20574227.283 9                     -2629.359          23.000  
J 1  36060361.076 9                      -600.935          13.000  
G14  23068772.441 9                      1851.563          18.000  
> 2021  5 18  3  8 35.9950000  0 10                     
R 9  19036017.174 9                     -1698.025          11.000  
R10  18516281.353 4  98702162.861 2      1464.919          30.000  
G30  21271296.638 4 111781428.98622      2479.780          34.000  
G 1  18944747.684 2  99555319.456 1      1585.253          38.000  
G21  19109005.642 8 100418518.48622     -1056.630          32.000  
G 7  18894151.729 8  99289439.175 3       594.686          29.000  
J 3  37557167.027 9                     -1155.493          21.000  
G 8  20574728.898 9                     -2631.584          24.000  
J 1  36060473.299 9                      -588.850          14.000  
G14  23068421.046 9                      1851.563          19.000  
> 2021  5 18  3  8 36.9950000  0  9                     
R 9  19036334.890 9                     -1698.025          11.000  
R10  18516005.823 4  98700697.879 2      1464.211          31.000  
G30  21270824.662 4 111778949.84221      2478.082          34.000  
G 1  18944446.136 2  99553734.403 1      1584.103          39.000  
G21  19109205.796 4 100419575.40022     -1057.720          32.000  
G 7  18894038.268 8  99288844.300 3       594.352          29.000  
J 3  37557385.722 9                     -1153.257          20.000  
G 8  20575231.578 9                     -2624.777          24.000  
J 1  36060589.316 9                      -602.277          14.000  
> 2021  5 18  3  8 37.9950000  0 10                     
R 9  19036652.353 9                     -1700.385          15.000  
R10  18515730.493 4  98699233.472 2      1464.444          34.000  
R20  18448947.811 9                     -2787.432          25.000  
G30  21270355.688 4 111776471.14221      2478.617          34.000  
G 1  18944144.736 1  99552150.102 1      1583.947          38.000  
G21  19109407.834 4 100420633.09622     -1057.873          31.000  
G 7  18893924.301 4  99288250.193 3       593.810          29.000  
J 3  37557605.516 9                     -1157.704          21.000  
G 8  20575731.544 9                     -2617.455          23.000  
J 1  36060704.278 9                      -604.963          13.000  
> 2021  5 18  3  8 38.9950000  0  9                     
R 9  19036970.628 9                     -1696.678          17.000  
R10  18515454.369 4  98697769.600 3      1463.730          29.000  
G30  21269883.110 4 111773992.90722      2477.816          31.000  
G 1  18943843.388 2  99550566.501 2      1583.632          33.000  
G21  19109609.646 9                     -1058.984          27.000  
G 7  18893815.978 4  99287656.814 4       592.973          29.000  
J 3  37557825.380 9                     -1154.246          20.000  
G 8  20576231.501 9                     -2617.840          23.000  
J 1  36060823.141 9                      -604.963          12.000  
> 2021  5 18  3  8 39.9950000  0 10                     
R 9  19037287.951 9                     -1695.579          18.000  
R10  18515179.031 4  98696306.042 2      1462.764          33.000  
G30  21269412.504 4 111771514.87822      2477.045          36.000  
G 1  18943542.250 2  99548983.395 1      1582.478          41.000  
J 2  36574705.127 9                       801.413          23.000  
G21  19109810.385 8 100422730.96933     -1059.703          33.000  
G 7  18893700.388 8  99287063.973 4       592.232          32.000  
J 3  37558045.157 9                     -1167.174          21.000  
G 8  20576730.682 9                     -2621.809          23.000  
J 1  36060936.794 9                      -604.963          11.000  
> 2021  5 18  3  8 40.9950000  0 10                     
R 9  19037605.659 9                     -1700.314          21.000  
R10  18514905.909 4  98694842.865 2      1463.412          33.000  
G30  21268941.496 4 111769037.13122      2478.004          35.000  
G 1  18943241.373 2  99547400.880 1      1582.404          39.000  
J 2  36574551.914 9                       801.602          23.000  
G21  19110014.003 8 100423790.48023     -1058.905          32.000  
G 7  18893588.017 8  99286471.709 5       592.027          29.000  
J 3  37558264.899 9                     -1145.845          21.000  
G 8  20577232.699 9                     -2628.345          23.000  
J 1  36061047.681 9                      -580.183          12.000  
> 2021  5 18  3  8 41.9950000  0 10                     
R 9  19037923.628 9                     -1699.478          21.000  
R10  18514629.925 4  98693380.278 2      1462.898          33.000  
G30  21268470.305 4 111766559.85122      2477.720          35.000  
G 1  18942940.531 2  99545819.083 1      1581.512          38.000  
J 2  36574399.932 9                       800.868          23.000  
G21  19110214.715 8 100424850.84623     -1061.129          31.000  
G 7  18893473.143 8  99285880.220 4       590.680          29.000  
J 3  37558482.887 9                     -1159.113          21.000  
G 8  20577734.192 9                     -2619.493          24.000  
J 1  36061157.722 9                      -580.183          11.000  
> 2021  5 18  3  8 42.9950000  0 10                     
