$GPGGA,030658.00,2218.619958,N,11410.157999,E,1,11,1.2,26.9,M,-1.3,M,,*49,1621307224601
$GPGSV,5,1,17,07,71,295,23,21,67,089,23,01,61,159,29,08,40,025,18*75,1621307224610
$GPGSV,5,2,17,30,32,317,23,09,19,218,15,17,16,248,,22,15,137,15*7A,1621307224610
$GPGSV,5,3,17,27,12,045,,16,10,093,,04,09,186,,03,06,163,*71,1621307224610
$GPGSV,5,4,17,01,,,26,08,,,25,30,,,18,09,,,,8*63,1621307224611
$GPGSV,5,5,17,27,,,,8*6E,1621307224611
$GLGSV,2,1,06,84,59,013,13,74,57,012,22,85,53,226,17,73,47,105,29*61,1621307224611
$GLGSV,2,2,06,80,05,132,,86,06,213,*66,1621307224611
$QZGSV,2,1,06,02,64,082,22,03,64,054,17,01,11,152,*5B,1621307224611
$QZGSV,2,2,06,02,,,23,03,,,24,01,,,,8*70,1621307224611
$GPGSA,A,3,01,07,08,09,21,30,,,,,,,2.4,1.3,2.0*33,1621307224611
$GNGSA,A,3,01,07,08,09,21,30,,,,,,,2.4,1.3,2.0*2D,1621307224611
$GNGSA,A,3,73,74,85,,,,,,,,,,2.4,1.3,2.0*20,1621307224611
$QZGSA,A,3,02,03,,,,,,,,,,,2.4,1.3,2.0*29,1621307224611
$IMGSA,A,3,,,,,,,,,,,,,2.4,1.3,2.0*27,1621307224611
$BDGSA,A,3,,,,,,,,,,,,,2.4,1.3,2.0*25,1621307224611
$GAGSA,A,3,,,,,,,,,,,,,2.4,1.3,2.0*25,1621307224611
$GPRMC,030658.00,A,2218.619958,N,11410.157999,E,000.2,350.0,180521,,,A*51,1621307224611
$GPGGA,030659.00,2218.619975,N,11410.157960,E,1,11,0.8,26.8,M,-1.3,M,,*4B,1621307225593
$GPGSV,5,1,17,07,71,295,22,21,67,089,23,01,61,159,29,08,40,025,17*7B,1621307225595
$GPGSV,5,2,17,30,32,317,23,09,19,218,15,17,16,248,,22,15,137,14*7B,1621307225595
$GPGSV,5,3,17,27,12,045,,16,10,093,,04,09,186,,03,06,163,*71,1621307225595
$GPGSV,5,4,17,01,,,26,08,,,25,30,,,18,09,,,,8*63,1621307225595
$GPGSV,5,5,17,27,,,09,8*67,1621307225595
$GLGSV,2,1,06,84,59,013,13,74,57,012,23,85,53,226,17,73,47,105,29*60,1621307225595
$GLGSV,2,2,06,80,05,132,,86,06,213,*66,1621307225595
$QZGSV,2,1,06,02,64,082,22,03,64,054,17,01,11,152,*5B,1621307225595
$QZGSV,2,2,06,02,,,23,03,,,24,01,,,10,8*71,1621307225595
$GPGSA,A,3,01,07,08,09,21,30,,,,,,,2.2,1.1,1.9*3D,1621307225595
$GNGSA,A,3,01,07,08,09,21,30,,,,,,,2.2,1.1,1.9*23,1621307225596
$GNGSA,A,3,73,74,85,,,,,,,,,,2.2,1.1,1.9*2E,1621307225596
$QZGSA,A,3,02,03,,,,,,,,,,,2.2,1.1,1.9*27,1621307225596
$IMGSA,A,3,,,,,,,,,,,,,2.2,1.1,1.9*29,1621307225596
$BDGSA,A,3,,,,,,,,,,,,,2.2,1.1,1.9*2B,1621307225596
$GAGSA,A,3,,,,,,,,,,,,,2.2,1.1,1.9*2B,1621307225596
$GPRMC,030659.00,A,2218.619975,N,11410.157960,E,000.9,350.7,180521,,,A*55,1621307225597
$GPGGA,030700.00,2218.619957,N,11410.157897,E,1,11,0.8,25.8,M,-1.3,M,,*4C,1621307226601
$GPGSV,5,1,17,07,71,295,22,21,67,089,23,01,61,159,29,08,40,025,17*7B,1621307226604
$GPGSV,5,2,17,30,32,317,23,09,19,218,15,17,16,248,,22,15,137,14*7B,1621307226604
$GPGSV,5,3,17,27,12,045,,16,10,093,,04,09,186,,03,06,163,*71,1621307226604
$GPGSV,5,4,17,01,,,26,08,,,26,30,,,18,09,,,,8*60,1621307226604
$GPGSV,5,5,17,27,,,,8*6E,1621307226604
$GLGSV,2,1,06,84,59,013,12,74,57,012,23,85,53,226,16,73,47,105,29*60,1621307226604
$GLGSV,2,2,06,80,05,132,,86,06,213,*66,1621307226604
$QZGSV,2,1,06,02,64,082,22,03,64,054,17,01,11,152,10*5A,1621307226604
$QZGSV,2,2,06,02,,,23,03,,,24,01,,,,8*70,1621307226604
$GPGSA,A,3,01,07,08,09,21,30,,,,,,,2.5,1.4,2.0*35,1621307226604
$GNGSA,A,3,01,07,08,09,21,30,,,,,,,2.5,1.4,2.0*2B,1621307226605
$GNGSA,A,3,73,74,85,,,,,,,,,,2.5,1.4,2.0*26,1621307226605
$QZGSA,A,3,02,03,,,,,,,,,,,2.5,1.4,2.0*2F,1621307226605
$IMGSA,A,3,,,,,,,,,,,,,2.5,1.4,2.0*21,1621307226605
$BDGSA,A,3,,,,,,,,,,,,,2.5,1.4,2.0*23,1621307226605
$GAGSA,A,3,,,,,,,,,,,,,2.5,1.4,2.0*23,1621307226605
$GPRMC,030700.00,A,2218.619957,N,11410.157897,E,000.1,351.0,180521,,,A*5F,1621307226605
$GPGGA,030701.00,2218.620057,N,11410.157856,E,1,10,1.2,25.8,M,-1.3,M,,*49,1621307227603
$GPGSV,5,1,17,07,71,295,22,21,67,089,23,01,61,159,29,08,40,025,17*7B,1621307227609
$GPGSV,5,2,17,30,32,317,22,09,19,218,14,17,16,248,,22,15,137,14*7B,1621307227609
$GPGSV,5,3,17,27,12,045,,16,10,093,,04,09,186,,03,06,163,*71,1621307227609
$GPGSV,5,4,17,01,,,26,08,,,26,30,,,17,09,,,,8*6F,1621307227609
$GPGSV,5,5,17,27,,,,8*6E,1621307227609
$GLGSV,2,1,06,84,59,013,12,74,57,012,25,85,53,226,16,73,47,105,29*66,1621307227609
$GLGSV,2,2,06,80,05,132,,86,06,213,*66,1621307227609
$QZGSV,2,1,06,02,64,082,22,03,64,054,16,01,11,152,10*5B,1621307227609
$QZGSV,2,2,06,02,,,22,03,,,24,01,,,,8*71,1621307227610
$GPGSA,A,3,01,07,08,21,30,,,,,,,,2.4,1.3,2.0*3A,1621307227610
$GNGSA,A,3,01,07,08,21,30,,,,,,,,2.4,1.3,2.0*24,1621307227610
$GNGSA,A,3,73,74,85,,,,,,,,,,2.4,1.3,2.0*20,1621307227610
$QZGSA,A,3,02,03,,,,,,,,,,,2.4,1.3,2.0*29,1621307227610
$IMGSA,A,3,,,,,,,,,,,,,2.4,1.3,2.0*27,1621307227610
$BDGSA,A,3,,,,,,,,,,,,,2.4,1.3,2.0*25,1621307227610
$GAGSA,A,3,,,,,,,,,,,,,2.4,1.3,2.0*25,1621307227610
$GPRMC,030701.00,A,2218.620057,N,11410.157856,E,000.1,351.1,180521,,,A*51,1621307227610
$GPGSV,5,2,17,30,32,317,22,09,19,218,14,17,16,248,,22,15,137,13*7C,1621307228604
$GPGSV,5,3,17,27,12,045,,16,10,093,,04,09,186,,03,06,163,*71,1621307228604
$GPGSV,5,4,17,01,,,26,08,,,26,30,,,18,09,,,,8*60,1621307228604
$GPGSV,5,5,17,27,,,,8*6E,1621307228605
$GLGSV,2,1,06,84,59,013,12,74,57,012,24,85,53,226,16,73,47,105,29*67,1621307228605
$GLGSV,2,2,06,80,05,132,,86,06,213,*66,1621307228605
$QZGSV,2,1,06,02,64,082,22,03,64,054,16,01,11,152,10*5B,1621307228605
$QZGSV,2,2,06,02,,,22,03,,,25,01,,,,8*70,1621307228605
$GPGSA,A,3,01,07,08,21,30,,,,,,,,4.1,1.4,3.8*37,1621307228605
$GNGSA,A,3,01,07,08,21,30,,,,,,,,4.1,1.4,3.8*29,1621307228605
$GNGSA,A,3,73,74,85,,,,,,,,,,4.1,1.4,3.8*2D,1621307228605
$QZGSA,A,3,02,03,,,,,,,,,,,4.1,1.4,3.8*24,1621307228605
$IMGSA,A,3,,,,,,,,,,,,,4.1,1.4,3.8*2A,1621307228605
$BDGSA,A,3,,,,,,,,,,,,,4.1,1.4,3.8*28,1621307228605
$GAGSA,A,3,,,,,,,,,,,,,4.1,1.4,3.8*28,1621307228605
$GPRMC,030702.00,A,2218.620098,N,11410.157792,E,000.1,351.2,180521,,,A*55,1621307228605
$GPGGA,030703.00,2218.620226,N,11410.157674,E,1,10,1.2,24.9,M,-1.3,M,,*41,1621307229596
$GPGSV,5,1,17,07,71,295,21,21,67,089,23,01,61,159,29,08,40,025,17*78,1621307229602
$GPGSV,5,2,17,30,32,317,22,09,19,218,14,17,16,248,,22,15,137,13*7C,1621307229602
$GPGSV,5,3,17,27,12,045,,16,10,093,,04,09,186,,03,06,163,*71,1621307229602
$GPGSV,5,4,17,01,,,26,08,,,26,30,,,17,09,,,11,8*6F,1621307229603
$GPGSV,5,5,17,27,,,,8*6E,1621307229603
$GLGSV,2,1,06,84,59,013,12,74,57,012,24,85,53,226,16,73,47,105,29*67,1621307229603
$GLGSV,2,2,06,80,05,132,08,86,06,213,*6E,1621307229604
$QZGSV,2,1,06,02,64,082,22,03,64,054,16,01,11,152,10*5B,1621307229611
$QZGSV,2,2,06,02,,,22,03,,,25,01,,,,8*70,1621307229612
$GPGSA,A,3,01,07,08,21,30,,,,,,,,2.2,1.1,1.9*34,1621307229612
$GNGSA,A,3,01,07,08,21,30,,,,,,,,2.2,1.1,1.9*2A,1621307229613
$GNGSA,A,3,73,74,85,,,,,,,,,,2.2,1.1,1.9*2E,1621307229613
$QZGSA,A,3,02,03,,,,,,,,,,,2.2,1.1,1.9*27,1621307229613
$IMGSA,A,3,,,,,,,,,,,,,2.2,1.1,1.9*29,1621307229614
$BDGSA,A,3,,,,,,,,,,,,,2.2,1.1,1.9*2B,1621307229615
$GAGSA,A,3,,,,,,,,,,,,,2.2,1.1,1.9*2B,1621307229615
$GPRMC,030703.00,A,2218.620226,N,11410.157674,E,000.3,351.2,180521,,,A*58,1621307229616
$GPGGA,030704.00,2218.620194,N,11410.157594,E,1,10,1.2,24.6,M,-1.3,M,,*4E,1621307230604
$GPGSV,5,1,17,07,71,295,20,21,67,089,22,01,61,159,30,08,40,025,16*71,1621307230608
$GPGSV,5,2,17,30,32,317,22,09,19,218,14,17,16,248,,22,15,137,13*7C,1621307230609
$GPGSV,5,3,17,27,12,045,,16,10,093,,04,09,186,,03,06,163,*71,1621307230609
$GPGSV,5,4,17,01,,,25,08,,,26,30,,,17,09,,,,8*6C,1621307230609
$GPGSV,5,5,17,27,,,,8*6E,1621307230610
$GLGSV,2,1,06,84,59,013,11,74,57,012,24,85,53,226,16,73,47,105,29*64,1621307230610
$GLGSV,2,2,06,80,05,132,,86,06,213,*66,1621307230610
$QZGSV,2,1,06,02,64,082,22,03,64,054,16,01,11,152,10*5B,1621307230610
$QZGSV,2,2,06,02,,,22,03,,,25,01,,,09,8*79,1621307230611
$GPGSA,A,3,01,07,08,21,30,,,,,,,,3.1,1.2,2.8*37,1621307230611
$GNGSA,A,3,01,07,08,21,30,,,,,,,,3.1,1.2,2.8*29,1621307230611
$GNGSA,A,3,73,74,85,,,,,,,,,,3.1,1.2,2.8*2D,1621307230611
$QZGSA,A,3,02,03,,,,,,,,,,,3.1,1.2,2.8*24,1621307230612
$IMGSA,A,3,,,,,,,,,,,,,3.1,1.2,2.8*2A,1621307230612
$BDGSA,A,3,,,,,,,,,,,,,3.1,1.2,2.8*28,1621307230612
$GAGSA,A,3,,,,,,,,,,,,,3.1,1.2,2.8*28,1621307230612
$GPRMC,030704.00,A,2218.620194,N,11410.157594,E,000.3,351.2,180521,,,A*58,1621307230613
$GPGGA,030705.00,2218.620222,N,11410.157565,E,1,10,0.8,24.9,M,-1.3,M,,*4B,1621307231604
$GPGSV,5,1,17,07,71,295,20,21,67,089,22,01,61,159,30,08,40,025,16*71,1621307231606
$GPGSV,5,2,17,30,32,317,22,09,19,218,13,17,16,248,,22,15,137,13*7B,1621307231606
$GPGSV,5,3,17,27,12,045,,16,10,093,07,04,09,186,,03,06,163,*76,1621307231606
$GPGSV,5,4,17,01,,,25,08,,,26,30,,,18,09,,,,8*63,1621307231606
$GPGSV,5,5,17,27,,,,8*6E,1621307231606
$GLGSV,2,1,06,84,59,013,11,74,57,012,24,85,53,226,17,73,47,105,29*65,1621307231606
$GLGSV,2,2,06,80,05,132,,86,06,213,*66,1621307231606
$QZGSV,2,1,06,02,64,082,22,03,64,054,16,01,11,152,10*5B,1621307231606
$QZGSV,2,2,06,02,,,23,03,,,25,01,,,,8*71,1621307231606
$GPGSA,A,3,01,07,08,21,30,,,,,,,,3.2,1.3,2.9*34,1621307231607
$GNGSA,A,3,01,07,08,21,30,,,,,,,,3.2,1.3,2.9*2A,1621307231607
$GNGSA,A,3,73,74,85,,,,,,,,,,3.2,1.3,2.9*2E,1621307231607
$QZGSA,A,3,02,03,,,,,,,,,,,3.2,1.3,2.9*27,1621307231607
$IMGSA,A,3,,,,,,,,,,,,,3.2,1.3,2.9*29,1621307231607
$BDGSA,A,3,,,,,,,,,,,,,3.2,1.3,2.9*2B,1621307231607
$GAGSA,A,3,,,,,,,,,,,,,3.2,1.3,2.9*2B,1621307231607
$GPRMC,030705.00,A,2218.620222,N,11410.157565,E,000.1,351.3,180521,,,A*5A,1621307231607
$GPGGA,030706.00,2218.620291,N,11410.157513,E,1,11,0.8,24.8,M,-1.3,M,,*41,1621307232614
$GPGSV,5,1,17,07,71,295,20,21,67,089,22,01,61,159,30,08,40,025,16*71,1621307232619
$GPGSV,5,2,17,30,32,317,22,09,19,218,13,17,16,248,,22,15,137,13*7B,1621307232619
$GPGSV,5,3,17,27,12,045,,16,10,093,,04,09,186,,03,06,163,*71,1621307232620
$GPGSV,5,4,17,01,,,25,08,,,26,30,,,18,09,,,,8*63,1621307232620
$GPGSV,5,5,17,27,,,,8*6E,1621307232620
$GLGSV,2,1,06,84,59,013,11,74,57,012,24,85,53,226,18,73,47,105,29*6A,1621307232621
$GLGSV,2,2,06,80,05,132,,86,06,213,*66,1621307232621
$QZGSV,2,1,06,02,64,082,22,03,64,054,16,01,11,152,10*5B,1621307232621
$QZGSV,2,2,06,02,,,23,03,,,25,01,,,,8*71,1621307232621
$GPGSA,A,3,01,07,08,21,22,30,,,,,,,3.2,1.3,2.9*34,1621307232622
$GNGSA,A,3,01,07,08,21,22,30,,,,,,,3.2,1.3,2.9*2A,1621307232622
$GNGSA,A,3,73,74,85,,,,,,,,,,3.2,1.3,2.9*2E,1621307232622
$QZGSA,A,3,02,03,,,,,,,,,,,3.2,1.3,2.9*27,1621307232622
$IMGSA,A,3,,,,,,,,,,,,,3.2,1.3,2.9*29,1621307232623
$BDGSA,A,3,,,,,,,,,,,,,3.2,1.3,2.9*2B,1621307232623
$GAGSA,A,3,,,,,,,,,,,,,3.2,1.3,2.9*2B,1621307232623
$GPRMC,030706.00,A,2218.620291,N,11410.157513,E,000.3,351.3,180521,,,A*52,1621307232624
$GPGGA,030707.00,2218.620402,N,11410.157370,E,1,11,1.2,24.0,M,-1.3,M,,*4C,1621307233598
$GPGSV,5,1,17,07,71,295,21,21,67,089,22,01,61,159,31,08,40,025,16*71,1621307233606
$GPGSV,5,2,17,30,32,317,22,09,19,218,12,17,16,248,,22,15,137,13*7A,1621307233606
$GPGSV,5,3,17,27,12,045,,16,10,093,,04,09,186,,03,06,163,*71,1621307233606
$GPGSV,5,4,17,01,,,25,08,,,26,30,,,17,09,,,10,8*6D,1621307233606
$GPGSV,5,5,17,27,,,,8*6E,1621307233607
$GLGSV,2,1,06,84,59,013,11,74,57,012,24,85,53,226,19,73,47,105,29*6B,1621307233607
$GLGSV,2,2,06,80,05,132,,86,06,213,*66,1621307233607
$QZGSV,2,1,06,02,64,082,21,03,64,054,16,01,11,152,10*58,1621307233607
$QZGSV,2,2,06,02,,,24,03,,,25,01,,,,8*76,1621307233607
$GPGSA,A,3,01,07,08,21,22,30,,,,,,,4.1,1.4,3.8*37,1621307233607
$GNGSA,A,3,01,07,08,21,22,30,,,,,,,4.1,1.4,3.8*29,1621307233607
$GNGSA,A,3,73,74,85,,,,,,,,,,4.1,1.4,3.8*2D,1621307233607
$QZGSA,A,3,02,03,,,,,,,,,,,4.1,1.4,3.8*24,1621307233607
$IMGSA,A,3,,,,,,,,,,,,,4.1,1.4,3.8*2A,1621307233607
$BDGSA,A,3,,,,,,,,,,,,,4.1,1.4,3.8*28,1621307233607
$GAGSA,A,3,,,,,,,,,,,,,4.1,1.4,3.8*28,1621307233607
$GPRMC,030707.00,A,2218.620402,N,11410.157370,E,000.4,317.7,180521,,,A*5D,1621307233607
$GPGGA,030708.00,2218.620591,N,11410.157177,E,1,10,0.8,23.8,M,-1.3,M,,*48,1621307234598
$GPGSV,5,1,17,07,71,295,21,21,67,089,22,01,61,159,31,08,40,025,16*71,1621307234600
$GPGSV,5,2,17,30,32,317,21,09,19,218,12,17,16,248,,22,15,137,13*79,1621307234600
$GPGSV,5,3,17,27,12,045,,16,10,093,,04,09,186,,03,06,163,*71,1621307234600
$GPGSV,5,4,17,01,,,25,08,,,26,30,,,17,09,,,11,8*6C,1621307234600
$GPGSV,5,5,17,27,,,,8*6E,1621307234600
$GLGSV,2,1,06,84,59,013,11,74,57,012,24,85,53,226,18,73,47,105,29*6A,1621307234601
$GLGSV,2,2,06,80,05,132,,86,06,213,*66,1621307234601
$QZGSV,2,1,06,02,64,082,21,03,64,054,16,01,11,152,10*58,1621307234601
$QZGSV,2,2,06,02,,,24,03,,,25,01,,,,8*76,1621307234601
$GPGSA,A,3,01,07,08,21,30,,,,,,,,4.1,1.4,3.8*37,1621307234601
$GNGSA,A,3,01,07,08,21,30,,,,,,,,4.1,1.4,3.8*29,1621307234601
$GNGSA,A,3,73,74,85,,,,,,,,,,4.1,1.4,3.8*2D,1621307234601
$QZGSA,A,3,02,03,,,,,,,,,,,4.1,1.4,3.8*24,1621307234601
$IMGSA,A,3,,,,,,,,,,,,,4.1,1.4,3.8*2A,1621307234601
$BDGSA,A,3,,,,,,,,,,,,,4.1,1.4,3.8*28,1621307234601
$GAGSA,A,3,,,,,,,,,,,,,4.1,1.4,3.8*28,1621307234601
$GPRMC,030708.00,A,2218.620591,N,11410.157177,E,000.6,344.3,180521,,,A*5C,1621307234601
$GPGGA,030709.00,2218.620802,N,11410.157100,E,1,10,0.8,23.5,M,-1.3,M,,*43,1621307235595
$GPGSV,5,1,17,07,71,295,21,21,67,089,22,01,61,159,31,08,40,025,17*70,1621307235598
$GPGSV,5,2,17,30,32,317,21,09,19,218,12,17,16,248,,22,15,137,12*78,1621307235598
$GPGSV,5,3,17,27,12,045,,16,10,093,,04,09,186,,03,06,163,*71,1621307235598
$GPGSV,5,4,17,01,,,25,08,,,26,30,,,17,09,,,,8*6C,1621307235598
$GPGSV,5,5,17,27,,,,8*6E,1621307235598
$GLGSV,2,1,06,84,59,013,11,74,57,012,26,85,53,226,18,73,47,105,29*68,1621307235598
$GLGSV,2,2,06,80,05,132,08,86,06,213,*6E,1621307235598
$QZGSV,2,1,06,02,64,082,21,03,64,054,16,01,11,152,10*58,1621307235598
$QZGSV,2,2,06,02,,,24,03,,,25,01,,,09,8*7F,1621307235598
$GPGSA,A,3,01,07,08,21,30,,,,,,,,3.4,1.5,3.0*3C,1621307235598
$GNGSA,A,3,01,07,08,21,30,,,,,,,,3.4,1.5,3.0*22,1621307235598
$GNGSA,A,3,73,74,85,,,,,,,,,,3.4,1.5,3.0*26,1621307235600
$QZGSA,A,3,02,03,,,,,,,,,,,3.4,1.5,3.0*2F,1621307235600
$IMGSA,A,3,,,,,,,,,,,,,3.4,1.5,3.0*21,1621307235600
$BDGSA,A,3,,,,,,,,,,,,,3.4,1.5,3.0*23,1621307235600
$GAGSA,A,3,,,,,,,,,,,,,3.4,1.5,3.0*23,1621307235600
$GPRMC,030709.00,A,2218.620802,N,11410.157100,E,000.0,348.6,180521,,,A*55,1621307235600
$GPGGA,030710.00,2218.621066,N,11410.156941,E,1,10,1.2,23.3,M,-1.3,M,,*41,1621307236600
$GPGSV,6,1,18,07,71,295,22,21,67,089,22,01,61,159,31,08,40,025,17*7F,1621307236606
$GPGSV,6,2,18,30,32,317,21,09,19,218,12,17,16,248,,22,15,137,12*74,1621307236607
$GPGSV,6,3,18,27,12,045,,16,10,093,,04,09,186,,03,06,163,*7D,1621307236607
$GPGSV,6,4,18,28,01,297,*45,1621307236608
$GPGSV,6,5,18,01,,,24,08,,,26,30,,,17,09,,,10,8*61,1621307236608
$GPGSV,6,6,18,27,,,,8*61,1621307236608
$GLGSV,2,1,06,84,59,013,11,74,57,012,25,85,53,226,18,73,47,105,29*6B,1621307236609
$GLGSV,2,2,06,80,05,132,09,86,06,213,*6F,1621307236609
$QZGSV,2,1,06,03,64,054,16,02,64,082,21,01,11,152,10*58,1621307236610
$QZGSV,2,2,06,02,,,24,03,,,25,01,,,,8*76,1621307236610
$GPGSA,A,3,01,07,08,21,30,,,,,,,,3.4,1.5,3.0*3C,1621307236610
$GNGSA,A,3,01,07,08,21,30,,,,,,,,3.4,1.5,3.0*22,1621307236610
$GNGSA,A,3,73,74,85,,,,,,,,,,3.4,1.5,3.0*26,1621307236610
$QZGSA,A,3,02,03,,,,,,,,,,,3.4,1.5,3.0*2F,1621307236610
$IMGSA,A,3,,,,,,,,,,,,,3.4,1.5,3.0*21,1621307236610
$BDGSA,A,3,,,,,,,,,,,,,3.4,1.5,3.0*23,1621307236610
$GAGSA,A,3,,,,,,,,,,,,,3.4,1.5,3.0*23,1621307236610
$GPRMC,030710.00,A,2218.621066,N,11410.156941,E,000.2,350.1,180521,,,A*56,1621307236611
$GPGGA,030711.00,2218.621167,N,11410.156954,E,1,10,0.8,23.2,M,-1.3,M,,*4E,1621307237598
$GPGSV,6,1,18,07,71,295,23,21,67,089,22,01,61,159,31,08,40,025,17*7E,1621307237601
$GPGSV,6,2,18,30,32,317,21,09,19,218,12,17,16,248,10,22,15,137,12*75,1621307237601
$GPGSV,6,3,18,27,12,045,,16,10,093,,04,09,186,09,03,06,163,*74,1621307237601
$GPGSV,6,4,18,28,01,297,*45,1621307237601
$GPGSV,6,5,18,01,,,24,08,,,26,30,,,17,09,,,,8*60,1621307237602
$GPGSV,6,6,18,27,,,,8*61,1621307237602
$GLGSV,2,1,06,84,59,013,10,74,57,012,25,85,53,226,17,73,47,105,29*65,1621307237602
$GLGSV,2,2,06,80,05,132,09,86,06,213,*6F,1621307237602
$QZGSV,2,1,06,03,64,054,16,02,64,082,21,01,11,152,10*58,1621307237602
$QZGSV,2,2,06,02,,,24,03,,,25,01,,,,8*76,1621307237602
$GPGSA,A,3,01,07,08,21,30,,,,,,,,5.2,2.0,4.7*3A,1621307237602
$GNGSA,A,3,01,07,08,21,30,,,,,,,,5.2,2.0,4.7*24,1621307237602
$GNGSA,A,3,73,74,85,,,,,,,,,,5.2,2.0,4.7*20,1621307237602
$QZGSA,A,3,02,03,,,,,,,,,,,5.2,2.0,4.7*29,1621307237602
$IMGSA,A,3,,,,,,,,,,,,,5.2,2.0,4.7*27,1621307237602
$BDGSA,A,3,,,,,,,,,,,,,5.2,2.0,4.7*25,1621307237621
$GAGSA,A,3,,,,,,,,,,,,,5.2,2.0,4.7*25,1621307237622
$GPRMC,030711.00,A,2218.621167,N,11410.156954,E,000.1,350.5,180521,,,A*54,1621307237622
$GPGGA,030712.00,2218.621319,N,11410.156947,E,1,10,0.8,22.9,M,-1.3,M,,*4E,1621307238602
$GPGSV,6,1,18,07,71,295,25,21,67,089,24,01,61,159,32,08,40,025,19*73,1621307238603
$GPGSV,6,2,18,30,32,317,22,09,19,218,11,17,16,248,10,22,15,137,12*75,1621307238604
$GPGSV,6,3,18,27,12,045,,16,10,093,,04,09,186,08,03,06,163,*75,1621307238604
$GPGSV,6,4,18,28,01,297,*45,1621307238604
$GPGSV,6,5,18,01,,,24,08,,,26,30,,,17,09,,,,8*60,1621307238604
$GPGSV,6,6,18,27,,,,8*61,1621307238604
$GLGSV,2,1,06,84,59,013,10,74,57,012,26,85,53,226,17,73,47,105,29*66,1621307238604
$GLGSV,2,2,06,80,05,132,09,86,06,213,*6F,1621307238604
$QZGSV,2,1,06,03,64,054,16,02,64,082,22,01,11,152,10*5B,1621307238604
$QZGSV,2,2,06,02,,,24,03,,,25,01,,,,8*76,1621307238604
$GPGSA,A,3,01,07,08,21,30,,,,,,,,2.4,1.2,2.1*3A,1621307238604
$GNGSA,A,3,01,07,08,21,30,,,,,,,,2.4,1.2,2.1*24,1621307238604
$GNGSA,A,3,73,74,85,,,,,,,,,,2.4,1.2,2.1*20,1621307238604
$QZGSA,A,3,02,03,,,,,,,,,,,2.4,1.2,2.1*29,1621307238604
$IMGSA,A,3,,,,,,,,,,,,,2.4,1.2,2.1*27,1621307238604
$BDGSA,A,3,,,,,,,,,,,,,2.4,1.2,2.1*25,1621307238604
$GAGSA,A,3,,,,,,,,,,,,,2.4,1.2,2.1*25,1621307238604
$GPRMC,030712.00,A,2218.621319,N,11410.156947,E,000.5,350.8,180521,,,A*57,1621307238606
$GPGGA,030713.00,2218.621517,N,11410.156937,E,1,10,0.8,22.9,M,-1.3,M,,*40,1621307239596
$GPGSV,6,1,18,07,71,295,27,21,67,089,24,01,61,159,33,08,40,025,20*7A,1621307239605
$GPGSV,6,2,18,30,32,317,23,09,19,218,11,17,16,248,10,22,15,137,12*74,1621307239606
$GPGSV,6,3,18,27,12,045,,16,10,093,,04,09,186,,03,06,163,*7D,1621307239606
$GPGSV,6,4,18,28,01,297,*45,1621307239607
$GPGSV,6,5,18,01,,,24,08,,,26,30,,,17,09,,,,8*60,1621307239608
$GPGSV,6,6,18,27,,,,8*61,1621307239608
$GLGSV,2,1,06,84,59,013,,74,57,012,26,85,53,226,17,73,47,105,28*66,1621307239609
$GLGSV,2,2,06,80,05,132,09,86,06,213,*6F,1621307239610
$QZGSV,2,1,06,03,64,054,16,02,64,082,22,01,11,152,10*5B,1621307239617
$QZGSV,2,2,06,02,,,23,03,,,25,01,,,,8*71,1621307239619
$GPGSA,A,3,01,07,08,21,30,,,,,,,,2.5,1.4,2.1*3D,1621307239620
$GNGSA,A,3,01,07,08,21,30,,,,,,,,2.5,1.4,2.1*23,1621307239627
$GNGSA,A,3,73,74,85,,,,,,,,,,2.5,1.4,2.1*27,1621307239627
$QZGSA,A,3,02,03,,,,,,,,,,,2.5,1.4,2.1*2E,1621307239628
$IMGSA,A,3,,,,,,,,,,,,,2.5,1.4,2.1*20,1621307239628
$BDGSA,A,3,,,,,,,,,,,,,2.5,1.4,2.1*22,1621307239629
$GAGSA,A,3,,,,,,,,,,,,,2.5,1.4,2.1*22,1621307239629
$GPRMC,030713.00,A,2218.621517,N,11410.156937,E,000.1,350.9,180521,,,A*5C,1621307239629
$GPGGA,030714.00,2218.621537,N,11410.157094,E,1,10,0.8,23.0,M,-1.3,M,,*4C,1621307240605
$GPGSV,6,1,18,07,71,295,27,21,67,089,23,01,61,159,33,08,40,025,20*7D,1621307240613
$GPGSV,6,2,18,30,32,317,23,09,19,218,11,17,16,248,10,22,15,137,11*77,1621307240614
$GPGSV,6,3,18,27,12,045,,16,10,093,,04,09,186,,03,06,163,*7D,1621307240615
$GPGSV,6,4,18,28,01,297,*45,1621307240615
$GPGSV,6,5,18,01,,,23,08,,,26,30,,,17,09,,,,8*67,1621307240615
$GPGSV,6,6,18,27,,,,8*61,1621307240615
$GLGSV,2,1,06,84,59,013,10,74,57,012,26,85,53,226,16,73,47,105,28*66,1621307240615
$GLGSV,2,2,06,80,05,132,,86,06,213,*66,1621307240615
$QZGSV,2,1,06,03,64,054,16,02,64,082,21,01,11,152,10*58,1621307240615
$QZGSV,2,2,06,02,,,23,03,,,25,01,,,,8*71,1621307240615
$GPGSA,A,3,01,07,08,21,30,,,,,,,,2.5,1.4,2.1*3D,1621307240615
$GNGSA,A,3,01,07,08,21,30,,,,,,,,2.5,1.4,2.1*23,1621307240616
$GNGSA,A,3,73,74,85,,,,,,,,,,2.5,1.4,2.1*27,1621307240616
$QZGSA,A,3,02,03,,,,,,,,,,,2.5,1.4,2.1*2E,1621307240616
$IMGSA,A,3,,,,,,,,,,,,,2.5,1.4,2.1*20,1621307240616
$BDGSA,A,3,,,,,,,,,,,,,2.5,1.4,2.1*22,1621307240616
$GAGSA,A,3,,,,,,,,,,,,,2.5,1.4,2.1*22,1621307240616
$GPRMC,030714.00,A,2218.621537,N,11410.157094,E,000.2,351.0,180521,,,A*53,1621307240616
$GPGGA,030715.00,2218.621567,N,11410.157300,E,1,10,1.2,22.4,M,-1.3,M,,*48,1621307241597
$GPGSV,6,1,18,07,71,295,26,21,67,089,23,01,61,159,33,08,40,025,21*7D,1621307241602
$GPGSV,6,2,18,30,32,317,23,09,19,218,11,17,16,248,09,22,15,137,11*7F,1621307241602
$GPGSV,6,3,18,27,12,045,,16,10,093,,04,09,186,,03,06,163,*7D,1621307241602
$GPGSV,6,4,18,28,01,297,*45,1621307241602
$GPGSV,6,5,18,01,,,23,08,,,26,30,,,17,09,,,,8*67,1621307241602
$GPGSV,6,6,18,27,,,,8*61,1621307241602
$GLGSV,2,1,06,84,59,013,10,74,57,012,26,85,53,226,16,73,47,105,28*66,1621307241602
$GLGSV,2,2,06,80,05,132,,86,06,213,*66,1621307241602
$QZGSV,2,1,06,03,64,054,16,02,64,082,21,01,11,152,10*58,1621307241602
$QZGSV,2,2,06,02,,,23,03,,,24,01,,,,8*70,1621307241602
$GPGSA,A,3,01,07,08,21,30,,,,,,,,3.4,1.5,3.0*3C,1621307241602
$GNGSA,A,3,01,07,08,21,30,,,,,,,,3.4,1.5,3.0*22,1621307241602
$GNGSA,A,3,73,74,85,,,,,,,,,,3.4,1.5,3.0*26,1621307241602
$QZGSA,A,3,02,03,,,,,,,,,,,3.4,1.5,3.0*2F,1621307241602
$IMGSA,A,3,,,,,,,,,,,,,3.4,1.5,3.0*21,1621307241602
$BDGSA,A,3,,,,,,,,,,,,,3.4,1.5,3.0*23,1621307241621
$GAGSA,A,3,,,,,,,,,,,,,3.4,1.5,3.0*23,1621307241622
$GPRMC,030715.00,A,2218.621567,N,11410.157300,E,000.5,351.1,180521,,,A*5F,1621307241626
$GPGGA,030716.00,2218.621764,N,11410.157352,E,1,10,1.2,22.1,M,-1.3,M,,*48,1621307242603
$GPGSV,6,1,18,07,71,295,26,21,67,088,24,01,61,159,33,08,40,025,21*7B,1621307242609
$GPGSV,6,2,18,30,32,317,23,09,19,218,11,17,16,248,09,22,15,137,11*7F,1621307242609
$GPGSV,6,3,18,27,12,045,,16,10,093,,04,09,186,08,03,06,163,*75,1621307242610
$GPGSV,6,4,18,28,01,297,*45,1621307242610
$GPGSV,6,5,18,01,,,23,08,,,26,30,,,16,09,,,,8*66,1621307242611
$GPGSV,6,6,18,27,,,,8*61,1621307242611
$GLGSV,2,1,06,84,59,013,10,74,57,012,26,85,53,226,16,73,47,105,28*66,1621307242612
$GLGSV,2,2,06,80,05,132,,86,06,213,*66,1621307242612
$QZGSV,2,1,06,03,64,054,16,02,64,082,21,01,11,152,10*58,1621307242612
$QZGSV,2,2,06,02,,,23,03,,,24,01,,,,8*70,1621307242613
$GPGSA,A,3,01,07,08,21,30,,,,,,,,4.1,1.4,3.8*37,1621307242613
$GNGSA,A,3,01,07,08,21,30,,,,,,,,4.1,1.4,3.8*29,1621307242614
$GNGSA,A,3,73,74,85,,,,,,,,,,4.1,1.4,3.8*2D,1621307242614
$QZGSA,A,3,02,03,,,,,,,,,,,4.1,1.4,3.8*24,1621307242615
$IMGSA,A,3,,,,,,,,,,,,,4.1,1.4,3.8*2A,1621307242615
$BDGSA,A,3,,,,,,,,,,,,,4.1,1.4,3.8*28,1621307242617
$GAGSA,A,3,,,,,,,,,,,,,4.1,1.4,3.8*28,1621307242618
$GPRMC,030716.00,A,2218.621764,N,11410.157352,E,000.8,351.1,180521,,,A*57,1621307242619
$GPGGA,030717.00,2218.621988,N,11410.157410,E,1,10,0.8,22.0,M,-1.3,M,,*4E,1621307243597
$GPGSV,6,1,18,07,71,295,26,21,67,088,24,01,61,159,32,08,40,025,20*7B,1621307243608
$GPGSV,6,2,18,30,32,317,22,09,19,218,11,17,16,248,,22,15,137,11*77,1621307243609
$GPGSV,6,3,18,27,12,045,,16,10,093,,04,09,186,,03,06,163,*7D,1621307243610
$GPGSV,6,4,18,28,01,297,*45,1621307243610
$GPGSV,6,5,18,01,,,22,08,,,26,30,,,16,09,,,09,8*6E,1621307243615
$GPGSV,6,6,18,27,,,,8*61,1621307243616
$GLGSV,2,1,06,84,59,013,10,74,57,012,26,85,53,226,15,73,47,105,27*6A,1621307243617
$GLGSV,2,2,06,80,05,132,,86,06,213,*66,1621307243624
$QZGSV,2,1,06,03,64,054,16,02,64,082,21,01,11,152,10*58,1621307243624
$QZGSV,2,2,06,02,,,24,03,,,24,01,,,,8*77,1621307243625
$GPGSA,A,3,01,07,08,21,30,,,,,,,,4.0,1.4,3.8*36,1621307243625
$GNGSA,A,3,01,07,08,21,30,,,,,,,,4.0,1.4,3.8*28,1621307243625
$GNGSA,A,3,73,74,85,,,,,,,,,,4.0,1.4,3.8*2C,1621307243626
$QZGSA,A,3,02,03,,,,,,,,,,,4.0,1.4,3.8*25,1621307243626
$IMGSA,A,3,,,,,,,,,,,,,4.0,1.4,3.8*2B,1621307243626
$BDGSA,A,3,,,,,,,,,,,,,4.0,1.4,3.8*29,1621307243627
$GAGSA,A,3,,,,,,,,,,,,,4.0,1.4,3.8*29,1621307243627
$GPRMC,030717.00,A,2218.621988,N,11410.157410,E,000.3,351.2,180521,,,A*53,1621307243627
$GPGGA,030718.00,2218.622014,N,11410.157494,E,1,10,0.8,21.7,M,-1.3,M,,*46,1621307244599
$GPGSV,6,1,18,07,71,295,26,21,67,088,25,01,61,159,32,08,40,025,20*7A,1621307244601
$GPGSV,6,2,18,30,32,317,22,09,19,218,11,17,16,248,,22,15,137,10*76,1621307244601
$GPGSV,6,3,18,27,12,045,,16,10,093,,04,09,186,,03,06,163,*7D,1621307244601
$GPGSV,6,4,18,28,01,297,*45,1621307244601
$GPGSV,6,5,18,01,,,22,08,,,26,30,,,16,09,,,,8*67,1621307244601
$GPGSV,6,6,18,27,,,,8*61,1621307244601
$GLGSV,2,1,06,84,59,013,09,74,57,012,26,85,53,226,15,73,47,105,27*62,1621307244601
$GLGSV,2,2,06,80,05,132,,86,06,213,*66,1621307244602
$QZGSV,2,1,06,03,64,054,16,02,64,082,21,01,11,152,10*58,1621307244602
$QZGSV,2,2,06,02,,,24,03,,,24,01,,,,8*77,1621307244602
$GPGSA,A,3,01,07,08,21,30,,,,,,,,3.2,1.3,2.9*34,1621307244602
$GNGSA,A,3,01,07,08,21,30,,,,,,,,3.2,1.3,2.9*2A,1621307244602
$GNGSA,A,3,73,74,85,,,,,,,,,,3.2,1.3,2.9*2E,1621307244602
$QZGSA,A,3,02,03,,,,,,,,,,,3.2,1.3,2.9*27,1621307244602
$IMGSA,A,3,,,,,,,,,,,,,3.2,1.3,2.9*29,1621307244602
$BDGSA,A,3,,,,,,,,,,,,,3.2,1.3,2.9*2B,1621307244602
$GAGSA,A,3,,,,,,,,,,,,,3.2,1.3,2.9*2B,1621307244602
$GPRMC,030718.00,A,2218.622014,N,11410.157494,E,000.3,351.2,180521,,,A*5F,1621307244602
$GPGGA,030719.00,2218.621956,N,11410.157568,E,1,10,1.2,20.9,M,-1.3,M,,*4D,1621307245603
$GPGSV,6,1,18,07,71,295,25,21,67,088,25,01,61,159,32,08,40,025,20*79,1621307245606
$GPGSV,6,2,18,30,32,317,22,09,19,218,11,17,16,248,,22,15,137,10*76,1621307245606
$GPGSV,6,3,18,27,12,045,,16,10,093,,04,09,186,,03,06,163,*7D,1621307245606
$GPGSV,6,4,18,28,01,297,*45,1621307245607
$GPGSV,6,5,18,01,,,22,08,,,26,30,,,16,09,,,,8*67,1621307245607
$GPGSV,6,6,18,27,,,,8*61,1621307245607
$GLGSV,2,1,06,84,59,013,09,74,57,012,26,85,53,226,15,73,47,105,26*63,1621307245607
$GLGSV,2,2,06,80,05,132,,86,06,213,*66,1621307245607
$QZGSV,2,1,06,03,64,054,16,02,64,082,21,01,11,152,10*58,1621307245607
$QZGSV,2,2,06,02,,,24,03,,,24,01,,,,8*77,1621307245607
$GPGSA,A,3,01,07,08,21,30,,,,,,,,3.2,1.3,2.9*34,1621307245607
$GNGSA,A,3,01,07,08,21,30,,,,,,,,3.2,1.3,2.9*2A,1621307245607
$GNGSA,A,3,73,74,85,,,,,,,,,,3.2,1.3,2.9*2E,1621307245607
$QZGSA,A,3,02,03,,,,,,,,,,,3.2,1.3,2.9*27,1621307245607
$IMGSA,A,3,,,,,,,,,,,,,3.2,1.3,2.9*29,1621307245607
$BDGSA,A,3,,,,,,,,,,,,,3.2,1.3,2.9*2B,1621307245607
$GAGSA,A,3,,,,,,,,,,,,,3.2,1.3,2.9*2B,1621307245607
$GPRMC,030719.00,A,2218.621956,N,11410.157568,E,000.4,351.2,180521,,,A*57,1621307245607
$GPGGA,030720.00,2218.622125,N,11410.157514,E,1,10,0.8,21.7,M,-1.3,M,,*47,1621307246599
$GPGSV,6,1,18,07,71,295,25,21,67,088,26,01,61,159,32,08,40,025,20*7A,1621307246603
$GPGSV,6,2,18,30,32,317,23,09,19,218,11,17,16,248,,22,15,137,12*75,1621307246603
$GPGSV,6,3,18,27,12,045,,16,10,093,,04,09,185,08,03,06,163,*76,1621307246603
$GPGSV,6,4,18,28,01,297,*45,1621307246603
$GPGSV,6,5,18,01,,,21,08,,,26,30,,,15,09,,,,8*67,1621307246603
$GPGSV,6,6,18,27,,,08,8*69,1621307246603
$GLGSV,2,1,06,84,59,013,09,74,57,012,29,85,53,226,15,73,47,105,26*6C,1621307246603
$GLGSV,2,2,06,80,05,132,,86,06,213,*66,1621307246604
$QZGSV,2,1,06,03,64,054,16,02,64,082,21,01,11,152,*59,1621307246604
$QZGSV,2,2,06,02,,,24,03,,,24,01,,,,8*77,1621307246604
$GPGSA,A,3,01,07,08,21,30,,,,,,,,4.0,1.4,3.8*36,1621307246607
$GNGSA,A,3,01,07,08,21,30,,,,,,,,4.0,1.4,3.8*28,1621307246607
$GNGSA,A,3,73,74,85,,,,,,,,,,4.0,1.4,3.8*2C,1621307246607
$QZGSA,A,3,02,03,,,,,,,,,,,4.0,1.4,3.8*25,1621307246607
$IMGSA,A,3,,,,,,,,,,,,,4.0,1.4,3.8*2B,1621307246607
$BDGSA,A,3,,,,,,,,,,,,,4.0,1.4,3.8*29,1621307246607
$GAGSA,A,3,,,,,,,,,,,,,4.0,1.4,3.8*29,1621307246607
$GPRMC,030720.00,A,2218.622125,N,11410.157514,E,000.6,351.3,180521,,,A*5A,1621307246607
$GPGGA,030721.00,2218.622289,N,11410.157470,E,1,11,0.8,21.1,M,-1.3,M,,*47,1621307247623
$GPGSV,6,1,18,07,71,294,25,21,67,088,26,01,61,159,31,08,40,025,20*78,1621307247629
$GPGSV,6,2,18,30,32,317,23,09,19,218,10,17,16,248,,22,15,137,12*74,1621307247630
$GPGSV,6,3,18,27,12,045,,16,10,093,,04,09,185,,03,06,163,*7E,1621307247631
$GPGSV,6,4,18,28,01,297,*45,1621307247631
$GPGSV,6,5,18,01,,,21,08,,,26,30,,,16,09,,,,8*64,1621307247631
$GPGSV,6,6,18,27,,,,8*61,1621307247631
$GLGSV,2,1,06,84,59,013,,74,57,012,29,85,53,226,18,73,47,105,26*68,1621307247631
$GLGSV,2,2,06,80,05,132,,86,06,213,*66,1621307247632
$QZGSV,2,1,06,03,64,054,16,02,64,082,21,01,11,152,*59,1621307247632
$QZGSV,2,2,06,02,,,24,03,,,24,01,,,,8*77,1621307247632
$GPGSA,A,3,01,07,08,21,22,30,,,,,,,4.0,1.4,3.8*36,1621307247632
$GNGSA,A,3,01,07,08,21,22,30,,,,,,,4.0,1.4,3.8*28,1621307247632
$GNGSA,A,3,73,74,85,,,,,,,,,,4.0,1.4,3.8*2C,1621307247632
$QZGSA,A,3,02,03,,,,,,,,,,,4.0,1.4,3.8*25,1621307247632
$IMGSA,A,3,,,,,,,,,,,,,4.0,1.4,3.8*2B,1621307247632
$BDGSA,A,3,,,,,,,,,,,,,4.0,1.4,3.8*29,1621307247632
$GAGSA,A,3,,,,,,,,,,,,,4.0,1.4,3.8*29,1621307247632
$GPRMC,030721.00,A,2218.622289,N,11410.157470,E,000.1,351.3,180521,,,A*5A,1621307247632
$GPGGA,030722.00,2218.622436,N,11410.157391,E,1,11,0.8,20.9,M,-1.3,M,,*47,1621307248600
$GPGSV,6,1,18,07,71,294,25,21,67,088,26,01,61,159,31,08,40,026,20*7B,1621307248606
$GPGSV,6,2,18,30,32,317,22,09,19,218,10,17,16,248,08,22,15,137,13*7C,1621307248607
$GPGSV,6,3,18,27,12,045,,16,10,093,09,04,09,185,,03,06,163,*77,1621307248608
$GPGSV,6,4,18,28,01,297,*45,1621307248608
$GPGSV,6,5,18,01,,,21,08,,,26,30,,,16,09,,,,8*64,1621307248608
$GPGSV,6,6,18,27,,,,8*61,1621307248609
$GLGSV,2,1,06,84,59,013,09,74,57,012,29,85,53,226,18,73,47,105,26*61,1621307248609
$GLGSV,2,2,06,80,05,132,,86,06,213,*66,1621307248609
$QZGSV,2,1,06,03,64,054,18,02,64,082,20,01,11,152,*56,1621307248609
$QZGSV,2,2,06,02,,,25,03,,,24,01,,,,8*76,1621307248609
$GPGSA,A,3,01,07,08,21,22,30,,,,,,,4.0,1.4,3.8*36,1621307248612
$GNGSA,A,3,01,07,08,21,22,30,,,,,,,4.0,1.4,3.8*28,1621307248613
$GNGSA,A,3,73,74,85,,,,,,,,,,4.0,1.4,3.8*2C,1621307248613
$QZGSA,A,3,02,03,,,,,,,,,,,4.0,1.4,3.8*25,1621307248613
$IMGSA,A,3,,,,,,,,,,,,,4.0,1.4,3.8*2B,1621307248614
$BDGSA,A,3,,,,,,,,,,,,,4.0,1.4,3.8*29,1621307248614
$GAGSA,A,3,,,,,,,,,,,,,4.0,1.4,3.8*29,1621307248614
$GPRMC,030722.00,A,2218.622436,N,11410.157391,E,000.3,351.3,180521,,,A*51,1621307248615
$GPGGA,030723.00,2218.622699,N,11410.157313,E,1,11,0.8,20.7,M,-1.3,M,,*45,1621307249597
$GPGSV,6,1,18,07,71,294,25,21,67,088,26,01,61,159,31,08,40,026,20*7B,1621307249603
$GPGSV,6,2,18,30,32,317,22,09,19,218,10,17,16,248,08,22,15,137,13*7C,1621307249604
$GPGSV,6,3,18,27,12,045,,16,10,093,09,04,09,185,,03,06,163,*77,1621307249606
$GPGSV,6,4,18,28,01,297,*45,1621307249606
$GPGSV,6,5,18,01,,,21,08,,,25,30,,,16,09,,,,8*67,1621307249607
$GPGSV,6,6,18,27,,,,8*61,1621307249608
$GLGSV,2,1,06,84,59,013,10,74,57,012,29,85,53,226,18,73,47,105,26*69,1621307249609
$GLGSV,2,2,06,80,05,132,,86,06,213,*66,1621307249609
$QZGSV,2,1,06,03,64,054,18,02,64,082,20,01,11,152,*56,1621307249610
$QZGSV,2,2,06,02,,,25,03,,,24,01,,,08,8*7E,1621307249610
$GPGSA,A,3,01,07,08,21,22,30,,,,,,,4.0,1.4,3.8*36,1621307249611
$GNGSA,A,3,01,07,08,21,22,30,,,,,,,4.0,1.4,3.8*28,1621307249611
$GNGSA,A,3,73,74,85,,,,,,,,,,4.0,1.4,3.8*2C,1621307249611
$QZGSA,A,3,02,03,,,,,,,,,,,4.0,1.4,3.8*25,1621307249611
$IMGSA,A,3,,,,,,,,,,,,,4.0,1.4,3.8*2B,1621307249612
$BDGSA,A,3,,,,,,,,,,,,,4.0,1.4,3.8*29,1621307249612
$GAGSA,A,3,,,,,,,,,,,,,4.0,1.4,3.8*29,1621307249612
$GPRMC,030723.00,A,2218.622699,N,11410.157313,E,000.5,351.3,180521,,,A*5B,1621307249613
$GPGGA,030724.00,2218.622952,N,11410.157287,E,1,11,0.8,21.1,M,-1.3,M,,*41,1621307250599
$GPGSV,6,1,18,07,71,294,25,21,67,088,25,01,61,159,31,08,40,026,20*78,1621307250603
$GPGSV,6,2,18,30,32,317,22,09,19,218,10,17,16,248,08,22,15,137,13*7C,1621307250603
$GPGSV,6,3,18,27,12,045,,16,10,093,09,04,09,185,,03,06,163,*77,1621307250604
$GPGSV,6,4,18,28,01,297,*45,1621307250604
$GPGSV,6,5,18,01,,,21,08,,,25,30,,,16,09,,,08,8*6F,1621307250604
$GPGSV,6,6,18,27,,,,8*61,1621307250605
$GLGSV,2,1,06,84,59,013,10,74,57,012,29,85,53,226,18,73,47,105,25*6A,1621307250606
$GLGSV,2,2,06,80,05,132,,86,06,213,*66,1621307250606
$QZGSV,2,1,06,03,64,054,17,02,64,082,20,01,11,152,*59,1621307250607
$QZGSV,2,2,06,02,,,25,03,,,25,01,,,,8*77,1621307250607
$GPGSA,A,3,01,07,08,21,22,30,,,,,,,4.0,1.4,3.8*36,1621307250607
$GNGSA,A,3,01,07,08,21,22,30,,,,,,,4.0,1.4,3.8*28,1621307250607
$GNGSA,A,3,73,74,85,,,,,,,,,,4.0,1.4,3.8*2C,1621307250608
$QZGSA,A,3,02,03,,,,,,,,,,,4.0,1.4,3.8*25,1621307250608
$IMGSA,A,3,,,,,,,,,,,,,4.0,1.4,3.8*2B,1621307250608
$BDGSA,A,3,,,,,,,,,,,,,4.0,1.4,3.8*29,1621307250608
$GAGSA,A,3,,,,,,,,,,,,,4.0,1.4,3.8*29,1621307250609
$GPRMC,030724.00,A,2218.622952,N,11410.157287,E,000.9,351.3,180521,,,A*54,1621307250609
$GPGGA,030725.00,2218.622812,N,11410.157324,E,1,10,1.2,20.6,M,-1.3,M,,*41,1621307251635
$GPGSV,6,1,18,07,71,294,26,21,67,088,25,01,61,159,30,08,40,026,20*7A,1621307251641
$GPGSV,6,2,18,30,32,317,21,09,19,218,10,17,16,248,08,22,15,137,13*7F,1621307251641
$GPGSV,6,3,18,27,12,045,,16,10,093,09,04,09,185,,03,06,163,*77,1621307251642
$GPGSV,6,4,18,28,01,297,*45,1621307251650
$GPGSV,6,5,18,01,,,21,08,,,25,30,,,16,09,,,09,8*6E,1621307251654
$GPGSV,6,6,18,27,,,09,8*68,1621307251656
$GLGSV,2,1,06,84,59,013,10,74,57,012,29,85,53,226,18,73,47,105,25*6A,1621307251656
$GLGSV,2,2,06,80,05,132,,86,06,213,*66,1621307251656
$QZGSV,2,1,06,03,64,054,17,02,64,082,20,01,11,152,*59,1621307251657
$QZGSV,2,2,06,02,,,26,03,,,25,01,,,,8*74,1621307251657
$GPGSA,A,3,01,07,08,21,30,,,,,,,,4.0,1.4,3.8*36,1621307251658
$GNGSA,A,3,01,07,08,21,30,,,,,,,,4.0,1.4,3.8*28,1621307251658
$GNGSA,A,3,73,74,85,,,,,,,,,,4.0,1.4,3.8*2C,1621307251658
$QZGSA,A,3,02,03,,,,,,,,,,,4.0,1.4,3.8*25,1621307251659
$IMGSA,A,3,,,,,,,,,,,,,4.0,1.4,3.8*2B,1621307251659
$BDGSA,A,3,,,,,,,,,,,,,4.0,1.4,3.8*29,1621307251659
$GAGSA,A,3,,,,,,,,,,,,,4.0,1.4,3.8*29,1621307251661
$GPRMC,030725.00,A,2218.622812,N,11410.157324,E,000.0,351.3,180521,,,A*51,1621307251663
$GPGGA,030726.00,2218.622831,N,11410.157340,E,1,10,1.2,20.2,M,-1.3,M,,*45,1621307252606
$GPGSV,6,1,18,07,71,294,27,21,67,088,25,01,61,159,30,08,40,026,19*71,1621307252614
$GPGSV,6,2,18,30,32,317,21,09,19,218,10,17,16,248,08,22,15,137,13*7F,1621307252615
$GPGSV,6,3,18,27,12,045,,16,10,093,,04,09,185,,03,06,163,*7E,1621307252615
$GPGSV,6,4,18,28,01,297,*45,1621307252615
$GPGSV,6,5,18,01,,,21,08,,,25,30,,,17,09,,,,8*66,1621307252615
$GPGSV,6,6,18,27,,,,8*61,1621307252615
$GLGSV,2,1,06,84,59,013,10,74,57,012,29,85,53,226,19,73,47,105,25*6B,1621307252615
$GLGSV,2,2,06,80,05,132,,86,06,213,*66,1621307252615
$QZGSV,2,1,06,03,64,054,17,02,64,082,20,01,11,152,*59,1621307252615
$QZGSV,2,2,06,02,,,26,03,,,25,01,,,,8*74,1621307252615
$GPGSA,A,3,01,07,08,21,30,,,,,,,,2.4,1.3,2.0*3A,1621307252615
$GNGSA,A,3,01,07,08,21,30,,,,,,,,2.4,1.3,2.0*24,1621307252616
$GNGSA,A,3,73,74,85,,,,,,,,,,2.4,1.3,2.0*20,1621307252616
$QZGSA,A,3,02,03,,,,,,,,,,,2.4,1.3,2.0*29,1621307252616
$IMGSA,A,3,,,,,,,,,,,,,2.4,1.3,2.0*27,1621307252616
$BDGSA,A,3,,,,,,,,,,,,,2.4,1.3,2.0*25,1621307252616
$GAGSA,A,3,,,,,,,,,,,,,2.4,1.3,2.0*25,1621307252616
$GPRMC,030726.00,A,2218.622831,N,11410.157340,E,000.0,351.3,180521,,,A*51,1621307252616
$GPGGA,030727.00,2218.622880,N,11410.157281,E,1,12,0.8,20.0,M,-1.3,M,,*49,1621307253604
$GPGSV,6,1,18,07,71,294,27,21,67,088,25,01,61,159,30,08,40,026,19*71,1621307253613
$GPGSV,6,2,18,30,32,317,20,09,19,218,13,17,16,248,08,22,15,137,13*7D,1621307253615
$GPGSV,6,3,18,27,12,045,,16,10,093,,04,09,185,,03,06,163,*7E,1621307253616
$GPGSV,6,4,18,28,01,297,*45,1621307253616
$GPGSV,6,5,18,01,,,21,08,,,25,30,,,17,09,,,,8*66,1621307253616
$GPGSV,6,6,18,27,,,,8*61,1621307253616
$GLGSV,2,1,06,84,59,013,10,74,57,012,29,85,53,226,20,73,47,105,27*63,1621307253620
$GLGSV,2,2,06,80,05,132,,86,06,213,*66,1621307253620
$QZGSV,2,1,06,03,64,054,17,02,64,082,22,01,11,152,*5B,1621307253620
$QZGSV,2,2,06,02,,,25,03,,,25,01,,,,8*77,1621307253620
$GPGSA,A,3,01,07,08,09,21,22,30,,,,,,2.4,1.3,2.0*33,1621307253621
$GNGSA,A,3,01,07,08,09,21,22,30,,,,,,2.4,1.3,2.0*2D,1621307253621
$GNGSA,A,3,73,74,85,,,,,,,,,,2.4,1.3,2.0*20,1621307253621
$QZGSA,A,3,02,03,,,,,,,,,,,2.4,1.3,2.0*29,1621307253621
$IMGSA,A,3,,,,,,,,,,,,,2.4,1.3,2.0*27,1621307253621
$BDGSA,A,3,,,,,,,,,,,,,2.4,1.3,2.0*25,1621307253621
$GAGSA,A,3,,,,,,,,,,,,,2.4,1.3,2.0*25,1621307253621
$GPRMC,030727.00,A,2218.622880,N,11410.157281,E,000.2,351.5,180521,,,A*52,1621307253621
$GPGGA,030728.00,2218.622912,N,11410.157261,E,1,11,0.6,20.2,M,-1.3,M,,*4D,1621307254595
$GPGSV,6,1,18,07,71,294,27,21,67,088,24,01,61,159,30,08,40,026,19*70,1621307254604
$GPGSV,6,2,18,30,32,317,19,09,19,218,13,17,16,248,,22,15,137,19*75,1621307254604
$GPGSV,6,3,18,27,12,045,,16,10,093,,04,09,185,,03,06,163,*7E,1621307254605
$GPGSV,6,4,18,28,01,297,*45,1621307254605
$GPGSV,6,5,18,01,,,20,08,,,24,30,,,16,09,,,,8*67,1621307254605
$GPGSV,6,6,18,27,,,,8*61,1621307254606
$GLGSV,2,1,06,84,59,013,10,74,57,012,29,85,53,226,19,73,47,105,26*68,1621307254606
$GLGSV,2,2,06,80,05,132,,86,06,213,*66,1621307254606
$QZGSV,2,1,06,03,64,054,16,02,64,082,22,01,11,152,*5A,1621307254606
$QZGSV,2,2,06,02,,,25,03,,,25,01,,,,8*77,1621307254606
$GPGSA,A,3,01,07,08,21,22,30,,,,,,,2.4,1.3,2.0*3A,1621307254606
$GNGSA,A,3,01,07,08,21,22,30,,,,,,,2.4,1.3,2.0*24,1621307254606
$GNGSA,A,3,73,74,85,,,,,,,,,,2.4,1.3,2.0*20,1621307254606
$QZGSA,A,3,02,03,,,,,,,,,,,2.4,1.3,2.0*29,1621307254606
$IMGSA,A,3,,,,,,,,,,,,,2.4,1.3,2.0*27,1621307254606
$BDGSA,A,3,,,,,,,,,,,,,2.4,1.3,2.0*25,1621307254606
$GAGSA,A,3,,,,,,,,,,,,,2.4,1.3,2.0*25,1621307254607
$GPRMC,030728.00,A,2218.622912,N,11410.157261,E,000.7,353.9,180521,,,A*52,1621307254607
$GPGGA,030729.00,2218.622771,N,11410.157361,E,1,11,0.6,20.2,M,-1.3,M,,*46,1621307255597
$GPGSV,6,1,18,07,71,294,27,21,67,088,23,01,61,159,29,08,40,026,22*77,1621307255608
$GPGSV,6,2,18,30,32,317,19,09,19,218,13,17,16,248,,22,15,137,19*75,1621307255609
$GPGSV,6,3,18,27,12,045,,16,10,093,,04,09,185,,03,06,163,*7E,1621307255610
$GPGSV,6,4,18,28,01,297,*45,1621307255610
$GPGSV,6,5,18,01,,,28,08,,,23,30,,,17,09,,,,8*69,1621307255610
$GPGSV,6,6,18,27,,,,8*61,1621307255610
$GLGSV,2,1,06,84,59,013,10,74,57,012,28,85,53,226,19,73,47,105,26*69,1621307255610
$GLGSV,2,2,06,80,05,132,,86,06,213,*66,1621307255610
$QZGSV,2,1,06,03,64,054,16,02,64,082,21,01,11,152,*59,1621307255610
$QZGSV,2,2,06,02,,,25,03,,,24,01,,,,8*76,1621307255610
$GPGSA,A,3,01,07,08,21,22,30,,,,,,,2.4,1.3,2.0*3A,1621307255610
$GNGSA,A,3,01,07,08,21,22,30,,,,,,,2.4,1.3,2.0*24,1621307255611
$GNGSA,A,3,73,74,85,,,,,,,,,,2.4,1.3,2.0*20,1621307255611
$QZGSA,A,3,02,03,,,,,,,,,,,2.4,1.3,2.0*29,1621307255611
$IMGSA,A,3,,,,,,,,,,,,,2.4,1.3,2.0*27,1621307255611
$BDGSA,A,3,,,,,,,,,,,,,2.4,1.3,2.0*25,1621307255611
$GAGSA,A,3,,,,,,,,,,,,,2.4,1.3,2.0*25,1621307255611
$GPRMC,030729.00,A,2218.622771,N,11410.157361,E,001.3,358.4,180521,,,A*5A,1621307255611
$GPGGA,030730.00,2218.622658,N,11410.157434,E,1,12,0.6,20.7,M,-1.3,M,,*45,1621307256594
$GPGSV,6,1,18,07,71,294,27,21,67,088,23,01,61,159,29,08,40,026,24*71,1621307256599
$GPGSV,6,3,18,27,12,045,,16,10,093,,04,09,185,,03,06,163,*7E,1621307256599
$GPGSV,6,4,18,28,01,297,*45,1621307256599
$GPGSV,6,5,18,01,,,28,08,,,23,30,,,20,09,,,,8*6D,1621307256599
$GPGSV,6,6,18,27,,,,8*61,1621307256600
$GLGSV,2,1,06,84,59,013,11,74,57,012,28,85,53,226,19,73,47,105,26*68,1621307256603
$GLGSV,2,2,06,80,05,132,,86,06,213,*66,1621307256604
$QZGSV,2,1,06,03,64,054,24,02,64,082,21,01,11,152,*58,1621307256604
$QZGSV,2,2,06,02,,,24,03,,,24,01,,,,8*77,1621307256604
$GPGSA,A,3,01,07,08,09,21,22,30,,,,,,2.2,1.1,1.9*3D,1621307256605
$GNGSA,A,3,01,07,08,09,21,22,30,,,,,,2.2,1.1,1.9*23,1621307256605
$GNGSA,A,3,73,74,85,,,,,,,,,,2.2,1.1,1.9*2E,1621307256606
$QZGSA,A,3,02,03,,,,,,,,,,,2.2,1.1,1.9*27,1621307256606
$IMGSA,A,3,,,,,,,,,,,,,2.2,1.1,1.9*29,1621307256606
$BDGSA,A,3,,,,,,,,,,,,,2.2,1.1,1.9*2B,1621307256607
$GAGSA,A,3,,,,,,,,,,,,,2.2,1.1,1.9*2B,1621307256607
$GPRMC,030730.00,A,2218.622658,N,11410.157434,E,001.7,359.6,180521,,,A*58,1621307256607
$GPGGA,030731.00,2218.622477,N,11410.157607,E,1,12,0.6,20.3,M,-1.3,M,,*4D,1621307257605
$GPGSV,6,1,18,07,71,294,29,21,67,088,23,01,61,158,29,08,40,026,24*7E,1621307257606
$GPGSV,6,2,18,30,32,317,19,09,19,218,12,17,16,248,,22,15,137,18*75,1621307257607
$GPGSV,6,3,18,27,12,045,,16,10,093,,04,09,185,,03,06,163,*7E,1621307257607
$GPGSV,6,4,18,28,01,297,*45,1621307257607
$GPGSV,6,5,18,01,,,28,08,,,23,30,,,20,09,,,12,8*6E,1621307257607
$GPGSV,6,6,18,27,,,,8*61,1621307257607
$GLGSV,2,1,06,84,59,013,11,74,57,012,28,85,53,226,21,73,47,105,26*63,1621307257607
$GLGSV,2,2,06,80,05,132,,86,06,213,*66,1621307257607
$QZGSV,2,1,06,03,64,054,24,02,64,082,21,01,11,152,*58,1621307257607
$QZGSV,2,2,06,02,,,24,03,,,23,01,,,10,8*71,1621307257607
$GPGSA,A,3,01,07,08,09,21,22,30,,,,,,2.2,1.1,1.9*3D,1621307257607
$GNGSA,A,3,01,07,08,09,21,22,30,,,,,,2.2,1.1,1.9*23,1621307257607
$GNGSA,A,3,73,74,85,,,,,,,,,,2.2,1.1,1.9*2E,1621307257609
$QZGSA,A,3,02,03,,,,,,,,,,,2.2,1.1,1.9*27,1621307257609
$IMGSA,A,3,,,,,,,,,,,,,2.2,1.1,1.9*29,1621307257609
$BDGSA,A,3,,,,,,,,,,,,,2.2,1.1,1.9*2B,1621307257609
$GAGSA,A,3,,,,,,,,,,,,,2.2,1.1,1.9*2B,1621307257609
$GPRMC,030731.00,A,2218.622477,N,11410.157607,E,001.5,000.9,180521,,,A*56,1621307257609
$GPGGA,030732.00,2218.622512,N,11410.157788,E,1,12,0.6,20.4,M,-1.3,M,,*4D,1621307258602
$GPGSV,6,1,18,07,71,294,30,21,67,088,23,01,61,158,28,08,40,026,23*70,1621307258606
$GPGSV,6,2,18,30,32,317,19,09,19,218,12,17,16,248,,22,15,137,17*7A,1621307258606
$GPGSV,6,3,18,27,12,045,,16,10,093,,04,09,185,,03,06,163,*7E,1621307258606
$GPGSV,6,4,18,28,01,297,*45,1621307258606
$GPGSV,6,5,18,01,,,28,08,,,23,30,,,21,09,,,12,8*6F,1621307258606
$GPGSV,6,6,18,27,,,12,8*62,1621307258606
$GLGSV,2,1,06,84,59,013,11,74,57,012,27,85,53,226,21,73,47,105,25*6F,1621307258606
$GLGSV,2,2,06,80,05,132,,86,06,213,*66,1621307258606
$QZGSV,2,1,06,03,64,054,24,02,64,082,21,01,11,152,*58,1621307258606
$QZGSV,2,2,06,02,,,24,03,,,23,01,,,10,8*71,1621307258606
$GPGSA,A,3,01,07,08,09,21,22,30,,,,,,2.2,1.1,1.9*3D,1621307258606
$GNGSA,A,3,01,07,08,09,21,22,30,,,,,,2.2,1.1,1.9*23,1621307258606
$GNGSA,A,3,73,74,85,,,,,,,,,,2.2,1.1,1.9*2E,1621307258606
$QZGSA,A,3,02,03,,,,,,,,,,,2.2,1.1,1.9*27,1621307258606
$IMGSA,A,3,,,,,,,,,,,,,2.2,1.1,1.9*29,1621307258606
$BDGSA,A,3,,,,,,,,,,,,,2.2,1.1,1.9*2B,1621307258606
$GAGSA,A,3,,,,,,,,,,,,,2.2,1.1,1.9*2B,1621307258606
$GPRMC,030732.00,A,2218.622512,N,11410.157788,E,001.2,002.8,180521,,,A*55,1621307258606
$GPGGA,030733.00,2218.622725,N,11410.157953,E,1,12,0.6,21.4,M,-1.3,M,,*43,1621307259602
$GPGSV,6,1,18,07,71,294,30,21,67,088,23,01,61,158,28,08,40,026,28*7B,1621307259610
$GPGSV,6,2,18,30,32,317,19,09,18,218,12,17,16,248,,22,15,137,17*7B,1621307259611
$GPGSV,6,3,18,27,12,045,,16,10,093,,04,09,185,,03,06,163,*7E,1621307259611
$GPGSV,6,4,18,28,01,297,*45,1621307259612
$GPGSV,6,5,18,01,,,28,08,,,23,30,,,21,09,,,12,8*6F,1621307259612
$GPGSV,6,6,18,27,,,12,8*62,1621307259612
$GLGSV,2,1,06,84,59,013,11,74,57,012,27,85,53,226,21,73,47,105,25*6F,1621307259613
$GLGSV,2,2,06,80,05,132,,86,06,213,*66,1621307259613
$QZGSV,2,1,06,03,64,054,23,02,64,082,21,01,11,152,*5F,1621307259614
$QZGSV,2,2,06,02,,,23,03,,,24,01,,,10,8*71,1621307259614
$GPGSA,A,3,01,07,08,09,21,22,30,,,,,,2.2,1.1,1.9*3D,1621307259614
$GNGSA,A,3,01,07,08,09,21,22,30,,,,,,2.2,1.1,1.9*23,1621307259615
$GNGSA,A,3,73,74,85,,,,,,,,,,2.2,1.1,1.9*2E,1621307259615
$QZGSA,A,3,02,03,,,,,,,,,,,2.2,1.1,1.9*27,1621307259615
$IMGSA,A,3,,,,,,,,,,,,,2.2,1.1,1.9*29,1621307259615
$BDGSA,A,3,,,,,,,,,,,,,2.2,1.1,1.9*2B,1621307259615
$GAGSA,A,3,,,,,,,,,,,,,2.2,1.1,1.9*2B,1621307259615
$GPRMC,030733.00,A,2218.622725,N,11410.157953,E,001.0,002.9,180521,,,A*59,1621307259615
$GPGGA,030734.00,2218.622767,N,11410.157986,E,1,12,0.6,20.9,M,-1.3,M,,*46,1621307260607
$GPGSV,6,1,18,07,71,294,32,21,67,088,23,01,61,158,28,08,40,026,28*79,1621307260609
$GPGSV,6,2,18,30,32,317,19,09,18,218,13,17,16,248,,22,15,137,17*7A,1621307260610
$GPGSV,6,3,18,27,12,045,,16,10,093,,04,09,185,,03,06,163,*7E,1621307260610
$GPGSV,6,4,18,28,01,297,*45,1621307260610
$GPGSV,6,5,18,01,,,28,08,,,23,30,,,21,09,,,,8*6C,1621307260610
$GPGSV,6,6,18,27,,,,8*61,1621307260610
$GLGSV,2,1,06,84,59,013,11,74,57,012,26,85,53,226,20,73,47,105,25*6F,1621307260610
$GLGSV,2,2,06,80,05,132,,86,06,213,*66,1621307260610
$QZGSV,2,1,06,03,64,054,23,02,64,082,21,01,11,152,*5F,1621307260610
$QZGSV,2,2,06,02,,,23,03,,,25,01,,,,8*71,1621307260610
$GPGSA,A,3,01,07,08,09,21,22,30,,,,,,2.2,1.1,1.9*3D,1621307260610
$GNGSA,A,3,01,07,08,09,21,22,30,,,,,,2.2,1.1,1.9*23,1621307260611
$GNGSA,A,3,73,74,85,,,,,,,,,,2.2,1.1,1.9*2E,1621307260611
$QZGSA,A,3,02,03,,,,,,,,,,,2.2,1.1,1.9*27,1621307260611
$IMGSA,A,3,,,,,,,,,,,,,2.2,1.1,1.9*29,1621307260611
$BDGSA,A,3,,,,,,,,,,,,,2.2,1.1,1.9*2B,1621307260611
$GAGSA,A,3,,,,,,,,,,,,,2.2,1.1,1.9*2B,1621307260611
$GPRMC,030734.00,A,2218.622767,N,11410.157986,E,001.0,000.0,180521,,,A*5B,1621307260611
$GPGGA,030735.00,2218.622804,N,11410.157977,E,1,11,0.6,19.4,M,-1.3,M,,*47,1621307261600
$GPGSV,6,1,18,07,71,294,32,21,67,088,22,01,61,158,28,08,40,026,28*78,1621307261605
$GPGSV,6,2,18,30,32,317,19,09,18,218,13,17,16,248,,22,15,137,16*7B,1621307261606
$GPGSV,6,3,18,27,12,045,,16,10,093,,04,09,185,,03,06,163,*7E,1621307261607
$GPGSV,6,4,18,28,01,297,*45,1621307261608
$GPGSV,6,5,18,01,,,28,08,,,22,30,,,20,09,,,,8*6C,1621307261608
$GPGSV,6,6,18,27,,,11,8*61,1621307261608
$GLGSV,2,1,06,84,59,013,11,74,57,012,26,85,53,226,20,73,47,105,25*6F,1621307261608
$GLGSV,2,2,06,80,05,132,,86,06,213,*66,1621307261610
$QZGSV,2,1,06,03,64,054,23,02,64,082,22,01,11,152,*5C,1621307261611
$QZGSV,2,2,06,02,,,23,03,,,24,01,,,12,8*73,1621307261615
$GPGSA,A,3,01,07,08,21,22,30,,,,,,,3.2,1.3,2.9*34,1621307261619
$GNGSA,A,3,01,07,08,21,22,30,,,,,,,3.2,1.3,2.9*2A,1621307261619
$GNGSA,A,3,73,74,85,,,,,,,,,,3.2,1.3,2.9*2E,1621307261620
$QZGSA,A,3,02,03,,,,,,,,,,,3.2,1.3,2.9*27,1621307261620
$IMGSA,A,3,,,,,,,,,,,,,3.2,1.3,2.9*29,1621307261620
$BDGSA,A,3,,,,,,,,,,,,,3.2,1.3,2.9*2B,1621307261621
$GAGSA,A,3,,,,,,,,,,,,,3.2,1.3,2.9*2B,1621307261621
$GPRMC,030735.00,A,2218.622804,N,11410.157977,E,001.6,357.1,180521,,,A*58,1621307261621
$GPGGA,030736.00,2218.623133,N,11410.157898,E,1,12,0.6,19.9,M,-1.3,M,,*46,1621307262596
$GPGSV,6,1,18,07,71,294,32,21,67,088,22,01,61,158,27,08,40,026,27*78,1621307262599
$GPGSV,6,2,18,30,32,317,19,09,18,218,13,17,16,248,,22,15,137,16*7B,1621307262599
$GPGSV,6,3,18,27,12,045,,16,10,093,,04,09,185,08,03,06,163,*76,1621307262599
$GPGSV,6,4,18,28,01,297,*45,1621307262599
$GPGSV,6,5,18,01,,,27,08,,,23,30,,,20,09,,,,8*62,1621307262599
$GPGSV,6,6,18,27,,,,8*61,1621307262599
$GLGSV,2,1,06,84,59,013,11,74,57,012,26,85,53,226,19,73,47,105,24*64,1621307262599
$GLGSV,2,2,06,80,05,132,,86,06,213,*66,1621307262599
$QZGSV,2,1,06,03,64,054,23,02,64,082,21,01,11,152,*5F,1621307262600
$QZGSV,2,2,06,02,,,22,03,,,24,01,,,,8*71,1621307262600
$GPGSA,A,3,01,07,08,09,21,22,30,,,,,,3.2,1.3,2.9*3D,1621307262600
$GNGSA,A,3,01,07,08,09,21,22,30,,,,,,3.2,1.3,2.9*23,1621307262600
$GNGSA,A,3,73,74,85,,,,,,,,,,3.2,1.3,2.9*2E,1621307262600
$QZGSA,A,3,02,03,,,,,,,,,,,3.2,1.3,2.9*27,1621307262600
$IMGSA,A,3,,,,,,,,,,,,,3.2,1.3,2.9*29,1621307262601
$BDGSA,A,3,,,,,,,,,,,,,3.2,1.3,2.9*2B,1621307262601
$GAGSA,A,3,,,,,,,,,,,,,3.2,1.3,2.9*2B,1621307262601
$GPRMC,030736.00,A,2218.623133,N,11410.157898,E,002.6,355.1,180521,,,A*56,1621307262601
$GPGSV,6,3,18,27,12,045,,16,10,093,,04,09,185,08,03,06,163,*76,1621307263607
$GPGSV,6,4,18,28,01,297,*45,1621307263607
$GPGSV,6,5,18,01,,,27,08,,,23,30,,,20,09,,,,8*62,1621307263608
$GPGSV,6,6,18,27,,,,8*61,1621307263608
$GLGSV,2,1,06,84,59,013,13,74,57,012,26,85,53,226,19,73,47,105,24*66,1621307263608
$GLGSV,2,2,06,80,05,132,,86,06,213,*66,1621307263609
$QZGSV,2,1,06,03,64,054,23,02,64,082,21,01,11,152,*5F,1621307263609
$QZGSV,2,2,06,02,,,22,03,,,23,01,,,,8*76,1621307263609
$GPGSA,A,3,01,07,08,09,21,22,30,,,,,,3.4,1.5,3.0*35,1621307263610
$GNGSA,A,3,01,07,08,09,21,22,30,,,,,,3.4,1.5,3.0*2B,1621307263610
$GNGSA,A,3,73,74,84,85,,,,,,,,,3.4,1.5,3.0*2A,1621307263611
$QZGSA,A,3,02,03,,,,,,,,,,,3.4,1.5,3.0*2F,1621307263611
$IMGSA,A,3,,,,,,,,,,,,,3.4,1.5,3.0*21,1621307263612
$BDGSA,A,3,,,,,,,,,,,,,3.4,1.5,3.0*23,1621307263612
$GAGSA,A,3,,,,,,,,,,,,,3.4,1.5,3.0*23,1621307263612
$GPRMC,030737.00,A,2218.623852,N,11410.157924,E,002.4,352.7,180521,,,A*5C,1621307263613
$GPGGA,030738.00,2218.624528,N,11410.157915,E,1,12,0.6,20.2,M,-1.3,M,,*44,1621307264593
$GPGSV,6,1,18,07,71,294,32,21,67,088,22,01,61,158,27,08,40,026,27*78,1621307264598
$GPGSV,6,2,18,30,32,317,18,09,18,218,14,17,16,248,,22,15,137,15*7E,1621307264598
$GPGSV,6,3,18,27,12,045,,16,10,093,,04,09,185,08,03,06,163,*76,1621307264599
$GPGSV,6,4,18,28,01,297,*45,1621307264601
$GPGSV,6,5,18,01,,,26,08,,,23,30,,,20,09,,,,8*63,1621307264602
$GPGSV,6,6,18,27,,,,8*61,1621307264602
$GLGSV,2,1,06,84,59,013,13,74,57,012,25,85,53,226,18,73,47,105,24*64,1621307264603
$GLGSV,2,2,06,80,05,132,,86,06,213,*66,1621307264603
$QZGSV,2,1,06,03,64,054,23,02,64,082,20,01,11,152,*5E,1621307264603
$QZGSV,2,2,06,02,,,22,03,,,22,01,,,11,8*77,1621307264604
$GPGSA,A,3,01,07,08,09,21,30,,,,,,,3.2,1.3,2.9*3D,1621307264604
$GNGSA,A,3,01,07,08,09,21,30,,,,,,,3.2,1.3,2.9*23,1621307264605
$GNGSA,A,3,73,74,84,85,,,,,,,,,3.2,1.3,2.9*22,1621307264605
$QZGSA,A,3,02,03,,,,,,,,,,,3.2,1.3,2.9*27,1621307264605
$IMGSA,A,3,,,,,,,,,,,,,3.2,1.3,2.9*29,1621307264606
$BDGSA,A,3,,,,,,,,,,,,,3.2,1.3,2.9*2B,1621307264606
$GAGSA,A,3,,,,,,,,,,,,,3.2,1.3,2.9*2B,1621307264606
$GPRMC,030738.00,A,2218.624528,N,11410.157915,E,002.2,352.2,180521,,,A*55,1621307264607
$GPGGA,030739.00,2218.625089,N,11410.157909,E,1,12,0.6,20.7,M,-1.3,M,,*42,1621307265597
$GPGSV,6,1,18,07,71,294,31,21,67,088,21,01,61,158,27,08,40,026,27*78,1621307265600
$GPGSV,6,2,18,30,32,317,18,09,18,218,14,17,16,248,,22,15,137,15*7E,1621307265600
$GPGSV,6,3,18,27,12,045,,16,10,093,,04,09,185,08,03,06,163,*76,1621307265600
$GPGSV,6,4,18,28,01,297,*45,1621307265600
$GPGSV,6,5,18,01,,,26,08,,,23,30,,,19,09,,,,8*69,1621307265600
$GPGSV,6,6,18,27,,,,8*61,1621307265600
$GLGSV,2,1,06,84,59,013,13,74,57,012,25,85,53,226,18,73,47,105,24*64,1621307265600
$GLGSV,2,2,06,80,05,132,,86,06,213,*66,1621307265600
$QZGSV,2,1,06,03,64,054,22,02,64,082,20,01,11,152,08*57,1621307265600
$QZGSV,2,2,06,02,,,22,03,,,21,01,,,,8*74,1621307265601
$GPGSA,A,3,01,07,08,09,21,30,,,,,,,2.5,1.4,2.1*34,1621307265601
$GNGSA,A,3,01,07,08,09,21,30,,,,,,,2.5,1.4,2.1*2A,1621307265601
$GNGSA,A,3,73,74,84,85,,,,,,,,,2.5,1.4,2.1*2B,1621307265601
$QZGSA,A,3,02,03,,,,,,,,,,,2.5,1.4,2.1*2E,1621307265601
$IMGSA,A,3,,,,,,,,,,,,,2.5,1.4,2.1*20,1621307265601
$BDGSA,A,3,,,,,,,,,,,,,2.5,1.4,2.1*22,1621307265601
$GAGSA,A,3,,,,,,,,,,,,,2.5,1.4,2.1*22,1621307265601
$GPRMC,030739.00,A,2218.625089,N,11410.157909,E,001.9,351.8,180521,,,A*57,1621307265601
$GPGSV,6,3,18,27,12,045,,16,10,093,,04,09,185,08,03,06,163,*76,1621307266611
$GPGSV,6,4,18,28,01,297,*45,1621307266613
$GPGSV,6,5,18,01,,,25,08,,,22,30,,,19,09,,,,8*6B,1621307266613
$GPGSV,6,6,18,27,,,,8*61,1621307266614
$GLGSV,2,1,06,84,58,013,13,74,57,012,25,85,53,226,17,73,47,105,24*6A,1621307266615
$GLGSV,2,2,06,80,05,132,,86,06,213,*66,1621307266615
$QZGSV,2,1,06,03,64,054,22,02,64,082,21,01,11,152,08*56,1621307266616
$QZGSV,2,2,06,02,,,23,03,,,21,01,,,,8*75,1621307266616
$GPGSA,A,3,01,07,08,09,21,30,,,,,,,2.2,1.1,1.9*3D,1621307266616
$GNGSA,A,3,01,07,08,09,21,30,,,,,,,2.2,1.1,1.9*23,1621307266617
$GNGSA,A,3,73,74,84,85,,,,,,,,,2.2,1.1,1.9*22,1621307266617
$QZGSA,A,3,02,03,,,,,,,,,,,2.2,1.1,1.9*27,1621307266617
$IMGSA,A,3,,,,,,,,,,,,,2.2,1.1,1.9*29,1621307266618
$BDGSA,A,3,,,,,,,,,,,,,2.2,1.1,1.9*2B,1621307266618
$GAGSA,A,3,,,,,,,,,,,,,2.2,1.1,1.9*2B,1621307266619
$GPRMC,030740.00,A,2218.625325,N,11410.157869,E,001.9,351.2,180521,,,A*51,1621307266619
$GPGGA,030741.00,2218.625628,N,11410.157842,E,1,11,0.8,20.7,M,-1.3,M,,*43,1621307267599
$GPGSV,6,1,18,07,71,294,29,21,67,088,20,01,61,158,26,08,40,026,25*73,1621307267606
$GPGSV,6,2,18,30,32,317,17,09,18,218,13,17,16,248,,22,15,137,14*77,1621307267606
$GPGSV,6,3,18,27,12,045,,16,10,093,,04,09,185,08,03,06,163,*76,1621307267607
$GPGSV,6,4,18,28,01,297,*45,1621307267607
$GPGSV,6,5,18,01,,,25,08,,,22,30,,,19,09,,,,8*6B,1621307267607
$GPGSV,6,6,18,27,,,,8*61,1621307267608
$GLGSV,2,1,06,84,58,013,13,74,57,012,24,85,53,226,17,73,47,105,24*6B,1621307267608
$GLGSV,2,2,06,80,05,132,,86,06,213,*66,1621307267608
$QZGSV,2,1,06,03,64,053,21,02,64,082,21,01,11,152,*5A,1621307267608
$QZGSV,2,2,06,02,,,23,03,,,21,01,,,,8*75,1621307267608
$GPGSA,A,3,01,07,08,21,30,,,,,,,,2.2,1.1,1.9*34,1621307267608
$GNGSA,A,3,01,07,08,21,30,,,,,,,,2.2,1.1,1.9*2A,1621307267608
$GNGSA,A,3,73,74,84,85,,,,,,,,,2.2,1.1,1.9*22,1621307267608
$QZGSA,A,3,02,03,,,,,,,,,,,2.2,1.1,1.9*27,1621307267608
$IMGSA,A,3,,,,,,,,,,,,,2.2,1.1,1.9*29,1621307267609
$BDGSA,A,3,,,,,,,,,,,,,2.2,1.1,1.9*2B,1621307267610
$GAGSA,A,3,,,,,,,,,,,,,2.2,1.1,1.9*2B,1621307267610
$GPRMC,030741.00,A,2218.625628,N,11410.157842,E,001.6,351.3,180521,,,A*5F,1621307267610
$GPGGA,030742.00,2218.625907,N,11410.157727,E,1,12,0.8,20.8,M,-1.3,M,,*42,1621307268602
$GPGSV,6,1,18,07,71,294,29,21,67,088,20,01,61,158,26,08,40,026,25*73,1621307268605
$GPGSV,6,2,18,30,32,317,17,09,18,218,13,17,16,248,,22,15,137,13*70,1621307268605
$GPGSV,6,3,18,27,12,045,,16,10,093,,04,09,185,08,03,06,163,*76,1621307268605
$GPGSV,6,4,18,28,01,297,*45,1621307268605
$GPGSV,6,5,18,01,,,25,08,,,21,30,,,22,09,,,,8*60,1621307268605
$GPGSV,6,6,18,27,,,,8*61,1621307268605
$GLGSV,2,1,06,84,58,013,13,74,57,012,24,85,53,226,16,73,47,105,24*6A,1621307268605
$GLGSV,2,2,06,80,05,132,,86,06,213,*66,1621307268606
$QZGSV,2,1,06,03,64,053,21,02,64,082,21,01,11,152,08*52,1621307268606
$QZGSV,2,2,06,02,,,23,03,,,20,01,,,,8*74,1621307268606
$GPGSA,A,3,01,07,08,09,21,30,,,,,,,3.2,1.3,2.9*3D,1621307268606
$GNGSA,A,3,01,07,08,09,21,30,,,,,,,3.2,1.3,2.9*23,1621307268606
$GNGSA,A,3,73,74,84,85,,,,,,,,,3.2,1.3,2.9*22,1621307268606
$QZGSA,A,3,02,03,,,,,,,,,,,3.2,1.3,2.9*27,1621307268606
$IMGSA,A,3,,,,,,,,,,,,,3.2,1.3,2.9*29,1621307268606
$BDGSA,A,3,,,,,,,,,,,,,3.2,1.3,2.9*2B,1621307268606
$GAGSA,A,3,,,,,,,,,,,,,3.2,1.3,2.9*2B,1621307268606
$GPRMC,030742.00,A,2218.625907,N,11410.157727,E,001.8,350.1,180521,,,A*5F,1621307268606
$GPGGA,030743.00,2218.626280,N,11410.157687,E,1,12,0.8,21.6,M,-1.3,M,,*40,1621307269596
$GPGSV,6,1,18,07,71,294,29,21,67,088,21,01,61,158,26,08,40,026,25*72,1621307269607
$GPGSV,6,3,18,27,12,045,,16,10,093,,04,09,185,,03,06,163,*7E,1621307269608
$GPGSV,6,4,18,28,01,297,*45,1621307269608
$GPGSV,6,5,18,01,,,25,08,,,21,30,,,22,09,,,,8*60,1621307269608
$GPGSV,6,6,18,27,,,,8*61,1621307269609
$GLGSV,2,1,06,84,58,013,14,74,57,012,27,85,53,226,16,73,47,105,23*69,1621307269609
$GLGSV,2,2,06,80,05,132,,86,06,213,*66,1621307269609
$QZGSV,2,1,06,03,64,053,21,02,64,082,20,01,11,152,08*53,1621307269609
$QZGSV,2,2,06,02,,,23,03,,,20,01,,,,8*74,1621307269609
$GPGSA,A,3,01,07,08,09,21,30,,,,,,,2.2,1.1,1.9*3D,1621307269609
$GNGSA,A,3,01,07,08,09,21,30,,,,,,,2.2,1.1,1.9*23,1621307269609
$GNGSA,A,3,73,74,84,85,,,,,,,,,2.2,1.1,1.9*22,1621307269609
$QZGSA,A,3,02,03,,,,,,,,,,,2.2,1.1,1.9*27,1621307269609
$IMGSA,A,3,,,,,,,,,,,,,2.2,1.1,1.9*29,1621307269609
$BDGSA,A,3,,,,,,,,,,,,,2.2,1.1,1.9*2B,1621307269609
$GAGSA,A,3,,,,,,,,,,,,,2.2,1.1,1.9*2B,1621307269609
$GPRMC,030743.00,A,2218.626280,N,11410.157687,E,002.0,346.1,180521,,,A*5E,1621307269609
$GPGGA,030744.00,2218.626891,N,11410.157560,E,1,11,0.8,22.2,M,-1.3,M,,*43,1621307270601
$GPGSV,6,1,18,07,71,294,28,21,67,088,21,01,61,158,25,08,40,026,25*70,1621307270609
$GPGSV,6,2,18,30,32,317,17,09,18,218,14,17,16,248,,22,15,137,13*77,1621307270610
$GPGSV,6,3,18,27,12,045,,16,10,093,,04,09,185,,03,06,163,*7E,1621307270611
$GPGSV,6,4,18,28,01,297,*45,1621307270611
$GPGSV,6,5,18,01,,,24,08,,,20,30,,,21,09,,,,8*63,1621307270611
$GPGSV,6,6,18,27,,,,8*61,1621307270612
$GLGSV,2,1,06,84,58,013,14,74,57,012,28,85,53,226,15,73,47,105,23*65,1621307270612
$GLGSV,2,2,06,80,05,132,,86,06,213,*66,1621307270613
$QZGSV,2,1,06,03,64,053,21,02,64,082,20,01,11,152,*5B,1621307270613
$QZGSV,2,2,06,02,,,23,03,,,20,01,,,,8*74,1621307270613
$GPGSA,A,3,01,07,08,09,21,30,,,,,,,2.2,1.1,1.9*3D,1621307270614
$GNGSA,A,3,01,07,08,09,21,30,,,,,,,2.2,1.1,1.9*23,1621307270614
$GNGSA,A,3,73,74,84,,,,,,,,,,2.2,1.1,1.9*2F,1621307270615
$QZGSA,A,3,02,03,,,,,,,,,,,2.2,1.1,1.9*27,1621307270615
$IMGSA,A,3,,,,,,,,,,,,,2.2,1.1,1.9*29,1621307270615
$BDGSA,A,3,,,,,,,,,,,,,2.2,1.1,1.9*2B,1621307270616
$GAGSA,A,3,,,,,,,,,,,,,2.2,1.1,1.9*2B,1621307270616
$GPRMC,030744.00,A,2218.626891,N,11410.157560,E,001.7,345.4,180521,,,A*5B,1621307270617
$GPGGA,030745.00,2218.627399,N,11410.157558,E,1,12,0.8,21.9,M,-1.3,M,,*40,1621307271602
$GPGSV,6,1,18,07,71,294,28,21,67,088,21,01,61,158,25,08,40,026,24*71,1621307271610
$GPGSV,6,2,18,30,32,317,16,09,18,218,14,17,16,248,,22,15,137,13*76,1621307271610
$GPGSV,6,3,18,27,12,045,,16,10,093,,04,09,185,,03,06,163,*7E,1621307271610
$GPGSV,6,4,18,28,01,297,*45,1621307271610
$GPGSV,6,5,18,01,,,24,08,,,20,30,,,21,09,,,10,8*62,1621307271610
$GPGSV,6,6,18,27,,,,8*61,1621307271610
$GLGSV,2,1,06,84,58,013,21,74,57,012,31,85,53,226,15,73,47,105,24*6C,1621307271610
$GLGSV,2,2,06,80,05,133,,86,06,213,*67,1621307271610
$QZGSV,2,1,06,03,64,053,21,02,64,082,20,01,11,152,08*53,1621307271611
$QZGSV,2,2,06,02,,,22,03,,,20,01,,,,8*75,1621307271611
$GPGSA,A,3,01,07,08,09,21,30,,,,,,,2.2,1.1,1.9*3D,1621307271611
$GNGSA,A,3,01,07,08,09,21,30,,,,,,,2.2,1.1,1.9*23,1621307271611
$GNGSA,A,3,73,74,84,85,,,,,,,,,2.2,1.1,1.9*22,1621307271611
$QZGSA,A,3,02,03,,,,,,,,,,,2.2,1.1,1.9*27,1621307271611
$IMGSA,A,3,,,,,,,,,,,,,2.2,1.1,1.9*29,1621307271611
$BDGSA,A,3,,,,,,,,,,,,,2.2,1.1,1.9*2B,1621307271611
$GAGSA,A,3,,,,,,,,,,,,,2.2,1.1,1.9*2B,1621307271611
$GPRMC,030745.00,A,2218.627399,N,11410.157558,E,001.1,341.9,180521,,,A*5C,1621307271611
$GPGGA,030746.00,2218.628201,N,11410.157470,E,1,12,0.8,21.7,M,-1.3,M,,*49,1621307272601
$GPGSV,6,1,18,07,71,294,27,21,67,088,20,01,61,158,24,08,40,026,24*7E,1621307272605
$GPGSV,6,2,18,30,32,317,16,09,18,218,13,17,16,248,,22,15,137,13*71,1621307272605
$GPGSV,6,3,18,27,12,045,,16,10,093,,04,09,185,,03,06,163,*7E,1621307272605
$GPGSV,6,4,18,28,01,297,*45,1621307272605
$GPGSV,6,5,18,01,,,24,08,,,20,30,,,21,09,,,10,8*62,1621307272605
$GPGSV,6,6,18,27,,,,8*61,1621307272605
$GLGSV,2,1,06,84,58,013,21,74,57,012,35,85,53,226,15,73,47,105,24*68,1621307272605
$GLGSV,2,2,06,80,05,133,,86,06,213,*67,1621307272605
$QZGSV,2,1,06,03,64,053,21,02,64,082,20,01,11,152,08*53,1621307272605
$QZGSV,2,2,06,02,,,22,03,,,20,01,,,09,8*7C,1621307272606
$GPGSA,A,3,01,07,08,09,21,30,,,,,,,3.1,1.2,2.8*3E,1621307272606
$GNGSA,A,3,01,07,08,09,21,30,,,,,,,3.1,1.2,2.8*20,1621307272606
$GNGSA,A,3,73,74,84,85,,,,,,,,,3.1,1.2,2.8*21,1621307272606
$QZGSA,A,3,02,03,,,,,,,,,,,3.1,1.2,2.8*24,1621307272607
$IMGSA,A,3,,,,,,,,,,,,,3.1,1.2,2.8*2A,1621307272607
$BDGSA,A,3,,,,,,,,,,,,,3.1,1.2,2.8*28,1621307272607
$GAGSA,A,3,,,,,,,,,,,,,3.1,1.2,2.8*28,1621307272607
$GPRMC,030746.00,A,2218.628201,N,11410.157470,E,001.3,339.4,180521,,,A*5B,1621307272608
$GPGGA,030747.00,2218.629628,N,11410.157214,E,1,11,0.8,20.6,M,-1.3,M,,*41,1621307273602
$GPGSV,6,1,18,07,71,294,26,21,67,088,20,01,61,158,24,08,40,026,24*7F,1621307273607
$GPGSV,6,2,18,30,32,317,16,09,18,218,13,17,16,248,,22,15,137,12*70,1621307273607
$GPGSV,6,3,18,27,12,045,,16,10,093,,04,09,185,,03,06,163,*7E,1621307273607
$GPGSV,6,4,18,28,01,297,*45,1621307273607
$GPGSV,6,5,18,01,,,23,08,,,23,30,,,20,09,,,,8*66,1621307273607
$GPGSV,6,6,18,27,,,,8*61,1621307273607
$GLGSV,2,1,06,84,58,013,23,74,57,012,35,85,53,227,15,73,47,105,23*6C,1621307273607
$GLGSV,2,2,06,80,05,133,,86,06,213,*67,1621307273607
$QZGSV,2,1,06,03,64,053,21,02,64,082,21,01,11,152,*5A,1621307273607
$QZGSV,2,2,06,02,,,22,03,,,21,01,,,,8*74,1621307273607
$GPGSA,A,3,01,07,08,21,30,,,,,,,,3.1,1.2,2.8*37,1621307273607
$GNGSA,A,3,01,07,08,21,30,,,,,,,,3.1,1.2,2.8*29,1621307273607
$GNGSA,A,3,73,74,84,85,,,,,,,,,3.1,1.2,2.8*21,1621307273607
$QZGSA,A,3,02,03,,,,,,,,,,,3.1,1.2,2.8*24,1621307273607
$IMGSA,A,3,,,,,,,,,,,,,3.1,1.2,2.8*2A,1621307273608
$BDGSA,A,3,,,,,,,,,,,,,3.1,1.2,2.8*28,1621307273608
$GAGSA,A,3,,,,,,,,,,,,,3.1,1.2,2.8*28,1621307273608
$GPRMC,030747.00,A,2218.629628,N,11410.157214,E,002.0,340.0,180521,,,A*5A,1621307273608
$GPGGA,030748.00,2218.630603,N,11410.157056,E,1,11,0.8,21.4,M,-1.3,M,,*48,1621307274601
$GPGSV,6,1,18,07,71,294,26,21,67,088,20,01,61,158,24,08,40,026,23*78,1621307274608
$GPGSV,6,2,18,30,32,317,16,09,18,217,13,17,16,248,,22,15,137,12*7F,1621307274609
$GPGSV,6,3,18,27,12,045,,16,10,093,,04,09,185,,03,06,163,*7E,1621307274612
$GPGSV,6,4,18,28,01,297,*45,1621307274612
