     3.03           OBSERVATION DATA    M: Mixed            RINEX VERSION / TYPE
RTKCONV demo5 b33c                      20210520 081315 UTC PGM / RUN BY / DATE 
log: C:\Users\Ivan_PolyU_Dktp\Dropbox\HUAWEI Exp\20210518_  COMMENT             
format: RINEX                                               COMMENT             
                                                            MARKER NAME         
                                                            MARKER NUMBER       
                                                            MARKER TYPE         
                                                            OBSERVER / AGENCY   
                                                            REC # / TYPE / VERS 
                                                            ANT # / TYPE        
        0.0000        0.0000        0.0000                  APPROX POSITION XYZ 
        0.0000        0.0000        0.0000                  ANTENNA: DELTA H/E/N
G    4 C1C L1C D1C S1C                                      SYS / # / OBS TYPES 
E    4 C1C L1C D1C S1C                                      SYS / # / OBS TYPES 
J    4 C1C L1C D1C S1C                                      SYS / # / OBS TYPES 
  2021     5    18     3     7   14.9990000     GPS         TIME OF FIRST OBS   
  2021     5    18     4     3    3.9980000     GPS         TIME OF LAST OBS    
G                                                           SYS / PHASE SHIFT   
E                                                           SYS / PHASE SHIFT   
J                                                           SYS / PHASE SHIFT   
  0                                                         GLONASS SLOT / FRQ #
 C1C    0.000 C1P    0.000 C2C    0.000 C2P    0.000        GLONASS COD/PHS/BIS 
                                                            END OF HEADER       
> 2021  5 18  3  7 14.9990000  0 12                     
J 2  37670451.650 9                      1335.570          16.000  
G21  20175865.292 8 106024906.52923      -486.781          31.000  
G 7  19986475.200 2 105029628.032 1      1163.590          36.000  
G30  22392535.652 9                      3021.723          19.000  
E 2  26058476.364 9                     -1084.653          13.000  
G 8  21617079.500 9                     -2116.713          18.000  
J 3  38622113.916 8 202960569.23625      -639.401          26.000  
E15  22806813.216 2 119850619.180 1      1066.173          36.000  
E27  25278532.600 9                      1943.699          20.000  
G 9  23580813.089 9                     -2106.251          11.000  
E30  22794461.839 9                       464.229          24.000  
G 1  20052267.773 2 105375368.551 1      2152.287          37.000  
> 2021  5 18  3  7 15.9990000  0 10                     
J 2  37670196.537 9                      1335.570          15.000  
G21  20175958.503 4 106025394.39022      -488.459          32.000  
G 7  19986254.010 2 105028465.180 1      1162.906          38.000  
G30  22391962.221 9                      3023.881          18.000  
G 8  21617480.916 9                     -2112.153          18.000  
J 3  38622235.962 4 202961208.51424      -639.020          26.000  
E15  22806610.480 1 119849553.430 1      1065.391          38.000  
E27  25278162.681 9                      1946.643          18.000  
E30  22794372.485 9                       464.838          24.000  
G 1  20051858.461 2 105373217.151 1      2151.027          39.000  
> 2021  5 18  3  7 16.9990000  0 12                     
J 2  37669946.022 9                      1314.511          16.000  
G21  20176052.446 4 106025882.99022      -488.950          33.000  
G 7  19986032.575 2 105027303.060 1      1161.930          36.000  
G30  22391388.196 9                      3021.597          19.000  
E 2  26058889.576 9                     -1075.314          14.000  
G 8  21617881.119 9                     -2101.127          19.000  
J 3  38622357.835 4 202961847.95525      -638.652          27.000  
E15  22806407.970 1 119848488.247 1      1065.065          36.000  
E27  25277792.475 9                      1951.850          20.000  
G 9  23581618.181 9                     -2127.341          13.000  
E30  22794285.330 9                       464.218          25.000  
G 1  20051449.027 2 105371066.422 1      2150.938          37.000  
> 2021  5 18  3  7 17.9990000  0 12                     
J 2  37669692.322 9                      1324.413          17.000  
G21  20176147.236 8 106026372.08823      -489.170          32.000  
G 7  19985811.481 2 105026141.457 1      1160.626          36.000  
G30  22390812.426 9                      3028.313          18.000  
E 2  26059095.951 9                     -1075.314          14.000  
G 8  21618280.424 9                     -2100.877          18.000  
J 3  38622479.943 8 202962487.27125      -639.701          26.000  
E15  22806205.076 2 119847423.306 2      1065.222          35.000  
E27  25277423.150 9                      1937.690          20.000  
G 9  23582022.599 9                     -2117.229          14.000  
E30  22794197.189 9                       463.351          25.000  
G 1  20051039.819 2 105368916.158 1      2150.278          36.000  
> 2021  5 18  3  7 18.9990000  0 11                     
G21  20176242.557 8 106026861.504 4      -489.481          25.000  
G 7  19985590.587 4 105024980.073 2      1161.073          31.000  
G30  22390238.794 9                      3001.400          17.000  
E 2  26059303.897 9                     -1090.193          14.000  
G 8  21618679.981 9                     -2101.032          17.000  
J 3  38622602.277 9                      -639.261          25.000  
E15  22806002.130 4 119846358.604 3      1064.929          31.000  
E27  25277051.844 9                      1944.384          19.000  
G 9  23582425.716 9                     -2133.254          14.000  
E30  22794109.301 9                       496.107          24.000  
G 1  20050630.550 4 105366766.216 2      2149.462          32.000  
> 2021  5 18  3  7 19.9990000  0 12                     
J 2  37669184.651 9                      1343.568          14.000  
G21  20176333.927 8 106027350.22035      -489.477          31.000  
G 7  19985369.772 4 105023819.021 2      1161.339          35.000  
G30  22389666.549 9                      3032.650          15.000  
E 2  26059512.313 9                     -1090.193          12.000  
G 8  21619080.220 9                     -2105.448          16.000  
J 3  38622725.677 9                      -638.448          25.000  
E15  22805791.724 4 119845294.015 1      1064.800          35.000  
E27  25276680.669 9                      1944.799          19.000  
G 9  23582832.760 9                     -2133.254          14.000  
E30  22794021.840 9                       473.813          23.000  
G 1  20050221.290 2 105364616.509 1      2149.929          35.000  
> 2021  5 18  3  7 20.9990000  0 12                     
J 2  37668929.660 9                      1343.568          12.000  
G21  20176425.715 8 106027839.31123      -489.501          31.000  
G 7  19985148.617 2 105022657.305 1      1161.779          35.000  
G30  22389091.381 9                      3032.650          11.000  
E 2  26059720.843 9                     -1090.193          10.000  
G 8  21619480.275 9                     -2097.469          17.000  
J 3  38622847.566 9                      -637.660          25.000  
E15  22805590.951 4 119844228.548 1      1065.296          35.000  
E27  25276311.117 9                      1943.854          19.000  
G 9  23583238.486 9                     -2133.254          12.000  
E30  22793934.834 9                       472.306          22.000  
G 1  20049811.786 2 105362466.139 1      2150.324          35.000  
> 2021  5 18  3  7 21.9990000  0 12                     
J 2  37668675.480 9                      1318.303          13.000  
G21  20176516.360 4 106028329.12822      -490.970          34.000  
G 7  19984927.296 2 105021496.298 1      1159.974          39.000  
G30  22388513.395 9                      3032.650          13.000  
E 2  26059931.441 9                     -1090.193          12.000  
G 8  21619878.305 9                     -2092.092          19.000  
J 3  38622968.828 8 202965070.75235      -637.811          30.000  
E15  22805390.256 4 119843163.626 1      1063.796          39.000  
E27  25275940.614 9                      1946.620          22.000  
G 9  23583644.370 9                     -2132.933          16.000  
E30  22793845.838 9                       466.234          25.000  
G 1  20049402.491 2 105360316.438 1      2149.164          39.000  
> 2021  5 18  3  7 22.9990000  0 12                     
J 2  37668424.101 9                      1320.205          17.000  
G21  20176613.366 4 106028820.19521      -491.193          37.000  
G 7  19984706.367 1 105020336.555 1      1159.220          40.000  
G30  22387936.543 9                      3023.490          15.000  
E 2  26060139.884 9                     -1084.859          15.000  
G 8  21620279.084 9                     -2102.969          20.000  
J 3  38623089.278 8 202965708.70224      -638.221          30.000  
E15  22805192.248 2 119842099.783 1      1063.744          40.000  
E27  25275570.355 9                      1943.860          24.000  
G 9  23584049.267 9                     -2117.205          17.000  
E30  22793758.621 9 119782020.03115       464.308          27.000  
G 1  20048993.196 1 105358168.010 1      2147.877          41.000  
> 2021  5 18  3  7 23.9990000  0 12                     
J 2  37668172.286 9                      1322.588          19.000  
G21  20176703.714 4 106029311.40221      -491.255          37.000  
G 7  19984485.535 1 105019176.893 1      1159.578          40.000  
G30  22387364.036 9                      3006.506          16.000  
E 2  26060347.978 9                     -1074.885          17.000  
G 8  21620678.311 9                     -2100.220          21.000  
J 3  38623212.808 8 202966346.04623      -637.079          30.000  
E15  22804989.887 2 119841035.873 1      1064.070          41.000  
E27  25275198.762 9                      1944.944          25.000  
G 9  23584452.515 9                     -2121.809          19.000  
E30  22793670.655 8 119781554.865 4       466.075          28.000  
G 1  20048584.338 1 105356019.624 1      2148.492          41.000  
> 2021  5 18  3  7 24.9990000  0 12                     
J 2  37667918.786 9                      1330.663          18.000  
G21  20176798.652 4 106029802.86821      -492.361          33.000  
G 7  19984264.685 1 105018017.479 1      1158.627          37.000  
G30  22386791.704 9                      3006.506          14.000  
E 2  26060555.391 9                     -1086.897          17.000  
G 8  21621078.767 9                     -2102.678          20.000  
J 3  38623333.642 8 202966982.98624      -636.982          29.000  
E15  22804786.478 2 119839972.062 1      1063.017          38.000  
E27  25274826.714 9                      1947.825          24.000  
G 9  23584857.884 9                     -2133.877          18.000  
E30  22793582.034 4 119781089.591 4       464.526          28.000  
G 1  20048175.287 1 105353871.481 1      2147.568          36.000  
> 2021  5 18  3  7 25.9990000  0 12                     
J 2  37667664.153 9                      1330.663          17.000  
G21  20176893.154 4 106030295.63022      -492.345          32.000  
G 7  19984044.158 2 105016859.366 1      1157.870          35.000  
G30  22386219.921 9                      3006.506          11.000  
E 2  26060763.171 9                     -1086.897          16.000  
G 8  21621478.464 9                     -2104.111          18.000  
J 3  38623458.184 8 202967620.60824      -637.799          27.000  
E15  22804584.379 2 119838909.382 1      1062.141          36.000  
E27  25274455.932 9                      1945.295          23.000  
G 9  23585264.291 9                     -2133.877          17.000  
E30  22793496.092 4 119780624.995 4       465.341          26.000  
G 1  20047766.778 2 105351724.606 1      2146.715          36.000  
> 2021  5 18  3  7 26.9990000  0 12                     
J 2  37667411.657 9                      1323.583          15.000  
G21  20176987.499 4 106030788.63222      -492.599          33.000  
G 7  19983823.709 2 105015701.478 1      1157.941          35.000  
G30  22385648.400 9                      3006.506          11.000  
E 2  26060970.218 9                     -1086.897          15.000  
G 8  21621879.697 9                     -2103.392          18.000  
J 3  38623580.685 9                      -637.168          27.000  
E15  22804382.166 2 119837846.704 1      1062.900          36.000  
E27  25274085.464 9                      1953.944          21.000  
G 9  23585669.747 9                     -2133.877          16.000  
E30  22793407.209 4 119780160.274 3       465.276          26.000  
G 1  20047358.425 1 105349577.943 1      2146.717          37.000  
> 2021  5 18  3  7 27.9990000  0 11                     
J 2  37667161.264 9                      1323.583          14.000  
G21  20177081.389 4 106031281.89522      -494.341          34.000  
G 7  19983603.296 2 105014543.800 1      1156.761          36.000  
E 2  26061177.945 9                     -1086.897          13.000  
G 8  21622279.892 9                     -2104.667          18.000  
J 3  38623700.358 9                      -637.678          27.000  
E15  22804179.612 1 119836784.072 1      1062.564          37.000  
E27  25273715.048 9                      1946.805          21.000  
G 9  23586075.176 9                     -2128.378          16.000  
E30  22793319.487 4 119779695.243 4       465.139          26.000  
G 1  20046949.811 2 105347431.436 1      2146.026          38.000  
> 2021  5 18  3  7 28.9990000  0 12                     
J 2  37666910.931 9                      1323.583          15.000  
G21  20177175.760 4 106031775.97522      -494.168          34.000  
G 7  19983382.899 2 105013386.940 1      1156.672          36.000  
G30  22384503.814 9                      3006.506          12.000  
E 2  26061383.989 9                     -1084.166          14.000  
G 8  21622681.866 9                     -2106.509          18.000  
J 3  38623818.243 9                      -636.366          27.000  
E15  22803977.757 1 119835722.169 1      1061.330          37.000  
E27  25273344.728 9                      1948.070          21.000  
G 9  23586479.009 9                     -2127.665          17.000  
E30  22793230.490 4 119779230.539 4       465.454          26.000  
G 1  20046541.519 2 105345285.765 1      2145.723          38.000  
> 2021  5 18  3  7 29.9990000  0 12                     
J 2  37666657.144 9                      1328.596          15.000  
G21  20177269.843 4 106032270.71222      -494.607          34.000  
G 7  19983162.904 2 105012230.748 1      1155.507          36.000  
G30  22383930.112 9                      3018.270          14.000  
E 2  26061591.716 9                     -1084.166          15.000  
G 8  21623081.005 9                     -2105.281          17.000  
J 3  38623938.632 8 202970171.29735      -636.921          26.000  
E15  22803775.858 1 119834660.663 1      1061.382          37.000  
E27  25272975.586 9                      1943.809          22.000  
G 9  23586884.404 9                     -2124.082          18.000  
E30  22793141.721 4 119778766.138 4       464.260          26.000  
G 1  20046133.228 2 105343140.720 1      2144.976          38.000  
> 2021  5 18  3  7 30.9990000  0 12                     
J 2  37666405.983 9                      1318.572          15.000  
G21  20177364.257 4 106032766.167 2      -495.948          34.000  
G 7  19982943.075 2 105011075.170 1      1155.490          36.000  
G30  22383355.171 9                      3018.270          13.000  
E 2  26061798.431 9                     -1082.492          16.000  
G 8  21623481.679 9                     -2100.073          17.000  
J 3  38624060.287 8 202970808.20124      -636.908          27.000  
E15  22803573.941 1 119833599.675 1      1060.596          37.000  
E27  25272605.302 9                      1945.941          22.000  
G 9  23587286.788 9                     -2117.553          17.000  
E30  22793054.173 4 119778301.797 4       463.918          26.000  
G 1  20045725.085 2 105340996.302 1      2143.914          38.000  
> 2021  5 18  3  7 31.9990000  0 12                     
J 2  37666153.636 9                      1318.572          15.000  
G21  20177458.715 4 106033262.354 2      -496.125          34.000  
G 7  19982723.220 2 105009920.378 1      1154.359          36.000  
G30  22382782.298 9                      3017.059          15.000  
E 2  26062001.290 9                     -1067.971          16.000  
G 8  21623880.626 9                     -2101.515          18.000  
J 3  38624180.754 4 202971445.22524      -637.233          27.000  
E15  22803372.365 1 119832539.262 1      1060.034          37.000  
E27  25272235.287 9                      1945.834          22.000  
G 9  23587690.569 9                     -2121.231          17.000  
E30  22792967.629 4 119777837.742 5       464.401          26.000  
G 1  20045316.837 2 105338852.631 1      2142.776          38.000  
> 2021  5 18  3  7 32.9990000  0 12                     
J 2  37665900.206 9                      1331.323          14.000  
G21  20177553.392 4 106033759.560 2      -498.363          35.000  
G 7  19982503.504 4 105008766.549 2      1152.906          36.000  
G30  22382208.866 9                      3013.070          16.000  
E 2  26062204.332 9                     -1067.971          14.000  
G 8  21624280.419 9                     -2101.515          16.000  
J 3  38624302.731 4 202972082.52824      -637.556          27.000  
E15  22803170.675 2 119831479.631 1      1059.224          37.000  
E27  25271866.529 9                      1944.531          22.000  
G 9  23588094.524 9                     -2127.440          17.000  
E30  22792881.678 8 119777374.185 5       463.871          25.000  
G 1  20044909.148 2 105336709.885 1      2141.991          37.000  
> 2021  5 18  3  7 33.9990000  0 11                     
J 2  37665648.417 9                      1331.323          14.000  
G21  20177648.173 2 106034257.393 1      -497.978          35.000  
G 7  19982284.024 2 105007613.365 1      1152.754          36.000  
G30  22381634.327 9                      3023.678          16.000  
G 8  21624681.425 9                     -2101.515          15.000  
J 3  38624424.194 4 202972719.80024      -637.087          27.000  
E15  22802969.309 1 119830420.480 1      1059.024          37.000  
E27  25271497.675 9                      1944.944          22.000  
G 9  23588498.322 9                     -2121.007          17.000  
E30  22792792.394 4 119776910.909 4       462.874          26.000  
G 1  20044501.598 2 105334567.797 1      2141.379          37.000  
> 2021  5 18  3  7 34.9990000  0 11                     
J 2  37665395.110 9                      1325.964          14.000  
G21  20177743.285 4 106034755.923 2      -498.127          35.000  
G 7  19982064.736 2 105006460.864 1      1152.227          36.000  
G30  22381060.206 9                      3016.570          18.000  
G 8  21625080.852 9                     -2107.081          13.000  
J 3  38624546.057 4 202973357.19624      -637.688          27.000  
E15  22802767.689 1 119829361.869 1      1058.464          37.000  
E27  25271128.132 9                      1949.908          22.000  
G 9  23588904.371 9                     -2125.881          18.000  
E30  22792705.352 4 119776447.751 5       463.172          26.000  
G 1  20044094.030 2 105332426.350 1      2140.432          37.000  
> 2021  5 18  3  7 35.9990000  0 12                     
J 2  37665142.526 9                      1339.830          15.000  
G21  20177838.362 4 106035255.229 2      -499.840          35.000  
G 7  19981845.483 2 105005309.136 1      1150.757          36.000  
G30  22380485.274 9                      3013.388          16.000  
E 2  26062815.290 9                     -1086.867          11.000  
G 8  21625480.951 9                     -2107.081          11.000  
J 3  38624667.484 4 202973994.63824      -637.616          27.000  
E15  22802566.523 2 119828303.812 1      1057.675          37.000  
E27  25270759.636 9                      1956.061          22.000  
G 9  23589309.810 9                     -2130.869          17.000  
E30  22792618.476 9                       462.791          26.000  
G 1  20043686.411 2 105330285.585 1      2140.823          37.000  
> 2021  5 18  3  7 36.9990000  0 12                     
J 2  37664891.514 9                      1323.198          17.000  
G21  20177933.449 4 106035755.144 2      -500.087          35.000  
G 7  19981626.483 2 105004157.962 1      1150.749          36.000  
G30  22379909.739 9                      3014.399          18.000  
E 2  26063021.508 9                     -1086.867          11.000  
G 8  21625882.725 9                     -2107.081          13.000  
J 3  38624789.121 4 202974632.00825      -637.459          26.000  
E15  22802364.964 2 119827246.188 1      1057.341          37.000  
E27  25270389.403 9                      1955.048          22.000  
G 9  23589715.527 9                     -2128.246          17.000  
E30  22792530.423 9                       460.521          25.000  
G 1  20043279.044 2 105328145.468 1      2139.547          37.000  
> 2021  5 18  3  7 37.9990000  0 12                     
J 2  37664638.931 9                      1332.720          17.000  
G21  20178028.971 4 106036255.920 2      -500.700          34.000  
G 7  19981407.421 2 105003007.617 1      1150.138          35.000  
G30  22379335.557 9                      3018.837          17.000  
E 2  26063227.997 9                     -1086.867          11.000  
G 8  21626284.717 9                     -2107.081          13.000  
J 3  38624911.875 9                      -638.115          26.000  
E15  22802164.199 2 119826189.231 1      1056.941          36.000  
E27  25270018.708 9                      1948.242          21.000  
G 9  23590121.855 9                     -2133.230          16.000  
E30  22792443.381 9                       462.370          25.000  
G 1  20042871.669 2 105326006.134 1      2139.169          36.000  
> 2021  5 18  3  7 38.9990000  0 11                     
J 2  37664386.182 9                      1321.749          17.000  
G21  20178124.441 2 106036757.328 1      -501.174          36.000  
G 7  19981188.613 2 105001857.938 1      1149.637          37.000  
G30  22378760.930 9                      3017.852          18.000  
G 8  21626685.042 9                     -2107.081          13.000  
J 3  38625031.723 9                      -637.417          26.000  
E15  22801963.426 1 119825132.720 1      1056.533          38.000  
E27  25269646.827 9                      1941.163          21.000  
G 9  23590525.697 9                     -2117.552          16.000  
E30  22792353.914 9                       460.631          25.000  
G 1  20042464.677 2 105323867.420 1      2138.494          38.000  
> 2021  5 18  3  7 39.9990000  0 12                     
J 2  37664135.073 9                      1325.464          16.000  
G21  20178219.990 2 106037259.407 1      -502.427          36.000  
G 7  19980969.866 2 105000708.873 1      1149.536          37.000  
G30  22378186.146 9                      3015.289          20.000  
G 8  21627084.861 9                     -2099.840          13.000  
J 3  38625153.395 8 202976548.62935      -637.131          27.000  
E15  22801762.391 1 119824076.707 1      1055.780          38.000  
E27  25269276.393 9                      1943.033          22.000  
G 4  24509892.897 9                     -2411.720          10.000  
G 9  23590929.635 9                     -2116.205          16.000  
E30  22792263.504 8                       462.382          26.000  
G 1  20042057.538 2 105321729.320 1      2138.160          38.000  
> 2021  5 18  3  7 40.9990000  0 11                     
J 2  37663883.048 9                      1338.019          16.000  
G21  20178315.984 2 106037762.137 1      -503.268          36.000  
G 7  19980751.590 2 104999560.451 1      1148.537          38.000  
G30  22377611.310 9                      3022.677          21.000  
G 8  21627483.311 9                     -2099.840          13.000  
J 3  38625274.298 8 202977186.16924      -637.723          27.000  
E15  22801561.303 1 119823021.106 1      1055.675          38.000  
E27  25268905.847 9                      1944.315          22.000  
G 9  23591333.407 9                     -2131.083          18.000  
E30  22792176.401 8                       461.885          26.000  
G 1  20041650.572 2 105319591.845 1      2137.275          38.000  
> 2021  5 18  3  7 41.9990000  0 12                     
J 2  37663631.739 9                      1340.672          17.000  
G21  20178412.091 4 106038265.601 2      -504.619          34.000  
G 7  19980533.445 2 104998412.775 1      1146.922          36.000  
G30  22377042.258 9                      2973.006          19.000  
G 8  21627883.444 9                     -2099.840          13.000  
J 3  38625396.066 4 202977823.74924      -638.115          27.000  
E15  22801360.250 2 119821966.078 1      1054.651          35.000  
E27  25268534.724 9                      1943.896          21.000  
G 4  24510808.894 9                     -2411.720          12.000  
G 9  23591736.672 9                     -2110.321          18.000  
E30  22792087.615 9                       462.021          25.000  
G 1  20041243.825 2 105317455.064 1      2136.556          35.000  
> 2021  5 18  3  7 42.9990000  0 11                     
J 2  37663380.622 9                      1324.353          17.000  
G21  20178508.154 2 106038769.615 2      -504.856          36.000  
G 7  19980315.352 2 104997265.625 1      1146.757          38.000  
G30  22376467.239 9                      3013.205          19.000  
G 8  21628284.337 9                     -2099.840          13.000  
J 3  38625517.903 4 202978461.20724      -637.128          27.000  
E15  22801159.695 1 119820911.439 1      1054.436          38.000  
E27  25268164.378 9                      1951.674          22.000  
G 9  23592141.299 9                     -2128.627          19.000  
E30  22792000.442 9                       462.149          25.000  
G 1  20040837.314 2 105315318.846 1      2135.418          37.000  
> 2021  5 18  3  7 43.9990000  0 12                     
J 2  37663132.165 9                      1321.176          19.000  
G21  20178604.418 2 106039274.288 2      -505.108          35.000  
G 7  19980097.154 2 104996119.087 1      1146.139          38.000  
G30  22375889.724 9                      3019.955          20.000  
G 8  21628685.762 9                     -2111.674          14.000  
J 3  38625639.418 4 202979098.73624      -638.528          27.000  
E15  22800958.860 1 119819857.364 1      1053.687          38.000  
E27  25267793.893 9                      1939.425          22.000  
G 4  24511726.845 9                     -2411.720          12.000  
G 9  23592543.762 9                     -2120.197          19.000  
E30  22791913.514 9                       461.298          25.000  
G 1  20040430.820 2 105313183.371 1      2134.781          37.000  
> 2021  5 18  3  7 44.9990000  0 11                     
J 2  37662881.170 9                      1324.948          20.000  
G21  20178700.892 8                      -506.946          31.000  
G 7  19979879.026 2 104994973.300 1      1144.403          37.000  
G30  22375312.689 9                      3014.190          20.000  
G 8  21629086.977 9                     -2103.917          22.000  
J 3  38625760.374 4 202979736.14025      -639.005          25.000  
E15  22800758.471 1 119818803.957 1      1052.333          38.000  
E27  25267424.768 9                      1953.673          22.000  
G 9  23592946.915 9                     -2120.197          17.000  
E30  22791825.696 9                       461.030          26.000  
G 1  20040024.762 2 105311048.775 1      2132.986          38.000  
> 2021  5 18  3  7 45.9990000  0 11                     
J 2  37662632.470 9                      1331.233          21.000  
G21  20178797.714 8                      -508.007          31.000  
G 7  19979661.396 2 104993829.186 1      1143.490          34.000  
G30  22374738.472 9                      3014.211          20.000  
G 8  21629488.210 9                     -2108.652          21.000  
J 3  38625880.720 8                      -639.379          25.000  
E15  22800558.666 1 119817752.611 1      1049.983          36.000  
E27  25267055.478 9                      1948.085          22.000  
G 9  23593350.137 9                     -2120.197          15.000  
E30  22791734.387 9                       460.186          26.000  
G 1  20039619.219 2 105308916.547 1      2131.677          36.000  
> 2021  5 18  3  7 46.9990000  0 11                     
J 2  37662383.167 9                      1319.984          23.000  
G21  20178894.013 8 106040805.39935      -508.592          29.000  
G 7  19979443.687 2 104992684.964 1      1145.135          38.000  
G30  22374164.220 9                      3020.862          20.000  
G 8  21629887.366 9                     -2112.338          22.000  
J 3  38626003.203 9                      -641.036          23.000  
E15  22800358.730 2 119816701.439 2      1051.318          33.000  
E27  25266686.781 9                      1948.416          22.000  
G 9  23593753.900 9                     -2124.739          16.000  
E30  22791647.232 9                       460.452          26.000  
G 1  20039213.649 2 105306785.087 1      2131.611          36.000  
> 2021  5 18  3  7 47.9990000  0 11                     
J 2  37662134.179 9                      1324.835          23.000  
G21  20178989.230 9                      -507.374          26.000  
G 7  19979225.952 2 104991540.735 2      1143.147          34.000  
G30  22373588.843 9                      3021.137          19.000  
G 8  21630285.118 9                     -2102.786          25.000  
J 3  38626125.092 9                      -637.626          23.000  
E15  22800158.750 2 119815650.874 1      1049.499          34.000  
E27  25266312.308 9                      1957.620          21.000  
G 9  23594158.370 9                     -2129.257          16.000  
E30  22791560.470 9                       468.601          24.000  
G 1  20038808.394 2 105304654.562 1      2129.368          35.000  
> 2021  5 18  3  7 48.9990000  0 11                     
J 2  37661882.939 9                      1329.656          22.000  
G21  20179089.770 9                      -509.412          26.000  
G 7  19979008.610 2 104990397.862 1      1141.913          40.000  
G30  22373014.399 9                      3012.003          19.000  
G 8  21630685.496 9                     -2114.546          25.000  
J 3  38626244.818 9                      -632.972          22.000  
E15  22799959.225 2 119814601.908 1      1048.600          38.000  
E27  25265941.020 9                      1948.068          22.000  
G 9  23594564.594 9                     -2133.206          18.000  
E30  22791471.011 9                       465.312          24.000  
G 1  20038403.401 4 105302526.030 2      2128.148          38.000  
> 2021  5 18  3  7 49.9990000  0 11                     
J 2  37661634.492 9                      1319.866          29.000  
G21  20179182.082 9                      -501.806          25.000  
G 7  19978791.485 2 104989255.851 1      1143.132          37.000  
G30  22372440.880 9                      3021.359          20.000  
G 8  21631086.196 9                     -2102.645          25.000  
J 3  38626365.347 9                      -648.022          21.000  
E15  22799759.830 2 119813553.690 1      1048.030          37.000  
E27  25265571.703 9                      1947.344          23.000  
G 9  23594970.861 9                     -2128.783          18.000  
E30  22791383.350 9                       446.515          22.000  
G 1  20037998.652 4 105300398.518 2      2127.671          35.000  
> 2021  5 18  3  7 50.9990000  0 11                     
J 2  37661384.701 9                      1319.707          28.000  
G21  20179282.263 9                      -513.014          29.000  
G 7  19978574.125 2 104988113.690 1      1143.375          41.000  
G30  22371866.428 9                      3021.940          22.000  
G 8  21631484.672 9                     -2103.057          24.000  
J 3  38626487.848 9                      -635.748          21.000  
E15  22799560.068 2 119812504.906 1      1049.061          37.000  
E27  25265201.558 9                      1945.188          24.000  
G 9  23595377.085 9                     -2140.008          17.000  
E30  22791298.018 9                       465.745          22.000  
G 1  20037593.711 4 105298270.435 2      2128.971          36.000  
> 2021  5 18  3  7 51.9990000  0 12                     
J 2  37661135.642 9                      1328.998          24.000  
G21  20179377.088 9                      -502.490          23.000  
G 7  19978356.861 1 104986970.564 1      1143.692          46.000  
G30  22371292.621 9                      3012.411          22.000  
G 8  21631884.073 9                     -2102.114          22.000  
J 3  38626608.158 9                      -633.120          29.000  
E13  25955468.740 9                      2951.303          13.000  
E15  22799360.185 1 119811455.066 1      1050.117          40.000  
E27  25264826.274 9                      1952.375          30.000  
G 9  23595781.450 9                     -2125.307          17.000  
E30  22791205.829 9                       436.091          30.000  
G 1  20037188.709 4 105296141.431 2      2129.182          38.000  
> 2021  5 18  3  7 52.9990000  0 11                     
J 2  37660883.801 9                      1323.063          23.000  
G21  20179474.792 9                      -506.710          23.000  
G 7  19978139.859 1 104985827.678 1      1142.200          41.000  
G30  22370715.830 9                      2989.271          22.000  
G 8  21632278.369 9                     -2101.817          23.000  
E13  25954905.360 9                      2954.558          16.000  
E15  22799160.572 2 119810405.346 1      1049.711          39.000  
E27  25264454.279 9                      1948.775          23.000  
G 9  23596186.574 9                     -2109.326          16.000  
E30  22791113.858 9                       464.013          29.000  
G 1  20036783.742 4 105294012.860 3      2128.584          35.000  
> 2021  5 18  3  7 53.9990000  0 11                     
J 2  37660630.746 9                      1333.399          20.000  
G21  20179572.469 9                      -512.924          23.000  
G 7  19977922.560 2 104984685.845 1      1140.319          37.000  
G30  22370143.027 9                      3015.979          21.000  
G 8  21632679.942 9                     -2095.989          22.000  
E13  25954343.419 9                      2949.664          15.000  
E15  22798960.706 4 119809355.647 2      1049.850          34.000  
E27  25264080.347 9                      1952.351          23.000  
G 9  23596590.433 9                     -2130.929          18.000  
E30  22791024.888 9                       442.356          20.000  
G 1  20036376.898 8 105291883.926 3      2129.574          31.000  
> 2021  5 18  3  7 54.9990000  0 11                     
J 2  37660377.675 9                      1333.399          18.000  
G21  20179671.883 9                      -520.719          23.000  
G 7  19977705.611 2 104983545.943 1      1139.251          37.000  
G30  22369568.993 9                      3015.979          18.000  
G 8  21633074.745 9                     -2110.697          21.000  
E13  25953781.819 9                      2949.664          12.000  
E15  22798760.909 2 119808306.165 2      1049.013          35.000  
E27  25263711.327 9                      1947.039          24.000  
G 9  23596995.749 9                     -2127.607          19.000  
E30  22790944.896 9                       460.253          19.000  
G 1  20035967.752 8 105289754.631 3      2128.469          31.000  
> 2021  5 18  3  7 55.9990000  0 12                     
J 2  37660123.809 9                      1329.415          15.000  
G21  20179767.597 9                      -517.303          25.000  
G 7  19977488.949 1 104982406.939 1      1138.696          42.000  
G30  22368994.759 9                      3015.979          16.000  
G 8  21633477.138 9                     -2105.980          22.000  
J 3  38627108.848 9                      -635.181          31.000  
E13  25953220.646 9                      2949.664          10.000  
E15  22798561.593 1 119807257.454 1      1048.261          40.000  
E27  25263340.231 8 132759759.33714      1947.297          31.000  
G 9  23597402.915 9                     -2119.260          21.000  
E30  22790863.543 9                       460.985          22.000  
G 1  20035563.483 4 105287626.309 2      2127.629          37.000  
> 2021  5 18  3  7 56.9990000  0 12                     
J 2  37659874.803 9                      1320.476          16.000  
G21  20179865.999 9                      -514.364          25.000  
G 7  19977272.426 1 104981268.462 1      1138.566          42.000  
G30  22368417.637 9                      3011.984          29.000  
G 8  21633881.582 9                     -2105.554          31.000  
J 3  38627222.275 9                      -630.327          25.000  
E13  25952658.601 9                      2956.657          14.000  
E15  22798362.486 1 119806209.397 1      1047.625          40.000  
E27  25262963.070 8 132757811.313 4      1948.938          29.000  
G 9  23597807.978 9                     -2128.106          24.000  
E30  22790782.783 9                       449.258          24.000  
G 1  20035162.250 4 105285498.893 2      2127.035          39.000  
> 2021  5 18  3  7 57.9990000  0 11                     
J 2  37659627.909 9                      1319.903          29.000  
G21  20179962.979 9                      -513.058          25.000  
G 7  19977055.703 1 104980130.224 1      1138.011          40.000  
G30  22367842.076 9                      3019.067          20.000  
G 8  21634280.912 9                     -2103.198          25.000  
E13  25952096.922 9                      2943.311          17.000  
E15  22798163.527 2 119805161.942 1      1047.450          36.000  
E27  25262597.131 8 132755862.088 5      1949.941          30.000  
G 9  23598215.328 9                     -2128.725          25.000  
E30  22790693.587 9                       464.302          24.000  
G 1  20034759.848 4 105283372.602 1      2124.880          35.000  
> 2021  5 18  3  7 58.9990000  0 12                     
J 2  37659380.639 9 197901380.08735      1322.339          32.000  
G21  20180059.156 9                      -514.245          25.000  
G 7  19976839.312 1 104978992.412 1      1137.653          45.000  
G30  22367269.299 9                      3007.449          21.000  
G 8  21634689.082 9                     -2100.615          24.000  
J 3  38627464.266 9                      -635.730          30.000  
E13  25951535.784 9                      2956.451          17.000  
E15  22797964.071 2 119804115.230 1      1046.327          38.000  
E27  25262220.747 8 132753912.304 4      1950.660          29.000  
G 9  23598619.256 9                     -2131.594          23.000  
E30  22790602.653 9                       465.116          23.000  
G 1  20034356.128 4 105281247.197 1      2125.425          39.000  
> 2021  5 18  3  7 59.9990000  0 12                     
J 2  37659124.897 9                      1322.544          26.000  
G21  20180156.423 9                      -513.496          24.000  
G 7  19976623.104 1 104977854.973 1      1137.204          41.000  
G30  22366693.887 9                      3012.358          21.000  
G 8  21635091.536 9                     -2111.164          24.000  
J 3  38627575.031 9                      -635.888          29.000  
E13  25950975.362 9                      2955.134          15.000  
E15  22797764.589 2 119803069.013 1      1046.136          38.000  
E27  25261856.447 9                      1949.769          18.000  
G 9  23599023.735 9                     -2123.669          22.000  
E30  22790505.421 9                       459.137          30.000  
G 1  20033952.505 4 105279122.809 1      2124.985          40.000  
> 2021  5 18  3  8  0.9990000  0 12                     
J 2  37658874.687 9                      1316.205          24.000  
G21  20180255.811 9                      -514.752          25.000  
G 7  19976406.634 4 104976718.193 2      1135.641          33.000  
G30  22366119.504 9                      3016.950          22.000  
G 8  21635491.155 9                     -2097.222          23.000  
J 3  38627694.024 9                      -637.603          27.000  
E13  25950413.220 9                      2955.134          16.000  
E15  22797565.570 1 119802023.188 1      1045.126          38.000  
E27  25261484.574 9                      1948.590          28.000  
G 9  23599428.772 9                     -2132.147          21.000  
E30  22790413.057 9 119764464.35315       459.923          29.000  
G 1  20033547.477 2 105276998.797 1      2123.108          39.000  
> 2021  5 18  3  8  1.9990000  0 12                     
J 2  37658626.004 9                      1323.515          23.000  
G21  20180353.000 9                      -515.104          25.000  
G 7  19976190.609 2 104975582.079 1      1136.315          39.000  
G30  22365546.858 9                      3011.552          22.000  
G 8  21635889.988 9                     -2106.993          25.000  
J 3  38627816.184 9                      -636.078          28.000  
E13  25949850.634 9                      2954.390          16.000  
E15  22797366.140 1 119800977.969 1      1044.700          38.000  
E27  25261110.485 9                      1950.180          27.000  
G 9  23599832.692 9                     -2122.451          19.000  
E30  22790330.517 9 119764004.302 4       459.096          30.000  
G 1  20033143.373 2 105274875.527 1      2122.159          38.000  
> 2021  5 18  3  8  2.9990000  0 12                     
J 2  37658371.537 9                      1319.757          24.000  
G21  20180453.417 9                      -510.858          23.000  
G 7  19975974.025 4                      1136.710          30.000  
G30  22364972.475 9                      3005.405          22.000  
G 8  21636291.081 9                     -2100.610          25.000  
J 3  38627937.882 9                      -638.578          28.000  
E13  25949289.034 9                      2952.055          17.000  
E15  22797167.390 1 119799933.592 1      1044.080          40.000  
E27  25260739.599 9                      1949.621          26.000  
G 9  23600237.773 9                     -2124.531          21.000  
E30  22790253.728 9                       459.753          28.000  
G 1  20032739.558 2 105272753.844 1      2120.454          40.000  
> 2021  5 18  3  8  3.9990000  0 12                     
J 2  37658117.400 9                      1325.229          23.000  
G21  20180551.112 9                      -527.064          23.000  
G 7  19975761.255 8 104973333.76035      1139.011          30.000  
G30  22364400.117 9                      3016.853          22.000  
G 8  21636692.524 9                     -2105.617          25.000  
J 3  38628055.627 9                      -632.118          28.000  
E13  25948726.971 9                      2945.434          18.000  
E15  22796968.929 1 119798891.258 1      1041.623          39.000  
E27  25260370.387 9                      1948.472          25.000  
G 9  23600643.909 9                     -2136.542          19.000  
E30  22790156.495 9                       461.454          28.000  
G 1  20032336.178 2 105270635.634 1      2116.394          42.000  
> 2021  5 18  3  8  4.9990000  0 13                     
J 2  37657868.054 9                      1317.001          22.000  
G21  20180650.491 9                      -522.223          25.000  
G 7  19975545.937 9                      1135.860          26.000  
G30  22363826.589 9                      3017.288          21.000  
G 8  21637090.589 9                     -2096.635          26.000  
J 3  38628176.566 9                      -636.078          33.000  
E13  25948162.858 9                      2945.937          19.000  
E15  22796771.000 1 119797850.268 1      1040.833          39.000  
E27  25260001.978 9                      1950.145          24.000  
G 4  24521314.387 9                     -2387.867          12.000  
G 9  23601052.052 9                     -2136.542          19.000  
E30  22790068.310 9                       463.326          28.000  
G 1  20031933.419 2 105268519.642 1      2115.960          43.000  
> 2021  5 18  3  8  5.9990000  0 12                     
J 2  37657613.281 9                      1323.262          22.000  
G21  20180746.624 9                      -520.574          23.000  
G 7  19975336.473 9                      1139.099          25.000  
G30  22363253.140 9                      3008.793          20.000  
G 8  21637490.653 9                     -2101.185          24.000  
J 3  38628293.151 9                      -633.044          27.000  
E13  25947604.006 9                      2943.127          18.000  
E15  22796572.949 4 119796809.385 2      1040.163          33.000  
E27  25259630.341 9                      1950.361          21.000  
G 9  23601458.241 9                     -2127.657          16.000  
E30  22789964.359 9 119762166.09214       460.619          38.000  
G 1  20031530.467 2 105266403.697 1      2114.935          36.000  
> 2021  5 18  3  8  6.9990000  0 12                     
J 2  37657358.569 9                      1317.200          23.000  
G21  20180844.363 9                      -516.485          21.000  
G 7  19975113.808 9                      1137.094          31.000  
G30  22362681.131 9                      3008.793          17.000  
G 8  21637889.059 9                     -2101.560          22.000  
J 3  38628405.417 8 202993639.62234      -635.632          32.000  
E13  25947044.927 9                      2943.127          15.000  
E15  22796375.212 2 119795770.190 2      1038.668          33.000  
E27  25259259.227 9                      1952.506          19.000  
G 9  23601863.348 9                     -2127.657          11.000  
E30  22789877.946 8 119761704.533 4       462.539          28.000  
G 1  20031128.056 2 105264290.420 1      2111.027          36.000  
> 2021  5 18  3  8  7.9990000  0 11                     
J 2  37657103.394 9 197889413.19735      1319.218          34.000  
G21  20180931.649 9 106051510.92635      -521.062          30.000  
G 7  19974889.119 8 104968795.94333      1134.185          35.000  
G30  22362110.526 9                      3013.639          17.000  
G 8  21638289.969 9                     -2095.788          20.000  
J 3  38628525.457 8 202994273.07124      -633.435          27.000  
E13  25946486.267 9                      2943.127          13.000  
E15  22796177.972 4 119794732.579 2      1037.597          33.000  
E27  25258885.146 9                      1964.657          20.000  
E30  22789793.435 9                       454.931          26.000  
G 1  20030726.352 2 105262179.480 1      2110.743          36.000  
> 2021  5 18  3  8  8.9990000  0 10                     
J 2  37656847.504 9 197888092.88525      1319.881          31.000  
G21  20181032.712 8 106052033.24623      -522.009          36.000  
G 7  19974678.722 8 104967662.16223      1130.793          30.000  
G30  22361535.410 9                      3020.187          19.000  
G 8  21638688.768 9                     -2099.206          21.000  
J 3  38628649.476 9                      -627.812          25.000  
E15  22795980.531 2 119793695.607 2      1037.000          33.000  
E27  25258513.509 9                      1956.636          20.000  
E30  22789708.958 9                       455.689          26.000  
G 1  20030324.901 2 105260069.037 1      2109.093          36.000  
> 2021  5 18  3  8  9.9990000  0 10                     
J 2  37656601.055 8 197886772.49523      1320.868          36.000  
G21  20181131.986 8 106052556.30424      -524.052          34.000  
G 7  19974463.849 9                      1130.982          25.000  
G30  22360959.361 9                      3016.486          21.000  
G 8  21639088.857 9                     -2112.393          21.000  
J 3  38628771.750 9                      -634.622          25.000  
E15  22795782.742 4 119792658.625 2      1036.670          33.000  
E27  25258140.493 9                      1957.682          19.000  
E30  22789621.236 9                       470.138          25.000  
G 1  20029922.970 4 105257958.438 2      2110.086          35.000  
> 2021  5 18  3  8 10.9990000  0 10                     
J 2  37656351.543 9                      1322.444          17.000  
G21  20181233.110 8 106053079.99324      -523.567          26.000  
G 7  19974242.624 9                      1132.189          25.000  
G30  22360385.389 9                      3015.099          21.000  
G 8  21639488.633 9                     -2095.694          20.000  
J 3  38628894.311 9                      -635.089          26.000  
E15  22795584.970 8                      1041.793          28.000  
E27  25257768.498 9                      1957.682          17.000  
E30  22789535.128 9                       461.663          24.000  
G 1  20029520.568 8 105255847.855 3      2111.568          32.000  
> 2021  5 18  3  8 11.9990000  0 10                     
J 2  37656101.359 9                      1319.217          28.000  
G21  20181333.118 9                      -524.296          35.000  
G 7  19974030.254 9 104964236.84335      1130.382          35.000  
G30  22359810.631 9                      3015.608          29.000  
G 8  21639886.847 9                     -2106.168          21.000  
J 3  38629014.630 9                      -634.454          26.000  
E15  22795387.023 8 119790577.59614      1037.147          36.000  
E27  25257395.360 9                      1953.348          17.000  
E30  22789445.879 9                       447.092          23.000  
G 1  20029118.288 4 105253736.656 2      2112.004          40.000  
> 2021  5 18  3  8 12.9990000  0 10                     
J 2  37655853.278 9                      1322.785          24.000  
G21  20181431.493 9                      -525.802          30.000  
G 7  19973815.416 8 104963108.08822      1127.155          41.000  
G30  22359234.608 9                      3007.317          25.000  
G 8  21640285.087 9                     -2105.085          22.000  
J 3  38629132.097 8                      -637.759          28.000  
E15  22795187.236 8 119789540.123 2      1036.719          34.000  
E27  25257023.793 9                      1941.941          18.000  
E30  22789359.526 9                       450.168          21.000  
G 1  20028715.398 4 105251624.127 1      2112.656          38.000  
> 2021  5 18  3  8 13.9990000  0 10                     
J 2  37655604.159 9                      1321.340          21.000  
G21  20181536.142 9                      -526.241          23.000  
G 7  19973602.576 4 104961980.65321      1127.268          32.000  
G30  22358659.047 9                      3002.467          24.000  
G 8  21640686.181 9                     -2113.089          22.000  
J 3  38629256.665 9                      -637.738          17.000  
E15  22794991.872 8 119788502.839 2      1037.485          30.000  
E27  25256653.360 9                      1940.366          18.000  
E30  22789273.113 9                       457.547          20.000  
G 1  20028315.770 4 105249511.458 1      2112.780          33.000  
> 2021  5 18  3  8 14.9990000  0 10                     
J 2  37655347.737 9                      1309.116          21.000  
G21  20181637.493 9                      -525.366          25.000  
G 7  19973383.846 8 104960852.38923      1128.827          32.000  
G30  22358084.944 9                      3013.404          24.000  
G 8  21641086.436 9                     -2125.415          21.000  
J 3  38629381.111 9                      -638.041          18.000  
E15  22794792.084 4 119787466.730 2      1035.682          34.000  
E27  25256283.825 9                      1952.860          18.000  
E30  22789184.710 9                       467.222          21.000  
G 1  20027914.616 4 105247401.019 2      2108.926          37.000  
> 2021  5 18  3  8 15.9990000  0 10                     
J 2  37655097.832 9                      1323.958          21.000  
G21  20181738.416 9                      -532.907          24.000  
G 7  19973169.444 8                      1130.486          31.000  
G30  22357511.678 9                      3022.776          22.000  
G 8  21641483.795 9                     -2088.085          28.000  
J 3  38629501.273 9                      -632.629          28.000  
E15  22794594.984 4 119786432.299 1      1033.281          34.000  
E27  25255911.254 9                      1960.065          18.000  
E30  22789094.204 9                       462.945          23.000  
G 1  20027513.723 2 105245293.994 1      2104.733          37.000  
> 2021  5 18  3  8 16.9990000  0 10                     
J 2  37654848.739 9                      1320.353          30.000  
G21  20181836.382 9                      -513.868          24.000  
G 7  19972958.724 9                      1128.993          31.000  
G30  22356936.353 9                      3011.247          23.000  
G 8  21641877.969 9                     -2092.682          28.000  
J 3  38629615.782 9 203000000.93434      -632.889          30.000  
E15  22794402.403 4 119785400.211 1      1031.181          41.000  
E27  25255536.502 9                      1971.087          27.000  
E30  22789007.738 9                       430.432          23.000  
G 1  20027113.293 2 105243190.630 1      2102.194          44.000  
> 2021  5 18  3  8 17.9990000  0 10                     
J 2  37654600.230 9                      1328.350          29.000  
G21  20181933.614 9                      -525.808          30.000  
G 7  19972745.299 9                      1131.058          31.000  
G30  22356363.986 9                      3019.039          24.000  
G 8  21642267.537 9                     -2109.426          28.000  
J 3  38629734.827 9                      -633.952          30.000  
E15  22794205.958 4 119784369.537 1      1030.549          40.000  
E27  25255156.558 9                      1970.658          30.000  
E30  22788922.590 9                       466.036          25.000  
G 1  20026713.675 2 105241089.778 1      2099.775          42.000  
> 2021  5 18  3  8 18.9990000  0 10                     
J 2  37654349.148 9                      1317.400          27.000  
G21  20182035.201 9                      -518.720          28.000  
G 7  19972529.667 9                      1128.655          33.000  
G30  22355790.493 9                      3046.752          22.000  
G 8  21642663.997 9                     -2084.685          26.000  
J 3  38629861.306 9                      -625.734          28.000  
E15  22794011.161 4 119783339.626 1      1029.577          29.000  
E27  25254777.636 9                      1961.673          27.000  
E30  22788834.397 9                       464.081          25.000  
G 1  20026313.009 4 105238990.432 2      2100.243          31.000  
> 2021  5 18  3  8 19.9990000  0 11                     
J 2  37654099.191 9                      1316.025          25.000  
G21  20182139.955 9                      -531.788          21.000  
G 7  19972311.094 9 104955222.50235      1127.790          30.000  
G30  22355214.078 9                      3018.968          21.000  
G 8  21643061.024 9                     -2095.800          25.000  
J 3  38629975.361 9                      -628.507          27.000  
G16  24712594.120 9                     -1724.000          12.000  
E15  22793813.450 4 119782309.992 3      1030.396          33.000  
E27  25254399.332 9                      1968.466          26.000  
E30  22788747.181 9                       453.691          24.000  
G 1  20025910.459 4 105236891.139 2      2101.131          35.000  
> 2021  5 18  3  8 20.9990000  0 10                     
J 2  37653849.496 9                      1324.292          25.000  
G21  20182238.854 9                      -528.325          22.000  
G 7  19972098.140 8 104954096.11624      1124.653          31.000  
G30  22354637.322 9                      3014.184          28.000  
G 8  21643459.893 9                     -2117.291          25.000  
J 3  38630098.036 9                      -630.627          27.000  
E15  22793618.016 4 119781278.290 2      1033.363          34.000  
E27  25254009.774 9 132710726.71015      1958.319          27.000  
E30  22788658.551 9                       456.893          26.000  
G 1  20025511.712 4 105234787.828 2      2105.613          38.000  
> 2021  5 18  3  8 21.9990000  0 10                     
J 2  37653598.082 9                      1320.028          28.000  
G21  20182336.269 9                      -530.622          26.000  
G 7  19971886.399 8 104952972.72723      1121.960          31.000  
G30  22354048.368 9 117471316.50734      3003.595          36.000  
G 8  21643858.168 9                     -2117.502          25.000  
J 3  38630216.898 9                      -638.960          25.000  
E15  22793420.532 2 119780243.862 2      1035.567          35.000  
E27  25253640.527 8 132708772.926 3      1949.176          32.000  
E30  22788569.886 9                       462.195          24.000  
G 1  20025110.706 4 105232679.341 1      2109.872          36.000  
> 2021  5 18  3  8 22.9990000  0 10                     
J 2  37653342.785 9 197869651.74735      1321.108          27.000  
G21  20182435.142 9 106059421.72435      -529.656          27.000  
G 7  19971676.778 8 104951850.77524      1121.998          31.000  
G30  22353474.448 8 117468314.22122      3002.645          32.000  
G 8  21644261.905 9                     -2107.798          25.000  
J 3  38630339.416 9                      -635.627          26.000  
E15  22793223.563 4 119779207.487 2      1036.358          35.000  
E27  25253267.389 8                      1948.169          28.000  
E30  22788480.053 9                       462.195          21.000  
G 1  20024710.058 4 105230567.485 2      2112.178          33.000  
> 2021  5 18  3  8 23.9990000  0 10                     
J 2  37653088.466 8 197868330.22024      1320.988          28.000  
G21  20182538.980 8 106059951.93424      -530.732          28.000  
G 7  19971459.785 8 104950729.38823      1120.581          33.000  
G30  22352900.641 4 117465312.23221      3002.023          35.000  
